{"type":"FeatureCollection","features":[{"geometry": {"type": "Point", "coordinates": [-70.93970525991476, 42.115221379626668]}, "type": "Feature", "id": 0, "properties": {"CITY": "ABINGTON", "NAME": "ABINGTON POLICE STATION", "ZIP": "02351", "JURISDIC": "LOCAL", "L_DATE": "2006-09-12", "SOURCE": "MEMA", "STATE": "MA", "OBJECTID": 1.0, "ADDRESS": "215 CENTRAL ST", "L_SRC": "MEMA"}},{"geometry": {"type": "Point", "coordinates": [-70.909654021545421, 41.682722338745329]}, "type": "Feature", "id": 1, "properties": {"CITY": "ACUSHNET", "NAME": "ACUSHNET POLICE DEPT", "ZIP": "02743", "JURISDIC": "LOCAL", "L_DATE": "2006-09-12", "SOURCE": "MEMA", "STATE": "MA", "OBJECTID": 2.0, "ADDRESS": "130 MAIN ST", "L_SRC": "SRPED"}},{"geometry": {"type": "Point", "coordinates": [-73.119427713970779, 42.62278040477598]}, "type": "Feature", "id": 2, "properties": {"CITY": "ADAMS", "NAME": "ADAMS POLICE DEPT", "ZIP": "01220", "JURISDIC": "LOCAL", "L_DATE": "2006-09-12", "SOURCE": "MEMA", "STATE": "MA", "OBJECTID": 3.0, "ADDRESS": "4 SCHOOL ST", "L_SRC": "BRPC"}},{"geometry": {"type": "Point", "coordinates": [-72.517290794571338, 42.375497968477255]}, "type": "Feature", "id": 3, "properties": {"CITY": "AMHERST", "NAME": "AMHERST POLICE CHIEF", "ZIP": "01002", "JURISDIC": "LOCAL", "L_DATE": "2006-09-12", "SOURCE": "MEMA", "STATE": "MA", "OBJECTID": 4.0, "ADDRESS": "111 MAIN ST", "L_SRC": "BRPC"}},{"geometry": {"type": "Point", "coordinates": [-70.813043756194787, 41.343214461495457]}, "type": "Feature", "id": 4, "properties": {"CITY": "AQUINNAH", "NAME": "AQUINNAH POLICE DEPT", "ZIP": "02535", "JURISDIC": "LOCAL", "L_DATE": "2006-09-12", "SOURCE": "MEMA", "STATE": "MA", "OBJECTID": 5.0, "ADDRESS": "67 STATE RD", "L_SRC": "MVC"}},{"geometry": {"type": "Point", "coordinates": [-72.791900708382087, 42.526062982833871]}, "type": "Feature", "id": 5, "properties": {"CITY": "ASHFIELD", "NAME": "ASHFIELD POLICE DEPT-SHELBURNE FALLS", "ZIP": "01330", "JURISDIC": "LOCAL", "L_DATE": "2006-09-12", "SOURCE": "MEMA", "STATE": "MA", "OBJECTID": 6.0, "ADDRESS": "412 MAIN ST", "L_SRC": "FRCOG"}},{"geometry": {"type": "Point", "coordinates": [-71.281081312388238, 41.943394476167107]}, "type": "Feature", "id": 6, "properties": {"CITY": "ATTLEBORO", "NAME": "ATTLEBORO POLICE DEPT", "ZIP": "02703", "JURISDIC": "LOCAL", "L_DATE": "2006-09-12", "SOURCE": "MEMA", "STATE": "MA", "OBJECTID": 7.0, "ADDRESS": "12 UNION ST", "L_SRC": "MEMA"}},{"geometry": {"type": "Point", "coordinates": [-71.847961615243932, 42.197066762950151]}, "type": "Feature", "id": 7, "properties": {"CITY": "AUBURN", "NAME": "AUBURN POLICE DEPT", "ZIP": "01501", "JURISDIC": "LOCAL", "L_DATE": "2006-09-12", "SOURCE": "MEMA", "STATE": "MA", "OBJECTID": 8.0, "ADDRESS": "416 OXFORD ST", "L_SRC": "MEMA"}},{"geometry": {"type": "Point", "coordinates": [-71.039539926740503, 42.132602735453347]}, "type": "Feature", "id": 8, "properties": {"CITY": "AVON", "NAME": "AVON POLICE DEPT", "ZIP": "02322", "JURISDIC": "LOCAL", "L_DATE": "2006-09-12", "SOURCE": "MEMA", "STATE": "MA", "OBJECTID": 9.0, "ADDRESS": "150 MAIN ST", "L_SRC": "MEMA"}},{"geometry": {"type": "Point", "coordinates": [-70.313500584670621, 41.674301770427988]}, "type": "Feature", "id": 9, "properties": {"CITY": "BARNSTABLE", "NAME": "BARNSTABLE POLICE", "ZIP": "02601", "JURISDIC": "LOCAL", "L_DATE": "2006-09-12", "SOURCE": "MEMA", "STATE": "MA", "OBJECTID": 10.0, "ADDRESS": "1200 PHINNEYS LN", "L_SRC": "MEMA"}},{"geometry": {"type": "Point", "coordinates": [-72.108820774777513, 42.423242664290093]}, "type": "Feature", "id": 10, "properties": {"CITY": "BARRE", "NAME": "BARRE POLICE DEPT", "ZIP": "01005", "JURISDIC": "LOCAL", "L_DATE": "2006-09-12", "SOURCE": "MEMA", "STATE": "MA", "OBJECTID": 11.0, "ADDRESS": "40 WEST ST", "L_SRC": "MEMA"}},{"geometry": {"type": "Point", "coordinates": [-71.474146840052555, 42.086940221196379]}, "type": "Feature", "id": 11, "properties": {"CITY": "BELLINGHAM", "NAME": "BELLINGHAM POLICE DEPT", "ZIP": "02019", "JURISDIC": "LOCAL", "L_DATE": "2006-09-12", "SOURCE": "MEMA", "STATE": "MA", "OBJECTID": 12.0, "ADDRESS": "6 MECHANIC ST", "L_SRC": "MEMA"}},{"geometry": {"type": "Point", "coordinates": [-71.082982310353316, 41.846041877101641]}, "type": "Feature", "id": 12, "properties": {"CITY": "BERKLEY", "NAME": "BERKLEY POLICE DEPT", "ZIP": "02779", "JURISDIC": "LOCAL", "L_DATE": "2006-09-12", "SOURCE": "MEMA", "STATE": "MA", "OBJECTID": 13.0, "ADDRESS": "3 NORTH MAIN ST", "L_SRC": "MEMA"}},{"geometry": {"type": "Point", "coordinates": [-71.640016666464248, 42.380988610953928]}, "type": "Feature", "id": 13, "properties": {"CITY": "BERLIN", "NAME": "BERLIN POLICE DEPT", "ZIP": "01503", "JURISDIC": "LOCAL", "L_DATE": "2006-09-12", "SOURCE": "MEMA", "STATE": "MA", "OBJECTID": 14.0, "ADDRESS": "23 LINDEN ST", "L_SRC": "MEMA"}},{"geometry": {"type": "Point", "coordinates": [-71.53305916477936, 42.017439318895029]}, "type": "Feature", "id": 14, "properties": {"CITY": "BLACKSTONE", "NAME": "BLACKSTONE POLICE DEPT", "ZIP": "01504", "JURISDIC": "LOCAL", "L_DATE": "2006-09-12", "SOURCE": "MEMA", "STATE": "MA", "OBJECTID": 15.0, "ADDRESS": "15 SAINT PAUL ST", "L_SRC": "MEMA"}},{"geometry": {"type": "Point", "coordinates": [-71.608037489835766, 42.43349392175422]}, "type": "Feature", "id": 15, "properties": {"CITY": "BOLTON", "NAME": "BOLTON TOWN POLICE DEPT", "ZIP": "01740", "JURISDIC": "LOCAL", "L_DATE": "2006-09-12", "SOURCE": "MEMA", "STATE": "MA", "OBJECTID": 16.0, "ADDRESS": "697 MAIN ST", "L_SRC": "MEMA"}},{"geometry": {"type": "Point", "coordinates": [-71.148509843602099, 42.2870950501976]}, "type": "Feature", "id": 16, "properties": {"CITY": "BOSTON", "NAME": "BOSTON POLICE DEPT", "ZIP": "02132", "JURISDIC": "LOCAL", "L_DATE": "2006-09-12", "SOURCE": "MEMA", "STATE": "MA", "OBJECTID": 17.0, "ADDRESS": "1708 CENTRE ST", "L_SRC": "MEMA"}},{"geometry": {"type": "Point", "coordinates": [-71.060343890084511, 42.361801775328296]}, "type": "Feature", "id": 17, "properties": {"CITY": "BOSTON", "NAME": "BOSTON POLICE DEPT", "ZIP": "02114", "JURISDIC": "LOCAL", "L_DATE": "2006-09-12", "SOURCE": "MEMA", "STATE": "MA", "OBJECTID": 18.0, "ADDRESS": "40 NEW SUDBURY ST", "L_SRC": "MEMA"}},{"geometry": {"type": "Point", "coordinates": [-71.084086120203068, 42.328358442299418]}, "type": "Feature", "id": 18, "properties": {"CITY": "BOSTON", "NAME": "BOSTON POLICE DEPT", "ZIP": "02119", "JURISDIC": "LOCAL", "L_DATE": "2006-09-12", "SOURCE": "MEMA", "STATE": "MA", "OBJECTID": 19.0, "ADDRESS": "135 DUDLEY ST", "L_SRC": "MEMA"}},{"geometry": {"type": "Point", "coordinates": [-71.072007063328002, 42.348870962061277]}, "type": "Feature", "id": 19, "properties": {"CITY": "BOSTON", "NAME": "BOSTON POLICE DEPT", "ZIP": "02116", "JURISDIC": "LOCAL", "L_DATE": "2006-09-12", "SOURCE": "MEMA", "STATE": "MA", "OBJECTID": 20.0, "ADDRESS": "154 BERKELEY ST", "L_SRC": "MEMA"}},{"geometry": {"type": "Point", "coordinates": [-71.059088637982626, 42.298027642339427]}, "type": "Feature", "id": 20, "properties": {"CITY": "BOSTON", "NAME": "BOSTON POLICE DEPT", "ZIP": "02122", "JURISDIC": "LOCAL", "L_DATE": "2006-09-12", "SOURCE": "MEMA", "STATE": "MA", "OBJECTID": 21.0, "ADDRESS": "40 GIBSON ST", "L_SRC": "MEMA"}},{"geometry": {"type": "Point", "coordinates": [-71.091690520899903, 42.284682585145283]}, "type": "Feature", "id": 21, "properties": {"CITY": "BOSTON", "NAME": "BOSTON POLICE DEPT", "ZIP": "02124", "JURISDIC": "LOCAL", "L_DATE": "2006-09-12", "SOURCE": "MEMA", "STATE": "MA", "OBJECTID": 22.0, "ADDRESS": "1165 BLUE HILL AVE", "L_SRC": "MEMA"}},{"geometry": {"type": "Point", "coordinates": [-71.054954127589383, 42.341126541600957]}, "type": "Feature", "id": 22, "properties": {"CITY": "BOSTON", "NAME": "BOSTON POLICE DEPT", "ZIP": "02127", "JURISDIC": "LOCAL", "L_DATE": "2006-09-12", "SOURCE": "MEMA", "STATE": "MA", "OBJECTID": 23.0, "ADDRESS": "101 WEST BROADWAY", "L_SRC": "MEMA"}},{"geometry": {"type": "Point", "coordinates": [-71.038806133855729, 42.371034528394937]}, "type": "Feature", "id": 23, "properties": {"CITY": "BOSTON", "NAME": "BOSTON POLICE DEPT", "ZIP": "02128", "JURISDIC": "LOCAL", "L_DATE": "2006-09-12", "SOURCE": "MEMA", "STATE": "MA", "OBJECTID": 24.0, "ADDRESS": "69 PARIS ST", "L_SRC": "MEMA"}},{"geometry": {"type": "Point", "coordinates": [-71.059187771047277, 42.356778771101126]}, "type": "Feature", "id": 24, "properties": {"CITY": "BOSTON", "NAME": "BOSTON POLICE DEPT", "ZIP": "02108", "JURISDIC": "LOCAL", "L_DATE": "2006-09-12", "SOURCE": "MEMA", "STATE": "MA", "OBJECTID": 25.0, "ADDRESS": "301 WASHINGTON ST", "L_SRC": "MEMA"}},{"geometry": {"type": "Point", "coordinates": [-71.148509843602099, 42.2870950501976]}, "type": "Feature", "id": 25, "properties": {"CITY": "BOSTON", "NAME": "BOSTON POLICE DEPT", "ZIP": "02132", "JURISDIC": "LOCAL", "L_DATE": "2006-09-12", "SOURCE": "MEMA", "STATE": "MA", "OBJECTID": 26.0, "ADDRESS": "1708 CENTRE STREET", "L_SRC": "MEMA"}},{"geometry": {"type": "Point", "coordinates": [-71.104611820236229, 42.309685904588697]}, "type": "Feature", "id": 26, "properties": {"CITY": "BOSTON", "NAME": "BOSTON POLICE DEPT", "ZIP": "02130", "JURISDIC": "LOCAL", "L_DATE": "2006-09-12", "SOURCE": "MEMA", "STATE": "MA", "OBJECTID": 27.0, "ADDRESS": "3345 WASHINGTON ST", "L_SRC": "MEMA"}},{"geometry": {"type": "Point", "coordinates": [-71.124278176886179, 42.256428823192721]}, "type": "Feature", "id": 27, "properties": {"CITY": "BOSTON", "NAME": "BOSTON POLICE DEPT", "ZIP": "02136", "JURISDIC": "LOCAL", "L_DATE": "2006-09-12", "SOURCE": "MEMA", "STATE": "MA", "OBJECTID": 28.0, "ADDRESS": "1249 HYDE PARK AVE", "L_SRC": "MEMA"}},{"geometry": {"type": "Point", "coordinates": [-71.069259629947382, 42.339313997201295]}, "type": "Feature", "id": 28, "properties": {"CITY": "BOSTON", "NAME": "BOSTON POLICE DEPT", "ZIP": "02118", "JURISDIC": "LOCAL", "L_DATE": "2006-09-12", "SOURCE": "MEMA", "STATE": "MA", "OBJECTID": 29.0, "ADDRESS": "650 HARRISON", "L_SRC": "MEMA"}},{"geometry": {"type": "Point", "coordinates": [-71.090707747587246, 42.334187667686635]}, "type": "Feature", "id": 29, "properties": {"CITY": "BOSTON", "NAME": "BOSTON POLICE DEPT", "ZIP": "02120", "JURISDIC": "LOCAL", "L_DATE": "2006-09-12", "SOURCE": "MEMA", "STATE": "MA", "OBJECTID": 30.0, "ADDRESS": "1 SCHROEDER PLACE", "L_SRC": "MEMA"}},{"geometry": {"type": "Point", "coordinates": [-71.063518757966776, 42.337869430327231]}, "type": "Feature", "id": 30, "properties": {"CITY": "BOSTON", "NAME": "BOSTON POLICE GARAGE", "ZIP": "02118", "JURISDIC": "LOCAL", "L_DATE": "2006-09-12", "SOURCE": "MEMA", "STATE": "MA", "OBJECTID": 31.0, "ADDRESS": "200 FRONTAGE RD", "L_SRC": "MEMA"}},{"geometry": {"type": "Point", "coordinates": [-71.035133145722597, 42.344888227080872]}, "type": "Feature", "id": 31, "properties": {"CITY": "BOSTON", "NAME": "BOSTON POLICE-HARBOR PATROL", "ZIP": "02210", "JURISDIC": "LOCAL", "L_DATE": "2006-09-12", "SOURCE": "MEMA", "STATE": "MA", "OBJECTID": 32.0, "ADDRESS": "34 DRYDOCK AVE", "L_SRC": "MEMA"}},{"geometry": {"type": "Point", "coordinates": [-70.609076858629649, 41.747718491759571]}, "type": "Feature", "id": 32, "properties": {"CITY": "BOURNE", "NAME": "BOURNE POLICE DEPT", "ZIP": "02532", "JURISDIC": "LOCAL", "L_DATE": "2006-09-12", "SOURCE": "MEMA", "STATE": "MA", "OBJECTID": 33.0, "ADDRESS": "175 MAIN ST", "L_SRC": "CAPECODCOM"}},{"geometry": {"type": "Point", "coordinates": [-71.752903976978374, 42.325555251701942]}, "type": "Feature", "id": 33, "properties": {"CITY": "BOYLSTON", "NAME": "BOYLSTON POLICE DEPT", "ZIP": "01505", "JURISDIC": "LOCAL", "L_DATE": "2006-09-12", "SOURCE": "MEMA", "STATE": "MA", "OBJECTID": 34.0, "ADDRESS": "215 MAIN ST", "L_SRC": "MEMA"}},{"geometry": {"type": "Point", "coordinates": [-70.993586996507432, 42.211801685757237]}, "type": "Feature", "id": 34, "properties": {"CITY": "BRAINTREE", "NAME": "BRAINTREE POLICE DEPT", "ZIP": "02184", "JURISDIC": "LOCAL", "L_DATE": "2006-09-12", "SOURCE": "MEMA", "STATE": "MA", "OBJECTID": 35.0, "ADDRESS": "282 UNION ST", "L_SRC": "MAPC"}},{"geometry": {"type": "Point", "coordinates": [-70.07964787936254, 41.744732264353985]}, "type": "Feature", "id": 35, "properties": {"CITY": "BREWSTER", "NAME": "BREWSTER POLICE DEPT", "ZIP": "02631", "JURISDIC": "LOCAL", "L_DATE": "2006-09-12", "SOURCE": "MEMA", "STATE": "MA", "OBJECTID": 36.0, "ADDRESS": "631 HARWICH ROAD", "L_SRC": "MEMA"}},{"geometry": {"type": "Point", "coordinates": [-70.987141056505763, 41.986383831187126]}, "type": "Feature", "id": 36, "properties": {"CITY": "BRIDGEWATER", "NAME": "BRIDGEWATER POLICE DEPT", "ZIP": "02324", "JURISDIC": "LOCAL", "L_DATE": "2006-09-12", "SOURCE": "MEMA", "STATE": "MA", "OBJECTID": 37.0, "ADDRESS": "220 PLEASENT STREET", "L_SRC": "MEMA"}},{"geometry": {"type": "Point", "coordinates": [-71.150590239160408, 42.349361133318872]}, "type": "Feature", "id": 37, "properties": {"CITY": "BOSTON", "NAME": "BRIGHTON POLICE DEPT", "ZIP": "02135", "JURISDIC": "LOCAL", "L_DATE": "2006-09-12", "SOURCE": "MEMA", "STATE": "MA", "OBJECTID": 38.0, "ADDRESS": "301 WASHINGTON ST", "L_SRC": "MEMA"}},{"geometry": {"type": "Point", "coordinates": [-71.016213501119935, 42.08489954558771]}, "type": "Feature", "id": 38, "properties": {"CITY": "BROCKTON", "NAME": "BROCKTON POLICE DEPT", "ZIP": "02302", "JURISDIC": "LOCAL", "L_DATE": "2006-09-12", "SOURCE": "MEMA", "STATE": "MA", "OBJECTID": 39.0, "ADDRESS": "7 COMMERCIAL ST", "L_SRC": "MEMA"}},{"geometry": {"type": "Point", "coordinates": [-71.121200501431332, 42.333686829660152]}, "type": "Feature", "id": 39, "properties": {"CITY": "BROOKLINE", "NAME": "BROOKLINE POLICE DEPT", "ZIP": "02445", "JURISDIC": "LOCAL", "L_DATE": "2006-09-12", "SOURCE": "MEMA", "STATE": "MA", "OBJECTID": 40.0, "ADDRESS": "350 WASHINGTON ST", "L_SRC": "MEMA"}},{"geometry": {"type": "Point", "coordinates": [-71.105740787010959, 42.365514026268464]}, "type": "Feature", "id": 40, "properties": {"CITY": "CAMBRIDGE", "NAME": "CAMBRIDGE POLICE DEPT", "ZIP": "02139", "JURISDIC": "LOCAL", "L_DATE": "2006-09-12", "SOURCE": "MEMA", "STATE": "MA", "OBJECTID": 41.0, "ADDRESS": "5 WESTERN AVE", "L_SRC": "MEMA"}},{"geometry": {"type": "Point", "coordinates": [-71.149127160444024, 42.156298152626206]}, "type": "Feature", "id": 41, "properties": {"CITY": "CANTON", "NAME": "CANTON POLICE DEPT", "ZIP": "02021", "JURISDIC": "LOCAL", "L_DATE": "2006-09-12", "SOURCE": "MEMA", "STATE": "MA", "OBJECTID": 42.0, "ADDRESS": "99 REVERE ST", "L_SRC": "MEMA"}},{"geometry": {"type": "Point", "coordinates": [-70.768147126560706, 41.888507934802881]}, "type": "Feature", "id": 42, "properties": {"CITY": "CARVER", "NAME": "CARVER POLICE DEPT", "ZIP": "02330", "JURISDIC": "LOCAL", "L_DATE": "2006-09-12", "SOURCE": "MEMA", "STATE": "MA", "OBJECTID": 43.0, "ADDRESS": "112 MAIN ST", "L_SRC": "SRPED"}},{"geometry": {"type": "Point", "coordinates": [-71.974651291333259, 42.139606753676453]}, "type": "Feature", "id": 43, "properties": {"CITY": "CHARLTON", "NAME": "CHARLTON POLICE DEPT", "ZIP": "01507", "JURISDIC": "LOCAL", "L_DATE": "2006-09-12", "SOURCE": "MEMA", "STATE": "MA", "OBJECTID": 44.0, "ADDRESS": "85 MASONIC HOME RD", "L_SRC": "MEMA"}},{"geometry": {"type": "Point", "coordinates": [-69.962369418322538, 41.685959557245305]}, "type": "Feature", "id": 44, "properties": {"CITY": "CHATHAM", "NAME": "CHATHAM POLICE DEPT", "ZIP": "02633", "JURISDIC": "LOCAL", "L_DATE": "2006-09-12", "SOURCE": "MEMA", "STATE": "MA", "OBJECTID": 45.0, "ADDRESS": "127 DEPOT RD", "L_SRC": "MEMA"}},{"geometry": {"type": "Point", "coordinates": [-71.039914386914091, 42.388993215308105]}, "type": "Feature", "id": 45, "properties": {"CITY": "CHELSEA", "NAME": "CHELSEA POLICE DEPT", "ZIP": "02150", "JURISDIC": "LOCAL", "L_DATE": "2006-09-12", "SOURCE": "MEMA", "STATE": "MA", "OBJECTID": 46.0, "ADDRESS": "9 PARK ST", "L_SRC": "MEMA"}},{"geometry": {"type": "Point", "coordinates": [-73.162329783304102, 42.561918981898437]}, "type": "Feature", "id": 46, "properties": {"CITY": "CHESHIRE", "NAME": "CHESHIRE POLICE DEPT", "ZIP": "01225", "JURISDIC": "LOCAL", "L_DATE": "2006-09-12", "SOURCE": "MEMA", "STATE": "MA", "OBJECTID": 47.0, "ADDRESS": "90 CHURCH ST", "L_SRC": "BRPC"}},{"geometry": {"type": "Point", "coordinates": [-72.843549939798606, 42.39254368498969]}, "type": "Feature", "id": 47, "properties": {"CITY": "CHESTERFIELD", "NAME": "CHESTERFIELD POLICE DEPT-DAVENPORT SCH", "ZIP": "01012", "JURISDIC": "LOCAL", "L_DATE": "2006-09-12", "SOURCE": "MEMA", "STATE": "MA", "OBJECTID": 48.0, "ADDRESS": "422 MAIN RD", "L_SRC": "MEMA"}},{"geometry": {"type": "Point", "coordinates": [-72.58472952548874, 42.156251130187265]}, "type": "Feature", "id": 48, "properties": {"CITY": "CHICOPEE", "NAME": "CHICOPEE POLICE DEPT", "ZIP": "01020", "JURISDIC": "LOCAL", "L_DATE": "2006-09-12", "SOURCE": "MEMA", "STATE": "MA", "OBJECTID": 49.0, "ADDRESS": "110 CHURCH ST", "L_SRC": "BRPC"}},{"geometry": {"type": "Point", "coordinates": [-72.606441283172899, 42.187600470064737]}, "type": "Feature", "id": 49, "properties": {"CITY": "CHICOPEE", "NAME": "CHICOPEE POLICE DEPT-  COMMUNITY SUBST", "ZIP": "01013", "JURISDIC": "LOCAL", "L_DATE": "2006-09-12", "SOURCE": "MEMA", "STATE": "MA", "OBJECTID": 50.0, "ADDRESS": "808 CHICOPEE ST", "L_SRC": "BRPC"}},{"geometry": {"type": "Point", "coordinates": [-72.609100835824961, 42.145475152590457]}, "type": "Feature", "id": 50, "properties": {"CITY": "CHICOPEE", "NAME": "CHICOPEE POLICE DEPT-SUBSTATION", "ZIP": "01013", "JURISDIC": "LOCAL", "L_DATE": "2006-09-12", "SOURCE": "MEMA", "STATE": "MA", "OBJECTID": 51.0, "ADDRESS": "144 CABOT", "L_SRC": "BRPC"}},{"geometry": {"type": "Point", "coordinates": [-70.763773943511865, 41.350407066018867]}, "type": "Feature", "id": 51, "properties": {"CITY": "CHILMARK", "NAME": "CHILMARK POLICE DEPT", "ZIP": "02535", "JURISDIC": "LOCAL", "L_DATE": "2006-09-12", "SOURCE": "MEMA", "STATE": "MA", "OBJECTID": 52.0, "ADDRESS": "20 EDDYS ISLAND WAY", "L_SRC": "MEMA"}},{"geometry": {"type": "Point", "coordinates": [-73.08446443821191, 42.71205561476031]}, "type": "Feature", "id": 52, "properties": {"CITY": "CLARKSBURG", "NAME": "CLARKSBURG POLICE DEPT- NORTH ADAMS PO", "ZIP": "01247", "JURISDIC": "LOCAL", "L_DATE": "2006-09-12", "SOURCE": "MEMA", "STATE": "MA", "OBJECTID": 53.0, "ADDRESS": "111 RIVER RD", "L_SRC": "BRPC"}},{"geometry": {"type": "Point", "coordinates": [-70.79898348631707, 42.240762225639727]}, "type": "Feature", "id": 53, "properties": {"CITY": "COHASSET", "NAME": "COHASSET POLICE DEPT", "ZIP": "02025", "JURISDIC": "LOCAL", "L_DATE": "2006-09-12", "SOURCE": "MEMA", "STATE": "MA", "OBJECTID": 54.0, "ADDRESS": "62 ELM ST", "L_SRC": "MAPC"}},{"geometry": {"type": "Point", "coordinates": [-71.343960035584601, 42.456495658017076]}, "type": "Feature", "id": 54, "properties": {"CITY": "CONCORD", "NAME": "CONCORD POLICE DEPT", "ZIP": "01742", "JURISDIC": "LOCAL", "L_DATE": "2006-09-12", "SOURCE": "MEMA", "STATE": "MA", "OBJECTID": 55.0, "ADDRESS": "219 WALDEN ST", "L_SRC": "MEMA"}},{"geometry": {"type": "Point", "coordinates": [-73.169547948964578, 42.47274617962406]}, "type": "Feature", "id": 55, "properties": {"CITY": "DALTON", "NAME": "DALTON POLICE DEPT", "ZIP": "01226", "JURISDIC": "LOCAL", "L_DATE": "2006-09-12", "SOURCE": "MEMA", "STATE": "MA", "OBJECTID": 56.0, "ADDRESS": "462 MAIN ST", "L_SRC": "BRPC"}},{"geometry": {"type": "Point", "coordinates": [-70.961868102018272, 41.601839649050696]}, "type": "Feature", "id": 56, "properties": {"CITY": "DARTMOUTH", "NAME": "DARTMOUTH POLICE DEPT", "ZIP": "02748", "JURISDIC": "LOCAL", "L_DATE": "2006-09-12", "SOURCE": "MEMA", "STATE": "MA", "OBJECTID": 57.0, "ADDRESS": "249 RUSSELLS MILLS RD", "L_SRC": "SRPED"}},{"geometry": {"type": "Point", "coordinates": [-71.17396901876559, 42.248100883092164]}, "type": "Feature", "id": 57, "properties": {"CITY": "DEDHAM", "NAME": "DEDHAM POLICE DEPT", "ZIP": "02026", "JURISDIC": "LOCAL", "L_DATE": "2006-09-12", "SOURCE": "MEMA", "STATE": "MA", "OBJECTID": 58.0, "ADDRESS": "600 HIGH ST", "L_SRC": "MEMA"}},{"geometry": {"type": "Point", "coordinates": [-72.6084074647476, 42.479319801004962]}, "type": "Feature", "id": 58, "properties": {"CITY": "DEERFIELD", "NAME": "DEERFIELD POLICE DEPT", "ZIP": "01373", "JURISDIC": "LOCAL", "L_DATE": "2006-09-12", "SOURCE": "MEMA", "STATE": "MA", "OBJECTID": 59.0, "ADDRESS": "2 PARK ST", "L_SRC": "FRCOG"}},{"geometry": {"type": "Point", "coordinates": [-71.120822203319662, 41.827016359782412]}, "type": "Feature", "id": 59, "properties": {"CITY": "DIGHTON", "NAME": "DIGHTON POLICE DEPT", "ZIP": "02715", "JURISDIC": "LOCAL", "L_DATE": "2006-09-12", "SOURCE": "MEMA", "STATE": "MA", "OBJECTID": 60.0, "ADDRESS": "1551 SOMERSET AVE", "L_SRC": "MEMA"}},{"geometry": {"type": "Point", "coordinates": [-71.713091165446983, 42.071727327476459]}, "type": "Feature", "id": 60, "properties": {"CITY": "DOUGLAS", "NAME": "DOUGLAS POLICE DEPT", "ZIP": "01516", "JURISDIC": "LOCAL", "L_DATE": "2006-09-12", "SOURCE": "MEMA", "STATE": "MA", "OBJECTID": 61.0, "ADDRESS": "29 DEPOT ST", "L_SRC": "MEMA"}},{"geometry": {"type": "Point", "coordinates": [-71.279996102196307, 42.243609786288268]}, "type": "Feature", "id": 61, "properties": {"CITY": "DOVER", "NAME": "DOVER POLICE DEPT", "ZIP": "02030", "JURISDIC": "LOCAL", "L_DATE": "2006-09-12", "SOURCE": "MEMA", "STATE": "MA", "OBJECTID": 62.0, "ADDRESS": "3 WALPOLE ST", "L_SRC": "MEMA"}},{"geometry": {"type": "Point", "coordinates": [-71.891919416528154, 42.044125233028829]}, "type": "Feature", "id": 62, "properties": {"CITY": "DUDLEY", "NAME": "DUDLEY POLICE DEPT", "ZIP": "01571", "JURISDIC": "LOCAL", "L_DATE": "2006-09-12", "SOURCE": "MEMA", "STATE": "MA", "OBJECTID": 63.0, "ADDRESS": "40 SCHOFIELD AVE", "L_SRC": "MEMA"}},{"geometry": {"type": "Point", "coordinates": [-71.484062527855855, 42.673524605497391]}, "type": "Feature", "id": 63, "properties": {"CITY": "DUNSTABLE", "NAME": "DUNSTABLE POLICE DEPT", "ZIP": "01827", "JURISDIC": "LOCAL", "L_DATE": "2006-09-12", "SOURCE": "MEMA", "STATE": "MA", "OBJECTID": 64.0, "ADDRESS": "23 PLEASANT STREET", "L_SRC": "MAPC"}},{"geometry": {"type": "Point", "coordinates": [-70.71225082063701, 42.056398436212447]}, "type": "Feature", "id": 64, "properties": {"CITY": "DUXBURY", "NAME": "DUXBURY POLICE DEPT", "ZIP": "02332", "JURISDIC": "LOCAL", "L_DATE": "2006-09-12", "SOURCE": "MEMA", "STATE": "MA", "OBJECTID": 65.0, "ADDRESS": "443 WEST ST", "L_SRC": "MEMA"}},{"geometry": {"type": "Point", "coordinates": [-70.956862102668495, 42.02997427643129]}, "type": "Feature", "id": 65, "properties": {"CITY": "EAST BRIDGEWATER", "NAME": "EAST BRIDGEWATER POLICE DEPT", "ZIP": "02333", "JURISDIC": "LOCAL", "L_DATE": "2006-09-12", "SOURCE": "MEMA", "STATE": "MA", "OBJECTID": 66.0, "ADDRESS": "153 CENTRAL ST", "L_SRC": "MEMA"}},{"geometry": {"type": "Point", "coordinates": [-69.973336462131428, 41.831374717451446]}, "type": "Feature", "id": 66, "properties": {"CITY": "EASTHAM", "NAME": "EASTHAM POLICE DEPT", "ZIP": "02642", "JURISDIC": "LOCAL", "L_DATE": "2006-09-12", "SOURCE": "MEMA", "STATE": "MA", "OBJECTID": 67.0, "ADDRESS": "2600 ROUTE 6 STATE HW", "L_SRC": "CAPECODCOM"}},{"geometry": {"type": "Point", "coordinates": [-71.108483170529809, 42.056347874433264]}, "type": "Feature", "id": 67, "properties": {"CITY": "EASTON", "NAME": "EASTON POLICE", "ZIP": "02356", "JURISDIC": "LOCAL", "L_DATE": "2006-09-12", "SOURCE": "MEMA", "STATE": "MA", "OBJECTID": 68.0, "ADDRESS": "46 LOTHOROP ST", "L_SRC": "MEMA"}},{"geometry": {"type": "Point", "coordinates": [-70.716346865507603, 42.199055268619418]}, "type": "Feature", "id": 68, "properties": {"CITY": "SCITUATE", "NAME": "ENVIRONMENTAL POLICE", "ZIP": "02066", "JURISDIC": "LOCAL", "L_DATE": "2006-09-12", "SOURCE": "MEMA", "STATE": "MA", "OBJECTID": 69.0, "ADDRESS": "175 EDWARD FOSTER RD", "L_SRC": "MAPC"}},{"geometry": {"type": "Point", "coordinates": [-72.48989181043261, 42.590480658219228]}, "type": "Feature", "id": 69, "properties": {"CITY": "ERVING", "NAME": "ERVING POLICE DEPT", "ZIP": "01344", "JURISDIC": "LOCAL", "L_DATE": "2006-09-12", "SOURCE": "MEMA", "STATE": "MA", "OBJECTID": 70.0, "ADDRESS": "71 FRENCH KING HIGHWA", "L_SRC": "BRPC"}},{"geometry": {"type": "Point", "coordinates": [-71.044753203946712, 42.41257249845782]}, "type": "Feature", "id": 70, "properties": {"CITY": "EVERETT", "NAME": "EVERETT POLICE CHIEF", "ZIP": "02149", "JURISDIC": "LOCAL", "L_DATE": "2006-09-12", "SOURCE": "MEMA", "STATE": "MA", "OBJECTID": 71.0, "ADDRESS": "45 ELM ST", "L_SRC": "MEMA"}},{"geometry": {"type": "Point", "coordinates": [-70.892610897769003, 41.64005030449168]}, "type": "Feature", "id": 71, "properties": {"CITY": "FAIRHAVEN", "NAME": "FAIRHAVEN POLICE DEPT", "ZIP": "02719", "JURISDIC": "LOCAL", "L_DATE": "2006-09-12", "SOURCE": "MEMA", "STATE": "MA", "OBJECTID": 72.0, "ADDRESS": "1 BRYANT LN", "L_SRC": "SRPED"}},{"geometry": {"type": "Point", "coordinates": [-71.143594726176786, 41.696616324510622]}, "type": "Feature", "id": 72, "properties": {"CITY": "FALL RIVER", "NAME": "FALL RIVER CITY POLICE DEPT", "ZIP": "02721", "JURISDIC": "LOCAL", "L_DATE": "2006-09-12", "SOURCE": "MEMA", "STATE": "MA", "OBJECTID": 73.0, "ADDRESS": "685 PLEASANT ST", "L_SRC": "MEMA"}},{"geometry": {"type": "Point", "coordinates": [-70.602914894521021, 41.553657181953042]}, "type": "Feature", "id": 73, "properties": {"CITY": "FALMOUTH", "NAME": "FALMOUTH POLICE DEPT", "ZIP": "02540", "JURISDIC": "LOCAL", "L_DATE": "2006-09-12", "SOURCE": "MEMA", "STATE": "MA", "OBJECTID": 74.0, "ADDRESS": "750 MAIN ST", "L_SRC": "MEMA"}},{"geometry": {"type": "Point", "coordinates": [-71.250338181559925, 42.062752309684534]}, "type": "Feature", "id": 74, "properties": {"CITY": "FOXBOROUGH", "NAME": "FOXBORO POLICE DEPT", "ZIP": "02035", "JURISDIC": "LOCAL", "L_DATE": "2006-09-12", "SOURCE": "MEMA", "STATE": "MA", "OBJECTID": 75.0, "ADDRESS": "40 SOUTH ST", "L_SRC": "MEMA"}},{"geometry": {"type": "Point", "coordinates": [-71.412856515535537, 42.09302983678014]}, "type": "Feature", "id": 75, "properties": {"CITY": "FRANKLIN", "NAME": "FRANKLIN POLICE DEPT", "ZIP": "02038", "JURISDIC": "LOCAL", "L_DATE": "2006-09-12", "SOURCE": "MEMA", "STATE": "MA", "OBJECTID": 76.0, "ADDRESS": "911 PANTHER WAY", "L_SRC": "MEMA"}},{"geometry": {"type": "Point", "coordinates": [-71.014864348917101, 41.764037092472478]}, "type": "Feature", "id": 76, "properties": {"CITY": "FREETOWN", "NAME": "FREETOWN POLICE DEPT", "ZIP": "02717", "JURISDIC": "LOCAL", "L_DATE": "2006-09-12", "SOURCE": "MEMA", "STATE": "MA", "OBJECTID": 77.0, "ADDRESS": "225 CHACE RD", "L_SRC": "MEMA"}},{"geometry": {"type": "Point", "coordinates": [-72.210430658800249, 42.306532926967748]}, "type": "Feature", "id": 77, "properties": {"CITY": "HARDWICK", "NAME": "GILBERTVILLE POLICE DEPT", "ZIP": "01082", "JURISDIC": "LOCAL", "L_DATE": "2006-09-12", "SOURCE": "MEMA", "STATE": "MA", "OBJECTID": 78.0, "ADDRESS": "307 MAIN ST", "L_SRC": "MEMA"}},{"geometry": {"type": "Point", "coordinates": [-71.693071963479014, 42.210210474763102]}, "type": "Feature", "id": 78, "properties": {"CITY": "GRAFTON", "NAME": "GRAFTON POLICE DEPT", "ZIP": "01519", "JURISDIC": "LOCAL", "L_DATE": "2006-09-12", "SOURCE": "MEMA", "STATE": "MA", "OBJECTID": 79.0, "ADDRESS": "26 PROVIDENCE RD", "L_SRC": "MEMA"}},{"geometry": {"type": "Point", "coordinates": [-70.865078838044269, 41.992256565213751]}, "type": "Feature", "id": 79, "properties": {"CITY": "HALIFAX", "NAME": "HALIFAX POLICE DEPT", "ZIP": "02338", "JURISDIC": "LOCAL", "L_DATE": "2006-09-12", "SOURCE": "MEMA", "STATE": "MA", "OBJECTID": 80.0, "ADDRESS": "500 PLYMOUTH ST", "L_SRC": "MEMA"}},{"geometry": {"type": "Point", "coordinates": [-70.823882404577986, 42.113915055208608]}, "type": "Feature", "id": 80, "properties": {"CITY": "HANOVER", "NAME": "HANOVER POLICE DEPT", "ZIP": "02339", "JURISDIC": "LOCAL", "L_DATE": "2006-09-12", "SOURCE": "MEMA", "STATE": "MA", "OBJECTID": 81.0, "ADDRESS": "129 ROCKLAND ST", "L_SRC": "MEMA"}},{"geometry": {"type": "Point", "coordinates": [-70.861476164723172, 42.063135869261444]}, "type": "Feature", "id": 81, "properties": {"CITY": "HANSON", "NAME": "HANSON POLICE DEPT", "ZIP": "02341", "JURISDIC": "LOCAL", "L_DATE": "2006-09-12", "SOURCE": "MEMA", "STATE": "MA", "OBJECTID": 82.0, "ADDRESS": "795 INDIAN HEAD ST", "L_SRC": "MEMA"}},{"geometry": {"type": "Point", "coordinates": [-70.081578510640156, 41.680966633345214]}, "type": "Feature", "id": 82, "properties": {"CITY": "HARWICH", "NAME": "HARWICH POLICE DEPT", "ZIP": "02645", "JURISDIC": "LOCAL", "L_DATE": "2006-09-12", "SOURCE": "MEMA", "STATE": "MA", "OBJECTID": 83.0, "ADDRESS": "183 SISSON RD", "L_SRC": "CAPECODCOM"}},{"geometry": {"type": "Point", "coordinates": [-70.885715590401617, 42.230867861197012]}, "type": "Feature", "id": 83, "properties": {"CITY": "HINGHAM", "NAME": "HINGHAM POLICE DEPT", "ZIP": "02043", "JURISDIC": "LOCAL", "L_DATE": "2006-09-12", "SOURCE": "MEMA", "STATE": "MA", "OBJECTID": 84.0, "ADDRESS": "212 CENTRAL ST", "L_SRC": "MAPC"}},{"geometry": {"type": "Point", "coordinates": [-71.006242365357423, 42.158272333640866]}, "type": "Feature", "id": 84, "properties": {"CITY": "HOLBROOK", "NAME": "HOLBROOK POLICE DEPT", "ZIP": "02343", "JURISDIC": "LOCAL", "L_DATE": "2006-09-12", "SOURCE": "MEMA", "STATE": "MA", "OBJECTID": 85.0, "ADDRESS": "169 NORTH FRANKLIN ST", "L_SRC": "MEMA"}},{"geometry": {"type": "Point", "coordinates": [-71.873984326320226, 42.35511446232654]}, "type": "Feature", "id": 85, "properties": {"CITY": "HOLDEN", "NAME": "HOLDEN POLICE DEPT", "ZIP": "01520", "JURISDIC": "LOCAL", "L_DATE": "2006-09-12", "SOURCE": "MEMA", "STATE": "MA", "OBJECTID": 86.0, "ADDRESS": "1420 MAIN ST", "L_SRC": "MEMA"}},{"geometry": {"type": "Point", "coordinates": [-71.540241870128867, 42.129495019526992]}, "type": "Feature", "id": 86, "properties": {"CITY": "HOPEDALE", "NAME": "HOPEDALE POLICE DEPT", "ZIP": "01747", "JURISDIC": "LOCAL", "L_DATE": "2006-09-12", "SOURCE": "MEMA", "STATE": "MA", "OBJECTID": 87.0, "ADDRESS": "70 HOPEDALE ST", "L_SRC": "MEMA"}},{"geometry": {"type": "Point", "coordinates": [-70.845977236946993, 42.26509321355077]}, "type": "Feature", "id": 87, "properties": {"CITY": "HULL", "NAME": "HULL POLICE DEPT", "ZIP": "02045", "JURISDIC": "LOCAL", "L_DATE": "2006-09-12", "SOURCE": "MEMA", "STATE": "MA", "OBJECTID": 88.0, "ADDRESS": "1 SCHOOL ST", "L_SRC": "MAPC"}},{"geometry": {"type": "Point", "coordinates": [-70.313500584670621, 41.674301770427988]}, "type": "Feature", "id": 88, "properties": {"CITY": "BARNSTABLE", "NAME": "HYANNIS POLICE DEPT", "ZIP": "02601", "JURISDIC": "LOCAL", "L_DATE": "2006-09-12", "SOURCE": "MEMA", "STATE": "MA", "OBJECTID": 89.0, "ADDRESS": "1200 PHINNEYS LN", "L_SRC": "MEMA"}},{"geometry": {"type": "Point", "coordinates": [-70.949904174150333, 41.852941050501769]}, "type": "Feature", "id": 89, "properties": {"CITY": "LAKEVILLE", "NAME": "LAKEVILLE POLICE DEPT", "ZIP": "02347", "JURISDIC": "LOCAL", "L_DATE": "2006-09-12", "SOURCE": "MEMA", "STATE": "MA", "OBJECTID": 90.0, "ADDRESS": "296 BEDFORD ST", "L_SRC": "SRPED"}},{"geometry": {"type": "Point", "coordinates": [-71.901545584932492, 42.244397380799292]}, "type": "Feature", "id": 90, "properties": {"CITY": "LEICESTER", "NAME": "LEICESTER POLICE DEPT", "ZIP": "01524", "JURISDIC": "LOCAL", "L_DATE": "2006-09-12", "SOURCE": "MEMA", "STATE": "MA", "OBJECTID": 91.0, "ADDRESS": "90 SOUTH MAIN ST", "L_SRC": "MEMA"}},{"geometry": {"type": "Point", "coordinates": [-71.725236662146031, 42.593989041808186]}, "type": "Feature", "id": 91, "properties": {"CITY": "LUNENBURG", "NAME": "LUNENBURG POLICE DEPARTMENT", "ZIP": "01462", "JURISDIC": "LOCAL", "L_DATE": "2006-09-12", "SOURCE": "MEMA", "STATE": "MA", "OBJECTID": 92.0, "ADDRESS": "7 SCHOOL ST", "L_SRC": "MEMA"}},{"geometry": {"type": "Point", "coordinates": [-71.218718510759814, 42.023684828273439]}, "type": "Feature", "id": 92, "properties": {"CITY": "MANSFIELD", "NAME": "MANSFIELD POLICE DEPT", "ZIP": "02048", "JURISDIC": "LOCAL", "L_DATE": "2006-09-12", "SOURCE": "MEMA", "STATE": "MA", "OBJECTID": 93.0, "ADDRESS": "50 WEST ST", "L_SRC": "MEMA"}},{"geometry": {"type": "Point", "coordinates": [-70.767420638320232, 41.705998842751946]}, "type": "Feature", "id": 93, "properties": {"CITY": "MARION", "NAME": "MARION POLICE DEPT", "ZIP": "02738", "JURISDIC": "LOCAL", "L_DATE": "2006-09-12", "SOURCE": "MEMA", "STATE": "MA", "OBJECTID": 94.0, "ADDRESS": "50 SPRING ST", "L_SRC": "MEMA"}},{"geometry": {"type": "Point", "coordinates": [-70.693766161033011, 42.09282164220361]}, "type": "Feature", "id": 94, "properties": {"CITY": "MARSHFIELD", "NAME": "MARSHFIELD POLICE DEPT", "ZIP": "02050", "JURISDIC": "LOCAL", "L_DATE": "2006-09-12", "SOURCE": "MEMA", "STATE": "MA", "OBJECTID": 95.0, "ADDRESS": "1639 OCEAN ST", "L_SRC": "MAPC"}},{"geometry": {"type": "Point", "coordinates": [-70.494738528042305, 41.619367359778487]}, "type": "Feature", "id": 95, "properties": {"CITY": "MASHPEE", "NAME": "MASHPEE POLICE DEPT", "ZIP": "02649", "JURISDIC": "LOCAL", "L_DATE": "2006-09-12", "SOURCE": "MEMA", "STATE": "MA", "OBJECTID": 96.0, "ADDRESS": "19 FRANK E HICKS DR", "L_SRC": "MEMA"}},{"geometry": {"type": "Point", "coordinates": [-71.760528261277472, 42.527673141407583]}, "type": "Feature", "id": 96, "properties": {"CITY": "LEOMINSTER", "NAME": "LEOMINSTER POLICE DEPT", "ZIP": "01453", "JURISDIC": "LOCAL", "L_DATE": "2006-09-12", "SOURCE": "MEMA", "STATE": "MA", "OBJECTID": 97.0, "ADDRESS": "29 CHURCH ST", "L_SRC": "MEMA"}},{"geometry": {"type": "Point", "coordinates": [-72.497833358226046, 42.464745593170868]}, "type": "Feature", "id": 97, "properties": {"CITY": "LEVERETT", "NAME": "LEVERETT POLICE DEPT-SHELBOURNE FALLS", "ZIP": "01054", "JURISDIC": "LOCAL", "L_DATE": "2006-09-12", "SOURCE": "MEMA", "STATE": "MA", "OBJECTID": 98.0, "ADDRESS": "95  MONTAGUE RD", "L_SRC": "FRCOG"}},{"geometry": {"type": "Point", "coordinates": [-70.805595254667651, 41.663434813132305]}, "type": "Feature", "id": 98, "properties": {"CITY": "MATTAPOISETT", "NAME": "MATTAPOISETT POLICE DEPT", "ZIP": "02739", "JURISDIC": "LOCAL", "L_DATE": "2006-09-12", "SOURCE": "MEMA", "STATE": "MA", "OBJECTID": 99.0, "ADDRESS": "64 COUNTY RD", "L_SRC": "MEMA"}},{"geometry": {"type": "Point", "coordinates": [-71.309642041371589, 42.191186707645883]}, "type": "Feature", "id": 99, "properties": {"CITY": "MEDFIELD", "NAME": "MEDFIELD POLICE DEPT", "ZIP": "02052", "JURISDIC": "LOCAL", "L_DATE": "2006-09-12", "SOURCE": "MEMA", "STATE": "MA", "OBJECTID": 100.0, "ADDRESS": "110 NORTH ST", "L_SRC": "MEMA"}},{"geometry": {"type": "Point", "coordinates": [-71.425592142531826, 42.140276238483487]}, "type": "Feature", "id": 100, "properties": {"CITY": "MEDWAY", "NAME": "MEDWAY POLICE DEPT", "ZIP": "02053", "JURISDIC": "LOCAL", "L_DATE": "2006-09-12", "SOURCE": "MEMA", "STATE": "MA", "OBJECTID": 101.0, "ADDRESS": "315 VILLAGE ST", "L_SRC": "MEMA"}},{"geometry": {"type": "Point", "coordinates": [-71.550847455997328, 42.105580938942694]}, "type": "Feature", "id": 101, "properties": {"CITY": "MENDON", "NAME": "MENDON POLICE DEPT", "ZIP": "01756", "JURISDIC": "LOCAL", "L_DATE": "2006-09-12", "SOURCE": "MEMA", "STATE": "MA", "OBJECTID": 102.0, "ADDRESS": "22 MAIN ST", "L_SRC": "MEMA"}},{"geometry": {"type": "Point", "coordinates": [-71.000626907316104, 42.834553209230378]}, "type": "Feature", "id": 102, "properties": {"CITY": "MERRIMAC", "NAME": "MERRIMAC POLICE DEPT", "ZIP": "01860", "JURISDIC": "LOCAL", "L_DATE": "2006-09-12", "SOURCE": "MEMA", "STATE": "MA", "OBJECTID": 103.0, "ADDRESS": "16 EAST MAIN ST", "L_SRC": "MEMA"}},{"geometry": {"type": "Point", "coordinates": [-70.907487508168714, 41.893371316523258]}, "type": "Feature", "id": 103, "properties": {"CITY": "MIDDLEBOROUGH", "NAME": "MIDDLEBORO POLICE DEPT", "ZIP": "02346", "JURISDIC": "LOCAL", "L_DATE": "2006-09-12", "SOURCE": "MEMA", "STATE": "MA", "OBJECTID": 104.0, "ADDRESS": "99 NORTH MAIN ST", "L_SRC": "SRPED"}},{"geometry": {"type": "Point", "coordinates": [-71.358841339057605, 42.167341217168939]}, "type": "Feature", "id": 104, "properties": {"CITY": "MILLIS", "NAME": "MILLIS POLICE DEPT", "ZIP": "02054", "JURISDIC": "LOCAL", "L_DATE": "2006-09-12", "SOURCE": "MEMA", "STATE": "MA", "OBJECTID": 105.0, "ADDRESS": "885 MAIN ST", "L_SRC": "MEMA"}},{"geometry": {"type": "Point", "coordinates": [-71.52089372055633, 42.138714022389685]}, "type": "Feature", "id": 105, "properties": {"CITY": "MILFORD", "NAME": "MILFORD POLICE DEPT", "ZIP": "01757", "JURISDIC": "LOCAL", "L_DATE": "2006-09-12", "SOURCE": "MEMA", "STATE": "MA", "OBJECTID": 106.0, "ADDRESS": "250 MAIN ST", "L_SRC": "MEMA"}},{"geometry": {"type": "Point", "coordinates": [-71.762059919246553, 42.189059657439891]}, "type": "Feature", "id": 106, "properties": {"CITY": "MILLBURY", "NAME": "MILLBURY POLICE DEPT", "ZIP": "01527", "JURISDIC": "LOCAL", "L_DATE": "2006-09-12", "SOURCE": "MEMA", "STATE": "MA", "OBJECTID": 107.0, "ADDRESS": "127 ELM ST", "L_SRC": "MEMA"}},{"geometry": {"type": "Point", "coordinates": [-71.581496538488395, 42.027376865732968]}, "type": "Feature", "id": 107, "properties": {"CITY": "MILLVILLE", "NAME": "MILLVILLE POLICE", "ZIP": "01529", "JURISDIC": "LOCAL", "L_DATE": "2006-09-12", "SOURCE": "MEMA", "STATE": "MA", "OBJECTID": 108.0, "ADDRESS": "8 CENTRAL ST", "L_SRC": "MEMA"}},{"geometry": {"type": "Point", "coordinates": [-71.07946402782963, 42.252197372123213]}, "type": "Feature", "id": 108, "properties": {"CITY": "MILTON", "NAME": "MILTON POLICE DEPT", "ZIP": "02186", "JURISDIC": "LOCAL", "L_DATE": "2006-09-12", "SOURCE": "MEMA", "STATE": "MA", "OBJECTID": 109.0, "ADDRESS": "40 HIGHLAND ST", "L_SRC": "MAPC"}},{"geometry": {"type": "Point", "coordinates": [-70.926141002834697, 42.427611812213229]}, "type": "Feature", "id": 109, "properties": {"CITY": "NAHANT", "NAME": "NAHANT POLICE DEPT", "ZIP": "01908", "JURISDIC": "LOCAL", "L_DATE": "2006-09-12", "SOURCE": "MEMA", "STATE": "MA", "OBJECTID": 110.0, "ADDRESS": "198 NAHANT RD", "L_SRC": "MAPC"}},{"geometry": {"type": "Point", "coordinates": [-70.098043190105969, 41.284673296734105]}, "type": "Feature", "id": 110, "properties": {"CITY": "NANTUCKET", "NAME": "NANTUCKET POLICE DEPT", "ZIP": "02554", "JURISDIC": "LOCAL", "L_DATE": "2006-09-12", "SOURCE": "MEMA", "STATE": "MA", "OBJECTID": 111.0, "ADDRESS": "20 SOUTH WATER ST", "L_SRC": "MEMA"}},{"geometry": {"type": "Point", "coordinates": [-71.236610700713342, 42.27836468450554]}, "type": "Feature", "id": 111, "properties": {"CITY": "NEEDHAM", "NAME": "NEEDHAM POLICE DEPT", "ZIP": "02492", "JURISDIC": "LOCAL", "L_DATE": "2006-09-12", "SOURCE": "MEMA", "STATE": "MA", "OBJECTID": 112.0, "ADDRESS": "99 SCHOOL ST", "L_SRC": "MEMA"}},{"geometry": {"type": "Point", "coordinates": [-70.950615715916854, 41.638095334335752]}, "type": "Feature", "id": 112, "properties": {"CITY": "NEW BEDFORD", "NAME": "NEW BEDFORD POLICE DEPT", "ZIP": "02740", "JURISDIC": "LOCAL", "L_DATE": "2006-09-12", "SOURCE": "MEMA", "STATE": "MA", "OBJECTID": 113.0, "ADDRESS": "871 ROCKDALE AVE", "L_SRC": "MEMA"}},{"geometry": {"type": "Point", "coordinates": [-71.322856663508034, 42.119541048201548]}, "type": "Feature", "id": 113, "properties": {"CITY": "NORFOLK", "NAME": "NORFOLK POLICE DEPT", "ZIP": "02056", "JURISDIC": "LOCAL", "L_DATE": "2006-09-12", "SOURCE": "MEMA", "STATE": "MA", "OBJECTID": 114.0, "ADDRESS": "117 MAIN ST", "L_SRC": "MEMA"}},{"geometry": {"type": "Point", "coordinates": [-71.333641970758805, 41.978774295130833]}, "type": "Feature", "id": 114, "properties": {"CITY": "NORTH ATTLEBOROUGH", "NAME": "NORTH ATTLEBORO POLICE DEPT", "ZIP": "02760", "JURISDIC": "LOCAL", "L_DATE": "2006-09-12", "SOURCE": "MEMA", "STATE": "MA", "OBJECTID": 115.0, "ADDRESS": "102 SOUTH WASHINGTON ST", "L_SRC": "MEMA"}},{"geometry": {"type": "Point", "coordinates": [-72.085552585379702, 42.268390148209548]}, "type": "Feature", "id": 115, "properties": {"CITY": "NORTH BROOKFIELD", "NAME": "NORTH BROOKFIELD POLICE DEPT", "ZIP": "01535", "JURISDIC": "LOCAL", "L_DATE": "2006-09-12", "SOURCE": "MEMA", "STATE": "MA", "OBJECTID": 116.0, "ADDRESS": "4 SUMMER ST", "L_SRC": "MEMA"}},{"geometry": {"type": "Point", "coordinates": [-71.077723030630608, 42.573928928806559]}, "type": "Feature", "id": 116, "properties": {"CITY": "NORTH READING", "NAME": "NORTH READING TOWN POLICE DEPT", "ZIP": "01864", "JURISDIC": "LOCAL", "L_DATE": "2006-09-12", "SOURCE": "MEMA", "STATE": "MA", "OBJECTID": 117.0, "ADDRESS": "152  PARK ST", "L_SRC": "MEMA"}},{"geometry": {"type": "Point", "coordinates": [-71.626534918896482, 42.325761844845829]}, "type": "Feature", "id": 117, "properties": {"CITY": "NORTHBOROUGH", "NAME": "NORTHBORO POLICE DEPT", "ZIP": "01532", "JURISDIC": "LOCAL", "L_DATE": "2006-09-12", "SOURCE": "MEMA", "STATE": "MA", "OBJECTID": 118.0, "ADDRESS": "211 MAIN ST", "L_SRC": "MEMA"}},{"geometry": {"type": "Point", "coordinates": [-72.456014452717511, 42.693713079673593]}, "type": "Feature", "id": 118, "properties": {"CITY": "NORTHFIELD", "NAME": "NORTHFIELD TOWN POLICE DEPT", "ZIP": "01360", "JURISDIC": "LOCAL", "L_DATE": "2006-09-12", "SOURCE": "MEMA", "STATE": "MA", "OBJECTID": 119.0, "ADDRESS": "69 MAIN ST", "L_SRC": "FRCOG"}},{"geometry": {"type": "Point", "coordinates": [-71.178626058153952, 41.971772242681752]}, "type": "Feature", "id": 119, "properties": {"CITY": "NORTON", "NAME": "NORTON POLICE DEPT", "ZIP": "02766", "JURISDIC": "LOCAL", "L_DATE": "2006-09-12", "SOURCE": "MEMA", "STATE": "MA", "OBJECTID": 120.0, "ADDRESS": "82 MAIN ST", "L_SRC": "SRPED"}},{"geometry": {"type": "Point", "coordinates": [-70.792764887115951, 42.15938324137926]}, "type": "Feature", "id": 120, "properties": {"CITY": "NORWELL", "NAME": "NORWELL POLICE CHIEF", "ZIP": "02061", "JURISDIC": "LOCAL", "L_DATE": "2006-09-12", "SOURCE": "MEMA", "STATE": "MA", "OBJECTID": 121.0, "ADDRESS": "40 RIVER ST", "L_SRC": "MEMA"}},{"geometry": {"type": "Point", "coordinates": [-71.19493073709539, 42.192598065478478]}, "type": "Feature", "id": 121, "properties": {"CITY": "NORWOOD", "NAME": "NORWOOD POLICE DEPT", "ZIP": "02062", "JURISDIC": "LOCAL", "L_DATE": "2006-09-12", "SOURCE": "MEMA", "STATE": "MA", "OBJECTID": 122.0, "ADDRESS": "135 NAHATAN ST", "L_SRC": "MEMA"}},{"geometry": {"type": "Point", "coordinates": [-70.556548929786615, 41.457584246020907]}, "type": "Feature", "id": 122, "properties": {"CITY": "OAK BLUFFS", "NAME": "OAK BLUFFS POLICE DEPT", "ZIP": "02568", "JURISDIC": "LOCAL", "L_DATE": "2006-09-12", "SOURCE": "MEMA", "STATE": "MA", "OBJECTID": 123.0, "ADDRESS": "2 OAK BLUFFS AVE", "L_SRC": "MEMA"}},{"geometry": {"type": "Point", "coordinates": [-72.049395070796166, 42.358032129809146]}, "type": "Feature", "id": 123, "properties": {"CITY": "OAKHAM", "NAME": "OAKHAM POLICE DEPT", "ZIP": "01068", "JURISDIC": "LOCAL", "L_DATE": "2006-09-12", "SOURCE": "MEMA", "STATE": "MA", "OBJECTID": 124.0, "ADDRESS": "178 BARRE RD", "L_SRC": "MEMA"}},{"geometry": {"type": "Point", "coordinates": [-72.287296212561344, 42.577903359240459]}, "type": "Feature", "id": 124, "properties": {"CITY": "ORANGE", "NAME": "ORANGE POLICE DEPT- SHELLBOURN FALLS", "ZIP": "01364", "JURISDIC": "LOCAL", "L_DATE": "2006-09-12", "SOURCE": "MEMA", "STATE": "MA", "OBJECTID": 125.0, "ADDRESS": "400 EAST RIVER ST", "L_SRC": "FRCOG"}},{"geometry": {"type": "Point", "coordinates": [-69.987660216676218, 41.781386898275827]}, "type": "Feature", "id": 125, "properties": {"CITY": "ORLEANS", "NAME": "ORLEANS POLICE DEPT", "ZIP": "02653", "JURISDIC": "LOCAL", "L_DATE": "2006-09-12", "SOURCE": "MEMA", "STATE": "MA", "OBJECTID": 126.0, "ADDRESS": "90 SOUTH ORLEANS RD", "L_SRC": "CAPECODCOM"}},{"geometry": {"type": "Point", "coordinates": [-71.864314141146806, 42.13242069991086]}, "type": "Feature", "id": 126, "properties": {"CITY": "OXFORD", "NAME": "OXFORD POLICE DEPT", "ZIP": "01540", "JURISDIC": "LOCAL", "L_DATE": "2006-09-12", "SOURCE": "MEMA", "STATE": "MA", "OBJECTID": 127.0, "ADDRESS": "450 MAIN ST", "L_SRC": "MEMA"}},{"geometry": {"type": "Point", "coordinates": [-71.928766399465999, 42.311343493939248]}, "type": "Feature", "id": 127, "properties": {"CITY": "PAXTON", "NAME": "PAXTON POLICE DEPT", "ZIP": "01612", "JURISDIC": "LOCAL", "L_DATE": "2006-09-12", "SOURCE": "MEMA", "STATE": "MA", "OBJECTID": 128.0, "ADDRESS": "10 WEST ST", "L_SRC": "MEMA"}},{"geometry": {"type": "Point", "coordinates": [-70.808606928643528, 42.0720309010241]}, "type": "Feature", "id": 128, "properties": {"CITY": "PEMBROKE", "NAME": "PEMBROKE POLICE DEPT", "ZIP": "02359", "JURISDIC": "LOCAL", "L_DATE": "2006-09-12", "SOURCE": "MEMA", "STATE": "MA", "OBJECTID": 129.0, "ADDRESS": "100 CENTER ST", "L_SRC": "MEMA"}},{"geometry": {"type": "Point", "coordinates": [-71.585809626112535, 42.665594570193228]}, "type": "Feature", "id": 129, "properties": {"CITY": "PEPPERELL", "NAME": "PEPPERELL POLICE DEPT", "ZIP": "01463", "JURISDIC": "LOCAL", "L_DATE": "2006-09-12", "SOURCE": "MEMA", "STATE": "MA", "OBJECTID": 130.0, "ADDRESS": "59 MAIN ST", "L_SRC": "MEMA"}},{"geometry": {"type": "Point", "coordinates": [-72.132141541185291, 42.549007232355052]}, "type": "Feature", "id": 130, "properties": {"CITY": "PHILLIPSTON", "NAME": "PHILLIPSTON POLICE DEPT", "ZIP": "01331", "JURISDIC": "LOCAL", "L_DATE": "2006-09-12", "SOURCE": "MEMA", "STATE": "MA", "OBJECTID": 131.0, "ADDRESS": "50 THE COMMON", "L_SRC": "MEMA"}},{"geometry": {"type": "Point", "coordinates": [-73.252626142506827, 42.449444697344006]}, "type": "Feature", "id": 131, "properties": {"CITY": "PITTSFIELD", "NAME": "PITTSFIELD POLICE DEPT", "ZIP": "01201", "JURISDIC": "LOCAL", "L_DATE": "2006-09-12", "SOURCE": "MEMA", "STATE": "MA", "OBJECTID": 132.0, "ADDRESS": "39 ALLEN ST", "L_SRC": "BRPC"}},{"geometry": {"type": "Point", "coordinates": [-71.337022842192908, 42.007552979851567]}, "type": "Feature", "id": 132, "properties": {"CITY": "PLAINVILLE", "NAME": "PLAINVILLE POLICE DEPT", "ZIP": "02762", "JURISDIC": "LOCAL", "L_DATE": "2006-09-12", "SOURCE": "MEMA", "STATE": "MA", "OBJECTID": 133.0, "ADDRESS": "157 SOUTH ST", "L_SRC": "MEMA"}},{"geometry": {"type": "Point", "coordinates": [-70.656800359750179, 41.933659357166881]}, "type": "Feature", "id": 133, "properties": {"CITY": "PLYMOUTH", "NAME": "PLYMOUTH POLICE DEPT", "ZIP": "02360", "JURISDIC": "LOCAL", "L_DATE": "2006-09-12", "SOURCE": "MEMA", "STATE": "MA", "OBJECTID": 134.0, "ADDRESS": "20 LONG POND RD", "L_SRC": "MEMA"}},{"geometry": {"type": "Point", "coordinates": [-70.816766110143021, 41.957251017324737]}, "type": "Feature", "id": 134, "properties": {"CITY": "PLYMPTON", "NAME": "PLYMPTON POLICE DEPT", "ZIP": "02367", "JURISDIC": "LOCAL", "L_DATE": "2006-09-12", "SOURCE": "MEMA", "STATE": "MA", "OBJECTID": 135.0, "ADDRESS": "5 PALMER RD", "L_SRC": "MEMA"}},{"geometry": {"type": "Point", "coordinates": [-71.114499139884316, 42.374918836300033]}, "type": "Feature", "id": 135, "properties": {"CITY": "CAMBRIDGE", "NAME": "CAMBRIDGE POLICE DEPT", "ZIP": "02138", "JURISDIC": "LOCAL", "L_DATE": "2006-09-12", "SOURCE": "MEMA", "STATE": "MA", "OBJECTID": 136.0, "ADDRESS": "489 BROADWAY", "L_SRC": "MEMA"}},{"geometry": {"type": "Point", "coordinates": [-70.609092682690275, 41.747713213145296]}, "type": "Feature", "id": 136, "properties": {"CITY": "BOURNE", "NAME": "BUZZARDS BAYPOLICE DEPT", "ZIP": "02532", "JURISDIC": "LOCAL", "L_DATE": "2006-09-12", "SOURCE": "MEMA", "STATE": "MA", "OBJECTID": 137.0, "ADDRESS": "175 MAIN ST", "L_SRC": "CAPECODCOM"}},{"geometry": {"type": "Point", "coordinates": [-71.879428230622139, 42.450004682624026]}, "type": "Feature", "id": 137, "properties": {"CITY": "PRINCETON", "NAME": "PRINCETON POLICE DEPT", "ZIP": "01541", "JURISDIC": "LOCAL", "L_DATE": "2006-09-12", "SOURCE": "MEMA", "STATE": "MA", "OBJECTID": 138.0, "ADDRESS": "1 TOWN HALL DR", "L_SRC": "MEMA"}},{"geometry": {"type": "Point", "coordinates": [-70.194013458556768, 42.048949999709066]}, "type": "Feature", "id": 138, "properties": {"CITY": "PROVINCETOWN", "NAME": "PROVINCETOWN POLICE DEPT", "ZIP": "02657", "JURISDIC": "LOCAL", "L_DATE": "2006-09-12", "SOURCE": "MEMA", "STATE": "MA", "OBJECTID": 139.0, "ADDRESS": "26 SHANKPAINTER RD", "L_SRC": "CAPECODCOM"}},{"geometry": {"type": "Point", "coordinates": [-70.99603125054702, 42.255770162920541]}, "type": "Feature", "id": 139, "properties": {"CITY": "QUINCY", "NAME": "QUINCY POLICE DEPT", "ZIP": "02169", "JURISDIC": "LOCAL", "L_DATE": "2006-09-12", "SOURCE": "MEMA", "STATE": "MA", "OBJECTID": 140.0, "ADDRESS": "1 SEA ST", "L_SRC": "MAPC"}},{"geometry": {"type": "Point", "coordinates": [-71.042944178200571, 42.161275599030716]}, "type": "Feature", "id": 140, "properties": {"CITY": "RANDOLPH", "NAME": "RANDOLPH POLICE DEPT", "ZIP": "02368", "JURISDIC": "LOCAL", "L_DATE": "2006-09-12", "SOURCE": "MEMA", "STATE": "MA", "OBJECTID": 141.0, "ADDRESS": "41 SOUTH MAIN ST", "L_SRC": "MAPC"}},{"geometry": {"type": "Point", "coordinates": [-71.051233569296585, 41.922092631837501]}, "type": "Feature", "id": 141, "properties": {"CITY": "RAYNHAM", "NAME": "RAYNHAM POLICE DEPT", "ZIP": "02767", "JURISDIC": "LOCAL", "L_DATE": "2006-09-12", "SOURCE": "MEMA", "STATE": "MA", "OBJECTID": 142.0, "ADDRESS": "53 ORCHARD ST", "L_SRC": "SRPED"}},{"geometry": {"type": "Point", "coordinates": [-71.238077857347079, 41.861796845772659]}, "type": "Feature", "id": 142, "properties": {"CITY": "REHOBOTH", "NAME": "REHOBOTH POLICE DEPT", "ZIP": "02769", "JURISDIC": "LOCAL", "L_DATE": "2006-09-12", "SOURCE": "MEMA", "STATE": "MA", "OBJECTID": 143.0, "ADDRESS": "334 ANAWAN ST", "L_SRC": "MEMA"}},{"geometry": {"type": "Point", "coordinates": [-71.012714292552133, 42.407698185308398]}, "type": "Feature", "id": 143, "properties": {"CITY": "REVERE", "NAME": "REVERE POLICE DEPT", "ZIP": "02151", "JURISDIC": "LOCAL", "L_DATE": "2006-09-12", "SOURCE": "MEMA", "STATE": "MA", "OBJECTID": 144.0, "ADDRESS": "23 PLEASANT ST", "L_SRC": "MAPC"}},{"geometry": {"type": "Point", "coordinates": [-70.818219761537023, 41.730414208075018]}, "type": "Feature", "id": 144, "properties": {"CITY": "ROCHESTER", "NAME": "ROCHESTER POLICE DEPT", "ZIP": "02770", "JURISDIC": "LOCAL", "L_DATE": "2006-09-12", "SOURCE": "MEMA", "STATE": "MA", "OBJECTID": 145.0, "ADDRESS": "29 DEXTER ST", "L_SRC": "MEMA"}},{"geometry": {"type": "Point", "coordinates": [-70.90318791029317, 42.124373850362453]}, "type": "Feature", "id": 145, "properties": {"CITY": "ROCKLAND", "NAME": "ROCKLAND POLICE DEPT", "ZIP": "02370", "JURISDIC": "LOCAL", "L_DATE": "2006-09-12", "SOURCE": "MEMA", "STATE": "MA", "OBJECTID": 146.0, "ADDRESS": "490 MARKET ST", "L_SRC": "MEMA"}},{"geometry": {"type": "Point", "coordinates": [-71.954251575234494, 42.377092733474655]}, "type": "Feature", "id": 146, "properties": {"CITY": "RUTLAND", "NAME": "RUTLAND POLICE DEPT", "ZIP": "01543", "JURISDIC": "LOCAL", "L_DATE": "2006-09-12", "SOURCE": "MEMA", "STATE": "MA", "OBJECTID": 147.0, "ADDRESS": "242 MAIN ST", "L_SRC": "MEMA"}},{"geometry": {"type": "Point", "coordinates": [-70.495781600572911, 41.761957739167414]}, "type": "Feature", "id": 147, "properties": {"CITY": "SANDWICH", "NAME": "SANDWICH POLICE DEPT", "ZIP": "02563", "JURISDIC": "LOCAL", "L_DATE": "2006-09-12", "SOURCE": "MEMA", "STATE": "MA", "OBJECTID": 148.0, "ADDRESS": "117 ROUTE 6A", "L_SRC": "CAPECODCOM"}},{"geometry": {"type": "Point", "coordinates": [-70.76888861055609, 42.197862595085468]}, "type": "Feature", "id": 148, "properties": {"CITY": "SCITUATE", "NAME": "SCITUATE POLICE DEPT", "ZIP": "02066", "JURISDIC": "LOCAL", "L_DATE": "2006-09-12", "SOURCE": "MEMA", "STATE": "MA", "OBJECTID": 149.0, "ADDRESS": "604 CHIEF JUSTICE CUS", "L_SRC": "MAPC"}},{"geometry": {"type": "Point", "coordinates": [-71.319969696340763, 41.828752335363056]}, "type": "Feature", "id": 149, "properties": {"CITY": "SEEKONK", "NAME": "SEEKONK POLICE", "ZIP": "02771", "JURISDIC": "LOCAL", "L_DATE": "2006-09-12", "SOURCE": "MEMA", "STATE": "MA", "OBJECTID": 150.0, "ADDRESS": "624 TAUNTON AVE", "L_SRC": "MEMA"}},{"geometry": {"type": "Point", "coordinates": [-71.18688683102593, 42.114072538822988]}, "type": "Feature", "id": 150, "properties": {"CITY": "SHARON", "NAME": "SHARON POLICE DEPT", "ZIP": "02067", "JURISDIC": "LOCAL", "L_DATE": "2006-09-12", "SOURCE": "MEMA", "STATE": "MA", "OBJECTID": 151.0, "ADDRESS": "213 SOUTH  MAIN ST", "L_SRC": "MEMA"}},{"geometry": {"type": "Point", "coordinates": [-72.735941015617783, 42.599570825532915]}, "type": "Feature", "id": 151, "properties": {"CITY": "BUCKLAND", "NAME": "SHELBOURNE FALLS POLICE DEPT- BUCKLAND", "ZIP": "01370", "JURISDIC": "LOCAL", "L_DATE": "2006-09-12", "SOURCE": "MEMA", "STATE": "MA", "OBJECTID": 152.0, "ADDRESS": "69 CONWAY 1/2", "L_SRC": "MEMA"}},{"geometry": {"type": "Point", "coordinates": [-72.738649892347965, 42.603350852403494]}, "type": "Feature", "id": 152, "properties": {"CITY": "SHELBURNE", "NAME": "SHELBURNE POLICE DEPT", "ZIP": "01370", "JURISDIC": "LOCAL", "L_DATE": "2006-09-12", "SOURCE": "MEMA", "STATE": "MA", "OBJECTID": 153.0, "ADDRESS": "51 BRIDGE ST", "L_SRC": "FRCOG"}},{"geometry": {"type": "Point", "coordinates": [-71.716950080910536, 42.295409664630363]}, "type": "Feature", "id": 153, "properties": {"CITY": "SHREWSBURY", "NAME": "SHREWSBURY POLICE DEPT", "ZIP": "01545", "JURISDIC": "LOCAL", "L_DATE": "2006-09-12", "SOURCE": "MEMA", "STATE": "MA", "OBJECTID": 154.0, "ADDRESS": "16 MAPLE AVE", "L_SRC": "Parcel"}},{"geometry": {"type": "Point", "coordinates": [-71.148088449515853, 41.741004755621432]}, "type": "Feature", "id": 154, "properties": {"CITY": "SOMERSET", "NAME": "SOMERSET POLICE DEPT", "ZIP": "02726", "JURISDIC": "LOCAL", "L_DATE": "2006-09-12", "SOURCE": "MEMA", "STATE": "MA", "OBJECTID": 155.0, "ADDRESS": "465 COUNTY ST", "L_SRC": "SRPED"}},{"geometry": {"type": "Point", "coordinates": [-71.092439135449666, 42.379129322329469]}, "type": "Feature", "id": 155, "properties": {"CITY": "SOMERVILLE", "NAME": "SOMERVILLE POLICE", "ZIP": "02143", "JURISDIC": "LOCAL", "L_DATE": "2006-09-12", "SOURCE": "MEMA", "STATE": "MA", "OBJECTID": 156.0, "ADDRESS": "220 WASHINGTON ST", "L_SRC": "MEMA"}},{"geometry": {"type": "Point", "coordinates": [-71.528036567133611, 42.306687973557757]}, "type": "Feature", "id": 156, "properties": {"CITY": "SOUTHBOROUGH", "NAME": "SOUTHBOROUGH POLICE DEPT", "ZIP": "01772", "JURISDIC": "LOCAL", "L_DATE": "2006-09-12", "SOURCE": "MEMA", "STATE": "MA", "OBJECTID": 157.0, "ADDRESS": "19 MAIN ST", "L_SRC": "MEMA"}},{"geometry": {"type": "Point", "coordinates": [-72.027147484060663, 42.075367544628577]}, "type": "Feature", "id": 157, "properties": {"CITY": "SOUTHBRIDGE", "NAME": "SOUTHBRIDGE POLICE DEPT", "ZIP": "01550", "JURISDIC": "LOCAL", "L_DATE": "2006-09-12", "SOURCE": "MEMA", "STATE": "MA", "OBJECTID": 158.0, "ADDRESS": "1 MECHANIC ST", "L_SRC": "MEMA"}},{"geometry": {"type": "Point", "coordinates": [-72.768396122422985, 42.053790961130566]}, "type": "Feature", "id": 158, "properties": {"CITY": "SOUTHWICK", "NAME": "SOUTHWICK POLICE DEPT", "ZIP": "01077", "JURISDIC": "LOCAL", "L_DATE": "2006-09-12", "SOURCE": "MEMA", "STATE": "MA", "OBJECTID": 159.0, "ADDRESS": "11 DEPOT ST", "L_SRC": "BRPC"}},{"geometry": {"type": "Point", "coordinates": [-71.062004905298807, 42.35947357093935]}, "type": "Feature", "id": 159, "properties": {"CITY": "BOSTON", "NAME": "SP GOVERNMENT CENTER", "ZIP": "02108", "JURISDIC": "STATE", "L_DATE": "2006-09-12", "SOURCE": "MEMA", "STATE": "MA", "OBJECTID": 160.0, "ADDRESS": "1 ASHBURTON PLACE", "L_SRC": "MEMA"}},{"geometry": {"type": "Point", "coordinates": [-71.03849882904089, 42.346309935639368]}, "type": "Feature", "id": 160, "properties": {"CITY": "BOSTON", "NAME": "SP TED WILLIAMS TUNNEL", "ZIP": "02210", "JURISDIC": "STATE", "L_DATE": "2006-09-12", "SOURCE": "MEMA", "STATE": "MA", "OBJECTID": 161.0, "ADDRESS": "100 MASSPORT HAUL ROA", "L_SRC": "MEMA"}},{"geometry": {"type": "Point", "coordinates": [-71.051999795542272, 42.312099838692774]}, "type": "Feature", "id": 161, "properties": {"CITY": "BOSTON", "NAME": "SP SOUTH BOSTON", "ZIP": "02125", "JURISDIC": "STATE", "L_DATE": "2006-09-12", "SOURCE": "MEMA", "STATE": "MA", "OBJECTID": 162.0, "ADDRESS": "125 WILLIAM DAY BLVD.", "L_SRC": "MEMA"}},{"geometry": {"type": "Point", "coordinates": [-71.144127095493488, 42.362536187430884]}, "type": "Feature", "id": 162, "properties": {"CITY": "BOSTON", "NAME": "SP BRIGHTON", "ZIP": "02135", "JURISDIC": "STATE", "L_DATE": "2006-09-12", "SOURCE": "MEMA", "STATE": "MA", "OBJECTID": 163.0, "ADDRESS": "1400 SOLDIERS FIELD R", "L_SRC": "MEMA"}},{"geometry": {"type": "Point", "coordinates": [-71.038246415569873, 42.37384604589554]}, "type": "Feature", "id": 163, "properties": {"CITY": "BOSTON", "NAME": "SP SUMNER CALLAHAN TUNNEL", "ZIP": "02128", "JURISDIC": "STATE", "L_DATE": "2006-09-12", "SOURCE": "MEMA", "STATE": "MA", "OBJECTID": 164.0, "ADDRESS": "145 LONDON STREET", "L_SRC": "MEMA"}},{"geometry": {"type": "Point", "coordinates": [-71.285703769619303, 42.075011003367301]}, "type": "Feature", "id": 164, "properties": {"CITY": "FOXBOROUGH", "NAME": "SP FOXBORO", "ZIP": "02035", "JURISDIC": "STATE", "L_DATE": "2006-09-12", "SOURCE": "MEMA", "STATE": "MA", "OBJECTID": 165.0, "ADDRESS": "163 WASHINGTON STREET", "L_SRC": "MEMA"}},{"geometry": {"type": "Point", "coordinates": [-70.98939959495118, 42.414394978242946]}, "type": "Feature", "id": 165, "properties": {"CITY": "REVERE", "NAME": "SP REVERE", "ZIP": "02151", "JURISDIC": "STATE", "L_DATE": "2006-09-12", "SOURCE": "MEMA", "STATE": "MA", "OBJECTID": 166.0, "ADDRESS": "220 REVERE BEACH BLVD", "L_SRC": "MAPC"}},{"geometry": {"type": "Point", "coordinates": [-71.068850408840504, 42.36685290914884]}, "type": "Feature", "id": 166, "properties": {"CITY": "BOSTON", "NAME": "SP BOSTON", "ZIP": "02114", "JURISDIC": "STATE", "L_DATE": "2006-09-12", "SOURCE": "MEMA", "STATE": "MA", "OBJECTID": 167.0, "ADDRESS": "250 LEVERETT", "L_SRC": "MEMA"}},{"geometry": {"type": "Point", "coordinates": [-70.98361919299964, 41.639727787040428]}, "type": "Feature", "id": 167, "properties": {"CITY": "DARTMOUTH", "NAME": "SP NORTH DARTMOUTH", "ZIP": "02747", "JURISDIC": "STATE", "L_DATE": "2006-09-12", "SOURCE": "MEMA", "STATE": "MA", "OBJECTID": 168.0, "ADDRESS": "262 STATE ROAD", "L_SRC": "SRPED"}},{"geometry": {"type": "Point", "coordinates": [-72.037648935281496, 42.135486346680857]}, "type": "Feature", "id": 168, "properties": {"CITY": "CHARLTON", "NAME": "SP CHARLTON", "ZIP": "01507", "JURISDIC": "STATE", "L_DATE": "2006-09-12", "SOURCE": "MEMA", "STATE": "MA", "OBJECTID": 169.0, "ADDRESS": "2727 STURBRIDGE ROAD", "L_SRC": "MEMA"}},{"geometry": {"type": "Point", "coordinates": [-70.942576218783032, 41.893720014277555]}, "type": "Feature", "id": 169, "properties": {"CITY": "MIDDLEBOROUGH", "NAME": "SP MIDDLEBORO", "ZIP": "02346", "JURISDIC": "STATE", "L_DATE": "2006-09-12", "SOURCE": "MEMA", "STATE": "MA", "OBJECTID": 170.0, "ADDRESS": "326 WEST GROVE STREET", "L_SRC": "MEMA"}},{"geometry": {"type": "Point", "coordinates": [-71.687869050180765, 42.211529149436373]}, "type": "Feature", "id": 170, "properties": {"CITY": "GRAFTON", "NAME": "SP GRAFTON", "ZIP": "01519", "JURISDIC": "STATE", "L_DATE": "2006-09-12", "SOURCE": "MEMA", "STATE": "MA", "OBJECTID": 171.0, "ADDRESS": "44 WORCESTER ROAD", "L_SRC": "MEMA"}},{"geometry": {"type": "Point", "coordinates": [-71.415052839476772, 42.295928178170044]}, "type": "Feature", "id": 171, "properties": {"CITY": "FRAMINGHAM", "NAME": "SP FRAMINGHAM", "ZIP": "01702", "JURISDIC": "STATE", "L_DATE": "2006-09-12", "SOURCE": "MEMA", "STATE": "MA", "OBJECTID": 172.0, "ADDRESS": "450 WORCESTER ROAD", "L_SRC": "MEMA"}},{"geometry": {"type": "Point", "coordinates": [-70.794923332284597, 42.161485874662866]}, "type": "Feature", "id": 172, "properties": {"CITY": "NORWELL", "NAME": "SP NORWELL", "ZIP": "02061", "JURISDIC": "STATE", "L_DATE": "2006-09-12", "SOURCE": "MEMA", "STATE": "MA", "OBJECTID": 173.0, "ADDRESS": "6 WEST STREET", "L_SRC": "MEMA"}},{"geometry": {"type": "Point", "coordinates": [-71.836078938317385, 42.338132317453621]}, "type": "Feature", "id": 173, "properties": {"CITY": "HOLDEN", "NAME": "SP HOLDEN", "ZIP": "01520", "JURISDIC": "STATE", "L_DATE": "2006-09-12", "SOURCE": "MEMA", "STATE": "MA", "OBJECTID": 174.0, "ADDRESS": "612 MAIN STREET", "L_SRC": "MEMA"}},{"geometry": {"type": "Point", "coordinates": [-71.093083180956157, 42.214796902738833]}, "type": "Feature", "id": 174, "properties": {"CITY": "MILTON", "NAME": "SP MILTON", "ZIP": "02186", "JURISDIC": "STATE", "L_DATE": "2006-09-12", "SOURCE": "MEMA", "STATE": "MA", "OBJECTID": 175.0, "ADDRESS": "685 HILLSIDE STREET", "L_SRC": "MAPC"}},{"geometry": {"type": "Point", "coordinates": [-70.10789474493636, 41.289654603534039]}, "type": "Feature", "id": 175, "properties": {"CITY": "NANTUCKET", "NAME": "SP NANTUCKET", "ZIP": "02554", "JURISDIC": "STATE", "L_DATE": "2006-09-12", "SOURCE": "MEMA", "STATE": "MA", "OBJECTID": 176.0, "ADDRESS": "83 NORTH LIBERTY STRE", "L_SRC": "MEMA"}},{"geometry": {"type": "Point", "coordinates": [-71.118555636571202, 42.609080287178315]}, "type": "Feature", "id": 176, "properties": {"CITY": "ANDOVER", "NAME": "SP ANDOVER", "ZIP": "01810", "JURISDIC": "STATE", "L_DATE": "2006-09-12", "SOURCE": "MEMA", "STATE": "MA", "OBJECTID": 177.0, "ADDRESS": "ANDOVER BY-PASS ROUTE", "L_SRC": "MAPC"}},{"geometry": {"type": "Point", "coordinates": [-72.203500969963144, 42.583632118858098]}, "type": "Feature", "id": 177, "properties": {"CITY": "ATHOL", "NAME": "SP ATHOL", "ZIP": "01331", "JURISDIC": "STATE", "L_DATE": "2006-09-12", "SOURCE": "MEMA", "STATE": "MA", "OBJECTID": 178.0, "ADDRESS": "2289 MAIN STREET", "L_SRC": "MEMA"}},{"geometry": {"type": "Point", "coordinates": [-71.742783926445654, 42.535899126534886]}, "type": "Feature", "id": 178, "properties": {"CITY": "LEOMINSTER", "NAME": "SP LEOMINSTER", "ZIP": "01453", "JURISDIC": "STATE", "L_DATE": "2006-09-12", "SOURCE": "MEMA", "STATE": "MA", "OBJECTID": 179.0, "ADDRESS": "HAWES STREET", "L_SRC": "MEMA"}},{"geometry": {"type": "Point", "coordinates": [-72.093201299166481, 42.211475291062087]}, "type": "Feature", "id": 179, "properties": {"CITY": "BROOKFIELD", "NAME": "SP BROOKFIELD", "ZIP": "01506", "JURISDIC": "STATE", "L_DATE": "2006-09-12", "SOURCE": "MEMA", "STATE": "MA", "OBJECTID": 180.0, "ADDRESS": "HIGH STREET", "L_SRC": "MEMA"}},{"geometry": {"type": "Point", "coordinates": [-72.082989130532368, 42.112288629600407]}, "type": "Feature", "id": 180, "properties": {"CITY": "STURBRIDGE", "NAME": "SP STURBRIDGE", "ZIP": "01566", "JURISDIC": "STATE", "L_DATE": "2006-09-12", "SOURCE": "MEMA", "STATE": "MA", "OBJECTID": 181.0, "ADDRESS": "NEW BOSTON ROAD", "L_SRC": "MEMA"}},{"geometry": {"type": "Point", "coordinates": [-70.588217717606355, 41.743676012589894]}, "type": "Feature", "id": 181, "properties": {"CITY": "BOURNE", "NAME": "SP BOURNE", "ZIP": "02532", "JURISDIC": "STATE", "L_DATE": "2006-09-12", "SOURCE": "MEMA", "STATE": "MA", "OBJECTID": 182.0, "ADDRESS": "ROUTE 28", "L_SRC": "MEMA"}},{"geometry": {"type": "Point", "coordinates": [-73.147127569693069, 42.588120487346131]}, "type": "Feature", "id": 182, "properties": {"CITY": "CHESHIRE", "NAME": "SP CHESHIRE", "ZIP": "01225", "JURISDIC": "STATE", "L_DATE": "2006-09-12", "SOURCE": "MEMA", "STATE": "MA", "OBJECTID": 183.0, "ADDRESS": "ROUTE 8", "L_SRC": "BRPC"}},{"geometry": {"type": "Point", "coordinates": [-70.577801575463113, 41.462430204625385]}, "type": "Feature", "id": 183, "properties": {"CITY": "OAK BLUFFS", "NAME": "SP OAKS BLUFF", "ZIP": "02557", "JURISDIC": "STATE", "L_DATE": "2006-09-12", "SOURCE": "MEMA", "STATE": "MA", "OBJECTID": 184.0, "ADDRESS": "51 TEMAHIGAN", "L_SRC": "MEMA"}},{"geometry": {"type": "Point", "coordinates": [-72.005739544602989, 42.236491579801886]}, "type": "Feature", "id": 184, "properties": {"CITY": "SPENCER", "NAME": "SPENCER POLICE DEPT", "ZIP": "01562", "JURISDIC": "LOCAL", "L_DATE": "2006-09-12", "SOURCE": "MEMA", "STATE": "MA", "OBJECTID": 185.0, "ADDRESS": "9 DEWEY ST", "L_SRC": "MEMA"}},{"geometry": {"type": "Point", "coordinates": [-71.745635869506287, 42.455957459631122]}, "type": "Feature", "id": 185, "properties": {"CITY": "STERLING", "NAME": "STERLING POLICE DEPT", "ZIP": "01564", "JURISDIC": "LOCAL", "L_DATE": "2006-09-12", "SOURCE": "MEMA", "STATE": "MA", "OBJECTID": 186.0, "ADDRESS": "1 MAIN ST", "L_SRC": "MEMA"}},{"geometry": {"type": "Point", "coordinates": [-71.104396119689525, 42.125399556749606]}, "type": "Feature", "id": 186, "properties": {"CITY": "STOUGHTON", "NAME": "STOUGHTON POLICE DEPT", "ZIP": "02072", "JURISDIC": "LOCAL", "L_DATE": "2006-09-12", "SOURCE": "MEMA", "STATE": "MA", "OBJECTID": 187.0, "ADDRESS": "26 ROSE ST", "L_SRC": "MEMA"}},{"geometry": {"type": "Point", "coordinates": [-72.084343209326121, 42.111450895832512]}, "type": "Feature", "id": 187, "properties": {"CITY": "STURBRIDGE", "NAME": "STURBRIDGE POLICE DEPT", "ZIP": "01566", "JURISDIC": "LOCAL", "L_DATE": "2006-09-12", "SOURCE": "MEMA", "STATE": "MA", "OBJECTID": 188.0, "ADDRESS": "346 MAIN ST", "L_SRC": "MEMA"}},{"geometry": {"type": "Point", "coordinates": [-71.194185015060825, 41.746124849694752]}, "type": "Feature", "id": 188, "properties": {"CITY": "SWANSEA", "NAME": "SWANSEA POLICE DEPT", "ZIP": "02777", "JURISDIC": "LOCAL", "L_DATE": "2006-09-12", "SOURCE": "MEMA", "STATE": "MA", "OBJECTID": 189.0, "ADDRESS": "100 GARDNERS NECK RD", "L_SRC": "SRPED"}},{"geometry": {"type": "Point", "coordinates": [-71.031212353427776, 41.882287092861048]}, "type": "Feature", "id": 189, "properties": {"CITY": "TAUNTON", "NAME": "TAUNTON POLICE DEPT", "ZIP": "02718", "JURISDIC": "LOCAL", "L_DATE": "2006-09-12", "SOURCE": "MEMA", "STATE": "MA", "OBJECTID": 190.0, "ADDRESS": "111 GARDNERS NECK RD", "L_SRC": "SRPED"}},{"geometry": {"type": "Point", "coordinates": [-70.60005596273993, 41.480196518589672]}, "type": "Feature", "id": 190, "properties": {"CITY": "TISBURY", "NAME": "TISBURY POLICE DEPT", "ZIP": "02568", "JURISDIC": "LOCAL", "L_DATE": "2006-09-12", "SOURCE": "MEMA", "STATE": "MA", "OBJECTID": 191.0, "ADDRESS": "918 MAIN ST", "L_SRC": "MEMA"}},{"geometry": {"type": "Point", "coordinates": [-71.605883482828432, 42.175019537987573]}, "type": "Feature", "id": 191, "properties": {"CITY": "UPTON", "NAME": "UPTON POLICE DEPT", "ZIP": "01568", "JURISDIC": "LOCAL", "L_DATE": "2006-09-12", "SOURCE": "MEMA", "STATE": "MA", "OBJECTID": 192.0, "ADDRESS": "116 MAIN RD", "L_SRC": "MEMA"}},{"geometry": {"type": "Point", "coordinates": [-71.648025518301125, 42.077118732280404]}, "type": "Feature", "id": 192, "properties": {"CITY": "UXBRIDGE", "NAME": "UXBRIDGE TOWN POLICE DEPT", "ZIP": "01569", "JURISDIC": "LOCAL", "L_DATE": "2006-09-12", "SOURCE": "MEMA", "STATE": "MA", "OBJECTID": 193.0, "ADDRESS": "275 DOUGLAS ST", "L_SRC": "MEMA"}},{"geometry": {"type": "Point", "coordinates": [-70.602897354258388, 41.454125471974955]}, "type": "Feature", "id": 193, "properties": {"CITY": "TISBURY", "NAME": "VINEYARD HAVEN POLICE DEPT", "ZIP": "02568", "JURISDIC": "LOCAL", "L_DATE": "2006-09-12", "SOURCE": "MEMA", "STATE": "MA", "OBJECTID": 194.0, "ADDRESS": "21 SOUTH MAIN ST", "L_SRC": "MEMA"}},{"geometry": {"type": "Point", "coordinates": [-71.252700951039174, 42.145640317885736]}, "type": "Feature", "id": 194, "properties": {"CITY": "WALPOLE", "NAME": "WALPOLE POLICE DEPT", "ZIP": "02081", "JURISDIC": "LOCAL", "L_DATE": "2006-09-12", "SOURCE": "MEMA", "STATE": "MA", "OBJECTID": 195.0, "ADDRESS": "972 MAIN ST", "L_SRC": "MEMA"}},{"geometry": {"type": "Point", "coordinates": [-70.733127161527108, 41.769535647613488]}, "type": "Feature", "id": 195, "properties": {"CITY": "WAREHAM", "NAME": "WAREHAM POLICE DEPT", "ZIP": "02571", "JURISDIC": "LOCAL", "L_DATE": "2006-09-12", "SOURCE": "MEMA", "STATE": "MA", "OBJECTID": 196.0, "ADDRESS": "2515 CRANBERRY HWY", "L_SRC": "SRPED"}},{"geometry": {"type": "Point", "coordinates": [-71.793269083110545, 42.394504166448179]}, "type": "Feature", "id": 196, "properties": {"CITY": "WEST BOYLSTON", "NAME": "WEST BOYLSTON POLICE DEPT", "ZIP": "01583", "JURISDIC": "LOCAL", "L_DATE": "2006-09-12", "SOURCE": "MEMA", "STATE": "MA", "OBJECTID": 197.0, "ADDRESS": "140 MAIN ST", "L_SRC": "MEMA"}},{"geometry": {"type": "Point", "coordinates": [-72.142358258611452, 42.23519203433888]}, "type": "Feature", "id": 197, "properties": {"CITY": "WEST BROOKFIELD", "NAME": "WEST BROOKFIELD POLICE DEPT", "ZIP": "01585", "JURISDIC": "LOCAL", "L_DATE": "2006-09-12", "SOURCE": "MEMA", "STATE": "MA", "OBJECTID": 198.0, "ADDRESS": "2 EAST MAIN STREET", "L_SRC": "MEMA"}},{"geometry": {"type": "Point", "coordinates": [-70.950759475678112, 42.200894221078734]}, "type": "Feature", "id": 198, "properties": {"CITY": "WEYMOUTH", "NAME": "WEYMOUTH POLICE DEPT", "ZIP": "02189", "JURISDIC": "LOCAL", "L_DATE": "2006-09-12", "SOURCE": "MEMA", "STATE": "MA", "OBJECTID": 199.0, "ADDRESS": "140 WINTER ST", "L_SRC": "MAPC"}},{"geometry": {"type": "Point", "coordinates": [-71.645982029333808, 42.128807413080814]}, "type": "Feature", "id": 199, "properties": {"CITY": "NORTHBRIDGE", "NAME": "NORTHBRIDGE POLICE DEPT", "ZIP": "01588", "JURISDIC": "LOCAL", "L_DATE": "2006-09-12", "SOURCE": "MEMA", "STATE": "MA", "OBJECTID": 200.0, "ADDRESS": "1 HOPE STREET", "L_SRC": "MEMA"}},{"geometry": {"type": "Point", "coordinates": [-73.209613008158769, 42.714638271359803]}, "type": "Feature", "id": 200, "properties": {"CITY": "WILLIAMSTOWN", "NAME": "WILLIAMSTOWN POLICE DEPT", "ZIP": "01267", "JURISDIC": "LOCAL", "L_DATE": "2006-09-12", "SOURCE": "MEMA", "STATE": "MA", "OBJECTID": 201.0, "ADDRESS": "31 NORTH ST", "L_SRC": "BRPC"}},{"geometry": {"type": "Point", "coordinates": [-70.984415519936007, 42.376766318637621]}, "type": "Feature", "id": 201, "properties": {"CITY": "WINTHROP", "NAME": "WINTHROP POLICE DEPT", "ZIP": "02152", "JURISDIC": "LOCAL", "L_DATE": "2006-09-12", "SOURCE": "MEMA", "STATE": "MA", "OBJECTID": 202.0, "ADDRESS": "2 METCALF SQ", "L_SRC": "MAPC"}},{"geometry": {"type": "Point", "coordinates": [-71.797704343826794, 42.271112590719312]}, "type": "Feature", "id": 202, "properties": {"CITY": "WORCESTER", "NAME": "WORCESTER POLICE DEPT", "ZIP": "01604", "JURISDIC": "LOCAL", "L_DATE": "2006-09-12", "SOURCE": "MEMA", "STATE": "MA", "OBJECTID": 203.0, "ADDRESS": "25 HARRISON AVE", "L_SRC": "MEMA"}},{"geometry": {"type": "Point", "coordinates": [-71.329384063095915, 42.065047857163052]}, "type": "Feature", "id": 203, "properties": {"CITY": "WRENTHAM", "NAME": "WRENTHAM POLICE DEPT", "ZIP": "02093", "JURISDIC": "LOCAL", "L_DATE": "2006-09-12", "SOURCE": "MEMA", "STATE": "MA", "OBJECTID": 204.0, "ADDRESS": "121 SOUTH STREET", "L_SRC": "MEMA"}},{"geometry": {"type": "Point", "coordinates": [-70.572091183167529, 41.676811472709836]}, "type": "Feature", "id": 204, "properties": {"CITY": "BOURNE", "NAME": "BARNSTABLE COUNTY SHERIFF", "ZIP": "02532", "JURISDIC": "COUNTY", "L_DATE": "2007-02-13", "SOURCE": "MASSGIS", "STATE": "MA", "OBJECTID": 205.0, "ADDRESS": "6000 SHERIFF'S PLACE", "L_SRC": "MASSGIS"}},{"geometry": {"type": "Point", "coordinates": [-71.172537990062608, 42.246870053500786]}, "type": "Feature", "id": 205, "properties": {"CITY": "DEDHAM", "NAME": "DEPUTY SHERIFF NORFOLK COUNTY", "ZIP": "02026", "JURISDIC": "COUNTY", "L_DATE": "2006-09-12", "SOURCE": "MEMA", "STATE": "MA", "OBJECTID": 206.0, "ADDRESS": "15 BRYANT STREET", "L_SRC": "MEMA"}},{"geometry": {"type": "Point", "coordinates": [-71.08929587989563, 41.900981703469228]}, "type": "Feature", "id": 206, "properties": {"CITY": "TAUNTON", "NAME": "TAUTON POLICE DEPT HEADQUARTERS", "ZIP": "02780", "JURISDIC": "LOCAL", "L_DATE": "2006-09-12", "SOURCE": "MEMA", "STATE": "MA", "OBJECTID": 207.0, "ADDRESS": "23 SUMMER ST", "L_SRC": "MEMA"}},{"geometry": {"type": "Point", "coordinates": [-71.088836015696813, 41.887342945748649]}, "type": "Feature", "id": 207, "properties": {"CITY": "TAUNTON", "NAME": "TAUTON POLICE DEPT", "ZIP": "02780", "JURISDIC": "LOCAL", "L_DATE": "2006-09-12", "SOURCE": "MEMA", "STATE": "MA", "OBJECTID": 208.0, "ADDRESS": "518 WEIR ST", "L_SRC": "MEMA"}},{"geometry": {"type": "Point", "coordinates": [-71.096279105215629, 41.920436727022881]}, "type": "Feature", "id": 208, "properties": {"CITY": "TAUNTON", "NAME": "TAUTON POLICE DEPT", "ZIP": "02780", "JURISDIC": "LOCAL", "L_DATE": "2006-09-12", "SOURCE": "MEMA", "STATE": "MA", "OBJECTID": 209.0, "ADDRESS": "329 BAY ST", "L_SRC": "SRPED"}},{"geometry": {"type": "Point", "coordinates": [-70.155004115224557, 41.703886863958303]}, "type": "Feature", "id": 209, "properties": {"CITY": "DENNIS", "NAME": "DENNIS POLICE DEPT", "ZIP": "02660", "JURISDIC": "LOCAL", "L_DATE": "2006-09-12", "SOURCE": "MEMA", "STATE": "MA", "OBJECTID": 210.0, "ADDRESS": "685 ROUTE 134", "L_SRC": "CAPECODCOM"}},{"geometry": {"type": "Point", "coordinates": [-72.04613984059587, 42.225315979015676]}, "type": "Feature", "id": 210, "properties": {"CITY": "EAST BROOKFIELD", "NAME": "EAST BROOKFIELD POLICE DEPT", "ZIP": "01515", "JURISDIC": "LOCAL", "L_DATE": "2006-09-12", "SOURCE": "MEMA", "STATE": "MA", "OBJECTID": 211.0, "ADDRESS": "101 DEPOT SQ", "L_SRC": "MEMA"}},{"geometry": {"type": "Point", "coordinates": [-70.519750236102666, 41.387485806095555]}, "type": "Feature", "id": 211, "properties": {"CITY": "EDGARTOWN", "NAME": "EDGARTOWN POLICE DEPT", "ZIP": "02539", "JURISDIC": "LOCAL", "L_DATE": "2006-09-12", "SOURCE": "MEMA", "STATE": "MA", "OBJECTID": 212.0, "ADDRESS": "72 PEASES POINT WAY", "L_SRC": "MEMA"}},{"geometry": {"type": "Point", "coordinates": [-70.736313874472515, 41.99367544457656]}, "type": "Feature", "id": 212, "properties": {"CITY": "KINGSTON", "NAME": "KINGSTON POLICE DEPT", "ZIP": "02346", "JURISDIC": "LOCAL", "L_DATE": "2006-09-12", "SOURCE": "MEMA", "STATE": "MA", "OBJECTID": 213.0, "ADDRESS": "244 MAIN ST", "L_SRC": "OCPC"}},{"geometry": {"type": "Point", "coordinates": [-72.554976747122069, 42.609585155008489]}, "type": "Feature", "id": 213, "properties": {"CITY": "MONTAGUE", "NAME": "MONTAGUE POLICE DEPT", "ZIP": "01376", "JURISDIC": "LOCAL", "L_DATE": "2006-09-12", "SOURCE": "MEMA", "STATE": "MA", "OBJECTID": 214.0, "ADDRESS": "1 AVENUE A", "L_SRC": "FRCOG"}},{"geometry": {"type": "Point", "coordinates": [-71.016409724966621, 42.366597297773573]}, "type": "Feature", "id": 214, "properties": {"CITY": "BOSTON", "NAME": "SP LOGAN", "ZIP": "02128", "JURISDIC": "STATE", "L_DATE": "2006-09-12", "SOURCE": "MEMA", "STATE": "MA", "OBJECTID": 215.0, "ADDRESS": "400 TERMINAL \"D\" LOGA", "L_SRC": "MEMA"}},{"geometry": {"type": "Point", "coordinates": [-71.762714292116684, 42.149575887694539]}, "type": "Feature", "id": 215, "properties": {"CITY": "SUTTON", "NAME": "SUTTON POLICE DEPT", "ZIP": "01590", "JURISDIC": "LOCAL", "L_DATE": "2006-09-12", "SOURCE": "MEMA", "STATE": "MA", "OBJECTID": 216.0, "ADDRESS": "4 UXBRIDGE RD", "L_SRC": "MEMA"}},{"geometry": {"type": "Point", "coordinates": [-72.066337167346333, 42.553246802989079]}, "type": "Feature", "id": 216, "properties": {"CITY": "TEMPLETON", "NAME": "TEMPLETON POLICE DEPT", "ZIP": "01468", "JURISDIC": "LOCAL", "L_DATE": "2006-09-12", "SOURCE": "MEMA", "STATE": "MA", "OBJECTID": 217.0, "ADDRESS": "33 SOUTH RD", "L_SRC": "MEMA"}},{"geometry": {"type": "Point", "coordinates": [-70.074896651497994, 42.021860507793392]}, "type": "Feature", "id": 217, "properties": {"CITY": "TRURO", "NAME": "TRURO TOWN POLICE DEPT", "ZIP": "02666", "JURISDIC": "LOCAL", "L_DATE": "2006-09-12", "SOURCE": "MEMA", "STATE": "MA", "OBJECTID": 218.0, "ADDRESS": "344 US RT 6", "L_SRC": "MEMA"}},{"geometry": {"type": "Point", "coordinates": [-71.420440749270981, 42.669708741875851]}, "type": "Feature", "id": 218, "properties": {"CITY": "TYNGSBOROUGH", "NAME": "TYNGSBORO POLICE DEPT", "ZIP": "01879", "JURISDIC": "LOCAL", "L_DATE": "2006-09-12", "SOURCE": "MEMA", "STATE": "MA", "OBJECTID": 219.0, "ADDRESS": "20 WESTFORD ROAD", "L_SRC": "MAPC"}},{"geometry": {"type": "Point", "coordinates": [-71.862605022231321, 42.054819369205958]}, "type": "Feature", "id": 219, "properties": {"CITY": "WEBSTER", "NAME": "WEBSTER POLICE DEPT", "ZIP": "01570", "JURISDIC": "LOCAL", "L_DATE": "2006-09-12", "SOURCE": "MEMA", "STATE": "MA", "OBJECTID": 220.0, "ADDRESS": "57 THOMPSON ROAD", "L_SRC": "MEMA"}},{"geometry": {"type": "Point", "coordinates": [-70.024594629481882, 41.942872872537606]}, "type": "Feature", "id": 220, "properties": {"CITY": "WELLFLEET", "NAME": "WELLFLEET POLICE DEPT", "ZIP": "02667", "JURISDIC": "LOCAL", "L_DATE": "2006-09-12", "SOURCE": "MEMA", "STATE": "MA", "OBJECTID": 221.0, "ADDRESS": "36 GROSS HILL ROAD", "L_SRC": "CAPECODCOM"}},{"geometry": {"type": "Point", "coordinates": [-71.013708420600693, 42.018575786693759]}, "type": "Feature", "id": 221, "properties": {"CITY": "WEST BRIDGEWATER", "NAME": "WEST BRIDGEWATER POLICE DEPT", "ZIP": "02379", "JURISDIC": "LOCAL", "L_DATE": "2006-09-12", "SOURCE": "MEMA", "STATE": "MA", "OBJECTID": 222.0, "ADDRESS": "99 WEST CENTER ST", "L_SRC": "MEMA"}},{"geometry": {"type": "Point", "coordinates": [-70.675075855012679, 41.380741551167667]}, "type": "Feature", "id": 222, "properties": {"CITY": "WEST TISBURY", "NAME": "WEST TISBURY POLICE DEPT", "ZIP": "02575", "JURISDIC": "LOCAL", "L_DATE": "2006-09-12", "SOURCE": "MEMA", "STATE": "MA", "OBJECTID": 223.0, "ADDRESS": "2 MUSIC STREET", "L_SRC": "MVC"}},{"geometry": {"type": "Point", "coordinates": [-71.614782685201646, 42.26804886137549]}, "type": "Feature", "id": 223, "properties": {"CITY": "WESTBOROUGH", "NAME": "WESTBOROUGH POLICE DEPT", "ZIP": "01581", "JURISDIC": "LOCAL", "L_DATE": "2006-09-12", "SOURCE": "MEMA", "STATE": "MA", "OBJECTID": 224.0, "ADDRESS": "51 WEST MAIN ST", "L_SRC": "MEMA"}},{"geometry": {"type": "Point", "coordinates": [-71.089554820248651, 41.578906156983273]}, "type": "Feature", "id": 224, "properties": {"CITY": "WESTPORT", "NAME": "WESTPORT POLICE DEPT", "ZIP": "02790", "JURISDIC": "LOCAL", "L_DATE": "2006-09-12", "SOURCE": "MEMA", "STATE": "MA", "OBJECTID": 225.0, "ADDRESS": "818 MAIN RD", "L_SRC": "MEMA"}},{"geometry": {"type": "Point", "coordinates": [-71.221003957961173, 42.228046905173983]}, "type": "Feature", "id": 225, "properties": {"CITY": "WESTWOOD", "NAME": "WESTWOOD POLICE DEPT", "ZIP": "02090", "JURISDIC": "LOCAL", "L_DATE": "2006-09-12", "SOURCE": "MEMA", "STATE": "MA", "OBJECTID": 226.0, "ADDRESS": "590 HIGH ST", "L_SRC": "MEMA"}},{"geometry": {"type": "Point", "coordinates": [-72.635017025226361, 42.443617309984965]}, "type": "Feature", "id": 226, "properties": {"CITY": "WHATELY", "NAME": "WHATELY TOWN POLICE DEPT", "ZIP": "01093", "JURISDIC": "LOCAL", "L_DATE": "2006-09-12", "SOURCE": "MEMA", "STATE": "MA", "OBJECTID": 227.0, "ADDRESS": "140 WINTER ST", "L_SRC": "FRCOG"}},{"geometry": {"type": "Point", "coordinates": [-70.935824706190871, 42.081339151348203]}, "type": "Feature", "id": 227, "properties": {"CITY": "WHITMAN", "NAME": "WHITMAN POLICE DEPT", "ZIP": "02382", "JURISDIC": "LOCAL", "L_DATE": "2006-09-12", "SOURCE": "MEMA", "STATE": "MA", "OBJECTID": 228.0, "ADDRESS": "39 WHITMAN AVE", "L_SRC": "OCPC"}},{"geometry": {"type": "Point", "coordinates": [-72.046724695382622, 42.685496108221145]}, "type": "Feature", "id": 228, "properties": {"CITY": "WINCHENDON", "NAME": "WINCHENDON POLICE DEPT", "ZIP": "01475", "JURISDIC": "LOCAL", "L_DATE": "2006-09-12", "SOURCE": "MEMA", "STATE": "MA", "OBJECTID": 229.0, "ADDRESS": "15 PLEASANT ST", "L_SRC": "MEMA"}},{"geometry": {"type": "Point", "coordinates": [-71.135885467641288, 42.453111329794083]}, "type": "Feature", "id": 229, "properties": {"CITY": "WINCHESTER", "NAME": "WINCHESTER POLICE DEPT", "ZIP": "01890", "JURISDIC": "LOCAL", "L_DATE": "2006-09-12", "SOURCE": "MEMA", "STATE": "MA", "OBJECTID": 230.0, "ADDRESS": "15 PLEASANT ST", "L_SRC": "MEMA"}},{"geometry": {"type": "Point", "coordinates": [-73.057528320335464, 42.511045895172039]}, "type": "Feature", "id": 230, "properties": {"CITY": "WINDSOR", "NAME": "WINDSOR POLICE DEPT", "ZIP": "01270", "JURISDIC": "LOCAL", "L_DATE": "2006-09-12", "SOURCE": "MEMA", "STATE": "MA", "OBJECTID": 231.0, "ADDRESS": "1890 RT-9", "L_SRC": "BRPC"}},{"geometry": {"type": "Point", "coordinates": [-70.244160151773727, 41.669143502639152]}, "type": "Feature", "id": 231, "properties": {"CITY": "YARMOUTH", "NAME": "YARMOUTH POLICE DEPT", "ZIP": "02673", "JURISDIC": "LOCAL", "L_DATE": "2006-09-12", "SOURCE": "MEMA", "STATE": "MA", "OBJECTID": 232.0, "ADDRESS": "340 HIGGINS CROWELL", "L_SRC": "CAPECODCOM"}},{"geometry": {"type": "Point", "coordinates": [-70.995443090443501, 41.664507853740901]}, "type": "Feature", "id": 232, "properties": {"CITY": "DARTMOUTH", "NAME": "BRISTOL COUNTY SHERIFF", "ZIP": "02747", "JURISDIC": "COUNTY", "L_DATE": "2007-02-13", "SOURCE": "MASSGIS", "STATE": "MA", "OBJECTID": 233.0, "ADDRESS": "400 FAUNCE CORNER ROAD", "L_SRC": "MASSGIS"}},{"geometry": {"type": "Point", "coordinates": [-71.067664710987273, 42.334358372133359]}, "type": "Feature", "id": 233, "properties": {"CITY": "BOSTON", "NAME": "SUFFOLK COUNTY SHERIFF", "ZIP": "02118", "JURISDIC": "COUNTY", "L_DATE": "2007-02-13", "SOURCE": "MEMA", "STATE": "MA", "OBJECTID": 234.0, "ADDRESS": "20 BRADSTON STREET", "L_SRC": "MASSGIS"}},{"geometry": {"type": "Point", "coordinates": [-71.768212307199732, 42.324163544258909]}, "type": "Feature", "id": 234, "properties": {"CITY": "WEST BOYLSTON", "NAME": "WORCESTER COUNTY SHERIFF", "ZIP": "01583", "JURISDIC": "COUNTY", "L_DATE": "2006-09-12", "SOURCE": "MEMA", "STATE": "MA", "OBJECTID": 235.0, "ADDRESS": "5 PAUL X. TIVNAN DR", "L_SRC": "MASSGIS"}},{"geometry": {"type": "Point", "coordinates": [-70.19719724205558, 41.664428459056978]}, "type": "Feature", "id": 235, "properties": {"CITY": "YARMOUTH", "NAME": "SP SOUTH YARMOUTH D2", "ZIP": "02673", "JURISDIC": "STATE", "L_DATE": "2006-09-12", "SOURCE": "MEMA", "STATE": "MA", "OBJECTID": 236.0, "ADDRESS": "1146 STATE ROAD", "L_SRC": "CAPECODCOM"}},{"geometry": {"type": "Point", "coordinates": [-71.288180946360214, 42.300520209107901]}, "type": "Feature", "id": 236, "properties": {"CITY": "WELLESLEY", "NAME": "WELLESLEY POLICE STATION", "ZIP": "02482", "JURISDIC": "LOCAL", "L_DATE": "2006-09-12", "SOURCE": "MEMA", "STATE": "MA", "OBJECTID": 237.0, "ADDRESS": "485 WASHINGTON STREET", "L_SRC": "MEMA"}},{"geometry": {"type": "Point", "coordinates": [-70.921088504250505, 41.616288015552222]}, "type": "Feature", "id": 237, "properties": {"CITY": "NEW BEDFORD", "NAME": "NEW BEDFORD POLICE FACILITY", "ZIP": "02740", "JURISDIC": "LOCAL", "L_DATE": "2006-09-12", "SOURCE": "MEMA", "STATE": "MA", "OBJECTID": 238.0, "ADDRESS": "168 COVE STREET", "L_SRC": "SRPED"}},{"geometry": {"type": "Point", "coordinates": [-70.934128667182122, 41.681353966633715]}, "type": "Feature", "id": 238, "properties": {"CITY": "NEW BEDFORD", "NAME": "NEW BEDFORD POLICE FACILITY", "ZIP": "02740", "JURISDIC": "LOCAL", "L_DATE": "2006-09-12", "SOURCE": "MEMA", "STATE": "MA", "OBJECTID": 239.0, "ADDRESS": "781 ASHLEY BLVD", "L_SRC": "SRPED"}},{"geometry": {"type": "Point", "coordinates": [-72.670713381023887, 42.265622034628265]}, "type": "Feature", "id": 239, "properties": {"CITY": "EASTHAMPTON", "NAME": "EASTHAMPTON POLICE DEPT", "ZIP": "01027", "JURISDIC": "LOCAL", "L_DATE": "2006-09-12", "SOURCE": "MEMA", "STATE": "MA", "OBJECTID": 240.0, "ADDRESS": "32 PAYSON AVE", "L_SRC": "BRPC"}},{"geometry": {"type": "Point", "coordinates": [-72.799877043657105, 42.441482428746767]}, "type": "Feature", "id": 240, "properties": {"CITY": "GOSHEN", "NAME": "GOSHEN POLICE DEPT", "ZIP": "01032", "JURISDIC": "LOCAL", "L_DATE": "2006-09-12", "SOURCE": "MEMA", "STATE": "MA", "OBJECTID": 241.0, "ADDRESS": "555 EAST ST", "L_SRC": "BRPC"}},{"geometry": {"type": "Point", "coordinates": [-72.583045643637476, 42.352444465474903]}, "type": "Feature", "id": 241, "properties": {"CITY": "HADLEY", "NAME": "HADLEY POLICE DEPT", "ZIP": "01035", "JURISDIC": "LOCAL", "L_DATE": "2006-09-12", "SOURCE": "MEMA", "STATE": "MA", "OBJECTID": 242.0, "ADDRESS": "15 EAST ST", "L_SRC": "BRPC"}},{"geometry": {"type": "Point", "coordinates": [-72.596923937704787, 42.372585873024576]}, "type": "Feature", "id": 242, "properties": {"CITY": "HATFIELD", "NAME": "HATFIELD POLICE DEPT", "ZIP": "01038", "JURISDIC": "LOCAL", "L_DATE": "2006-09-12", "SOURCE": "MEMA", "STATE": "MA", "OBJECTID": 243.0, "ADDRESS": "59 MAIN ST", "L_SRC": "BRPC"}},{"geometry": {"type": "Point", "coordinates": [-72.608397836005636, 42.20388617419426]}, "type": "Feature", "id": 243, "properties": {"CITY": "HOLYOKE", "NAME": "HOLYOKE CITY POLICE DEPT", "ZIP": "01040", "JURISDIC": "LOCAL", "L_DATE": "2006-09-12", "SOURCE": "MEMA", "STATE": "MA", "OBJECTID": 244.0, "ADDRESS": "138 APPLETON ST", "L_SRC": "BRPC"}},{"geometry": {"type": "Point", "coordinates": [-72.87960965665394, 42.234272840423387]}, "type": "Feature", "id": 244, "properties": {"CITY": "HUNTINGTON", "NAME": "HUNTINGTON POLICE DEPT", "ZIP": "01050", "JURISDIC": "LOCAL", "L_DATE": "2006-09-12", "SOURCE": "MEMA", "STATE": "MA", "OBJECTID": 245.0, "ADDRESS": "24 RUSSELL RD", "L_SRC": "BRPC"}},{"geometry": {"type": "Point", "coordinates": [-72.472082229041732, 42.175430047779948]}, "type": "Feature", "id": 245, "properties": {"CITY": "LUDLOW", "NAME": "LUDLOW POLICE DEPT", "ZIP": "01056", "JURISDIC": "LOCAL", "L_DATE": "2006-09-12", "SOURCE": "MEMA", "STATE": "MA", "OBJECTID": 246.0, "ADDRESS": "612 CHAPIN ST", "L_SRC": "BRPC"}},{"geometry": {"type": "Point", "coordinates": [-73.009532839620348, 42.34460449416332]}, "type": "Feature", "id": 246, "properties": {"CITY": "MIDDLEFIELD", "NAME": "MIDDLEFIELD POLICE DEPT", "ZIP": "01243", "JURISDIC": "LOCAL", "L_DATE": "2006-09-12", "SOURCE": "MEMA", "STATE": "MA", "OBJECTID": 247.0, "ADDRESS": "188 SKYLINE TRAIL", "L_SRC": "BRPC"}},{"geometry": {"type": "Point", "coordinates": [-72.6320630418181, 42.319464933467479]}, "type": "Feature", "id": 247, "properties": {"CITY": "NORTHAMPTON", "NAME": "NORTHAMPTON POLICE DEPT", "ZIP": "01060", "JURISDIC": "LOCAL", "L_DATE": "2006-09-12", "SOURCE": "MEMA", "STATE": "MA", "OBJECTID": 248.0, "ADDRESS": "29 CENTER ST", "L_SRC": "BRPC"}},{"geometry": {"type": "Point", "coordinates": [-72.468988442383591, 42.378278991828189]}, "type": "Feature", "id": 248, "properties": {"CITY": "PELHAM", "NAME": "PELHAM POLICE DEPT", "ZIP": "01002", "JURISDIC": "LOCAL", "L_DATE": "2006-09-12", "SOURCE": "MEMA", "STATE": "MA", "OBJECTID": 249.0, "ADDRESS": "2 S VALLEY RD", "L_SRC": "BRPC"}},{"geometry": {"type": "Point", "coordinates": [-72.912773257625275, 42.516151754082891]}, "type": "Feature", "id": 249, "properties": {"CITY": "PLAINFIELD", "NAME": "PLAINFIELD POLICE DEPT-MAIN", "ZIP": "01070", "JURISDIC": "LOCAL", "L_DATE": "2006-09-12", "SOURCE": "MEMA", "STATE": "MA", "OBJECTID": 250.0, "ADDRESS": "315 MAIN ST", "L_SRC": "BRPC"}},{"geometry": {"type": "Point", "coordinates": [-72.593789976142631, 42.215591579797334]}, "type": "Feature", "id": 250, "properties": {"CITY": "SOUTH HADLEY", "NAME": "SOUTH HADLEY POLICE DEPT", "ZIP": "01075", "JURISDIC": "LOCAL", "L_DATE": "2006-09-12", "SOURCE": "MEMA", "STATE": "MA", "OBJECTID": 251.0, "ADDRESS": "41 BRIDGE ST", "L_SRC": "BRPC"}},{"geometry": {"type": "Point", "coordinates": [-72.728889602838052, 42.228824323766773]}, "type": "Feature", "id": 251, "properties": {"CITY": "SOUTHAMPTON", "NAME": "SOUTHAMPTON POLICE DEPT", "ZIP": "01073", "JURISDIC": "LOCAL", "L_DATE": "2006-09-12", "SOURCE": "MEMA", "STATE": "MA", "OBJECTID": 252.0, "ADDRESS": "8 EAST ST", "L_SRC": "BRPC"}},{"geometry": {"type": "Point", "coordinates": [-72.348053623031007, 42.279986345261662]}, "type": "Feature", "id": 252, "properties": {"CITY": "BELCHERTOWN", "NAME": "SP BELCHERTOWN", "ZIP": "01007", "JURISDIC": "STATE", "L_DATE": "2006-09-12", "SOURCE": "MEMA", "STATE": "MA", "OBJECTID": 253.0, "ADDRESS": "485 WARE RD", "L_SRC": "BRPC"}},{"geometry": {"type": "Point", "coordinates": [-72.858100511745178, 42.187262230506505]}, "type": "Feature", "id": 253, "properties": {"CITY": "RUSSELL", "NAME": "SP RUSSELL", "ZIP": "01071", "JURISDIC": "STATE", "L_DATE": "2006-09-12", "SOURCE": "MEMA", "STATE": "MA", "OBJECTID": 255.0, "ADDRESS": "RUSSELL RD", "L_SRC": "BRPC"}},{"geometry": {"type": "Point", "coordinates": [-72.724522062500597, 42.143893253239249]}, "type": "Feature", "id": 254, "properties": {"CITY": "WESTFIELD", "NAME": "SP WESTFIELD", "ZIP": "01085", "JURISDIC": "STATE", "L_DATE": "2006-09-12", "SOURCE": "MEMA", "STATE": "MA", "OBJECTID": 256.0, "ADDRESS": "SGT. THOMAS DION WAY", "L_SRC": "BRPC"}},{"geometry": {"type": "Point", "coordinates": [-72.585783792224476, 42.108355893883626]}, "type": "Feature", "id": 255, "properties": {"CITY": "SPRINGFIELD", "NAME": "SPRINGFIELD POLICE DEPT", "ZIP": "01105", "JURISDIC": "LOCAL", "L_DATE": "2006-09-12", "SOURCE": "MEMA", "STATE": "MA", "OBJECTID": 257.0, "ADDRESS": "130 PEARL ST", "L_SRC": "BRPC"}},{"geometry": {"type": "Point", "coordinates": [-72.623646927701841, 42.105835612322132]}, "type": "Feature", "id": 256, "properties": {"CITY": "WEST SPRINGFIELD", "NAME": "WEST SPRINGFIELD POLICE DEPT", "ZIP": "01089", "JURISDIC": "LOCAL", "L_DATE": "2006-09-12", "SOURCE": "MEMA", "STATE": "MA", "OBJECTID": 258.0, "ADDRESS": "26 CENTRAL ST", "L_SRC": "BRPC"}},{"geometry": {"type": "Point", "coordinates": [-72.751840667758287, 42.121583975705192]}, "type": "Feature", "id": 257, "properties": {"CITY": "WESTFIELD", "NAME": "WESTFIELD POLICE DEPT", "ZIP": "01085", "JURISDIC": "LOCAL", "L_DATE": "2006-09-12", "SOURCE": "MEMA", "STATE": "MA", "OBJECTID": 259.0, "ADDRESS": "15 WASHINGTON ST", "L_SRC": "BRPC"}},{"geometry": {"type": "Point", "coordinates": [-72.510572380543991, 42.204608497319136]}, "type": "Feature", "id": 258, "properties": {"CITY": "LUDLOW", "NAME": "HAMPDEN COUNTY SHERIFF", "ZIP": "01056", "JURISDIC": "COUNTY", "L_DATE": "2006-09-12", "SOURCE": "MEMA", "STATE": "MA", "OBJECTID": 260.0, "ADDRESS": "627 RANDALL RD", "L_SRC": "BRPC"}},{"geometry": {"type": "Point", "coordinates": [-72.891561903809801, 42.459068582847799]}, "type": "Feature", "id": 259, "properties": {"CITY": "CUMMINGTON", "NAME": "CUMMINGTON POLICE DEPT ADM", "ZIP": "01026", "JURISDIC": "LOCAL", "L_DATE": "2006-09-12", "SOURCE": "MEMA", "STATE": "MA", "OBJECTID": 262.0, "ADDRESS": "18 MAIN ST", "L_SRC": "BRPC"}},{"geometry": {"type": "Point", "coordinates": [-72.425944296753926, 42.150686118171208]}, "type": "Feature", "id": 260, "properties": {"CITY": "WILBRAHAM", "NAME": "WILBRAHAM POLICE DEPT", "ZIP": "01095", "JURISDIC": "LOCAL", "L_DATE": "2006-09-12", "SOURCE": "MEMA", "STATE": "MA", "OBJECTID": 263.0, "ADDRESS": "16 MAIN ST", "L_SRC": "BRPC"}},{"geometry": {"type": "Point", "coordinates": [-72.938211634030765, 42.40672963466637]}, "type": "Feature", "id": 261, "properties": {"CITY": "WORTHINGTON", "NAME": "WORTHINGTON POLICE DEPT", "ZIP": "01098", "JURISDIC": "LOCAL", "L_DATE": "2006-09-12", "SOURCE": "MEMA", "STATE": "MA", "OBJECTID": 264.0, "ADDRESS": "9 LINCOLN SQ", "L_SRC": "BRPC"}},{"geometry": {"type": "Point", "coordinates": [-73.058349916247323, 42.276793622111661]}, "type": "Feature", "id": 262, "properties": {"CITY": "BECKET", "NAME": "BECKET POLICE DEPT", "ZIP": "01223", "JURISDIC": "LOCAL", "L_DATE": "2006-09-12", "SOURCE": "MEMA", "STATE": "MA", "OBJECTID": 265.0, "ADDRESS": "557 MAIN ST", "L_SRC": "BRPC"}},{"geometry": {"type": "Point", "coordinates": [-73.428117825054684, 42.190870795110648]}, "type": "Feature", "id": 263, "properties": {"CITY": "EGREMONT", "NAME": "EGREMONT POLICE DEPT", "ZIP": "01230", "JURISDIC": "LOCAL", "L_DATE": "2006-09-12", "SOURCE": "MEMA", "STATE": "MA", "OBJECTID": 266.0, "ADDRESS": "171 ROUTE  71", "L_SRC": "BRPC"}},{"geometry": {"type": "Point", "coordinates": [-73.122791318511631, 42.437643819363018]}, "type": "Feature", "id": 264, "properties": {"CITY": "HINSDALE", "NAME": "HINSDALE POLICE DEPT", "ZIP": "01235", "JURISDIC": "LOCAL", "L_DATE": "2006-09-12", "SOURCE": "MEMA", "STATE": "MA", "OBJECTID": 268.0, "ADDRESS": "39 SOUTH ST", "L_SRC": "BRPC"}},{"geometry": {"type": "Point", "coordinates": [-73.227552635749404, 42.519321353304278]}, "type": "Feature", "id": 265, "properties": {"CITY": "LANESBOROUGH", "NAME": "LANESBOROUGH POLICE DEPT", "ZIP": "01237", "JURISDIC": "LOCAL", "L_DATE": "2006-09-12", "SOURCE": "MEMA", "STATE": "MA", "OBJECTID": 269.0, "ADDRESS": "3 PROSPECT ST", "L_SRC": "BRPC"}},{"geometry": {"type": "Point", "coordinates": [-73.248864329030127, 42.305110723430417]}, "type": "Feature", "id": 266, "properties": {"CITY": "LEE", "NAME": "LEE POLICE DEPT", "ZIP": "01238", "JURISDIC": "LOCAL", "L_DATE": "2006-09-12", "SOURCE": "MEMA", "STATE": "MA", "OBJECTID": 270.0, "ADDRESS": "32 MAIN ST", "L_SRC": "BRPC"}},{"geometry": {"type": "Point", "coordinates": [-73.213762313963201, 42.179690581211432]}, "type": "Feature", "id": 267, "properties": {"CITY": "MONTEREY", "NAME": "MONTEREY POLICE DEPT", "ZIP": "01245", "JURISDIC": "LOCAL", "L_DATE": "2006-09-12", "SOURCE": "MEMA", "STATE": "MA", "OBJECTID": 271.0, "ADDRESS": "435 MAIN RD.", "L_SRC": "BRPC"}},{"geometry": {"type": "Point", "coordinates": [-73.233294010593752, 42.099045214970076]}, "type": "Feature", "id": 268, "properties": {"CITY": "NEW MARLBOROUGH", "NAME": "NEW MARLBOROUGH POLICE DEPT", "ZIP": "01230", "JURISDIC": "LOCAL", "L_DATE": "2006-09-12", "SOURCE": "MEMA", "STATE": "MA", "OBJECTID": 272.0, "ADDRESS": "21 NORFOLK RD", "L_SRC": "MEMA"}},{"geometry": {"type": "Point", "coordinates": [-73.11292781907602, 42.698021164342485]}, "type": "Feature", "id": 269, "properties": {"CITY": "NORTH ADAMS", "NAME": "NORTH ADAMS POLICE DEPT", "ZIP": "01247", "JURISDIC": "LOCAL", "L_DATE": "2006-09-12", "SOURCE": "MEMA", "STATE": "MA", "OBJECTID": 273.0, "ADDRESS": "11 SUMMER ST", "L_SRC": "BRPC"}},{"geometry": {"type": "Point", "coordinates": [-73.044294580797967, 42.437795704806028]}, "type": "Feature", "id": 270, "properties": {"CITY": "PERU", "NAME": "PERU POLICE DEPT", "ZIP": "01235", "JURISDIC": "LOCAL", "L_DATE": "2006-09-12", "SOURCE": "MEMA", "STATE": "MA", "OBJECTID": 275.0, "ADDRESS": "3 EAST MAIN ST", "L_SRC": "BRPC"}},{"geometry": {"type": "Point", "coordinates": [-73.096989934860844, 42.101110331933143]}, "type": "Feature", "id": 271, "properties": {"CITY": "SANDISFIELD", "NAME": "SANDISFIELD POLICE DEPT", "ZIP": "01255", "JURISDIC": "LOCAL", "L_DATE": "2006-09-12", "SOURCE": "MEMA", "STATE": "MA", "OBJECTID": 276.0, "ADDRESS": "3 SILVER BROOK RD", "L_SRC": "MEMA"}},{"geometry": {"type": "Point", "coordinates": [-73.35576630928206, 42.106782736132502]}, "type": "Feature", "id": 272, "properties": {"CITY": "SHEFFIELD", "NAME": "SHEFFIELD POLICE DEPT", "ZIP": "01257", "JURISDIC": "LOCAL", "L_DATE": "2006-09-12", "SOURCE": "MEMA", "STATE": "MA", "OBJECTID": 277.0, "ADDRESS": "10 S MAIN ST", "L_SRC": "BRPC"}},{"geometry": {"type": "Point", "coordinates": [-73.257090297527753, 42.316149352263515]}, "type": "Feature", "id": 273, "properties": {"CITY": "LEE", "NAME": "SP LEE", "ZIP": "01238", "JURISDIC": "STATE", "L_DATE": "2006-09-12", "SOURCE": "MEMA", "STATE": "MA", "OBJECTID": 278.0, "ADDRESS": "215 LAUREL STREET", "L_SRC": "BRPC"}},{"geometry": {"type": "Point", "coordinates": [-73.319337232625401, 42.283157013579036]}, "type": "Feature", "id": 274, "properties": {"CITY": "STOCKBRIDGE", "NAME": "STOCKBRIDGE POLICE DEPT", "ZIP": "01262", "JURISDIC": "LOCAL", "L_DATE": "2006-09-12", "SOURCE": "MEMA", "STATE": "MA", "OBJECTID": 279.0, "ADDRESS": "6 MAIN ST", "L_SRC": "BRPC"}},{"geometry": {"type": "Point", "coordinates": [-73.30054720638158, 42.575000545609313]}, "type": "Feature", "id": 275, "properties": {"CITY": "HANCOCK", "NAME": "HANCOCK POLICE", "ZIP": "01237", "JURISDIC": "LOCAL", "L_DATE": "2006-09-12", "SOURCE": "MEMA", "STATE": "MA", "OBJECTID": 281.0, "ADDRESS": "3650 HANCOCK RD", "L_SRC": "BRPC"}},{"geometry": {"type": "Point", "coordinates": [-73.209745126568379, 42.486083345938667]}, "type": "Feature", "id": 276, "properties": {"CITY": "PITTSFIELD", "NAME": "BERKSHIRE COUNTY SHERIFF", "ZIP": "01201", "JURISDIC": "COUNTY", "L_DATE": "2006-09-12", "SOURCE": "MEMA", "STATE": "MA", "OBJECTID": 282.0, "ADDRESS": "467 CHESHIRE ROAD", "L_SRC": "BRPC"}},{"geometry": {"type": "Point", "coordinates": [-73.11591204813746, 42.373095614512557]}, "type": "Feature", "id": 277, "properties": {"CITY": "WASHINGTON", "NAME": "WASHINGTON POLICE DEPT", "ZIP": "01223", "JURISDIC": "LOCAL", "L_DATE": "2006-09-12", "SOURCE": "MEMA", "STATE": "MA", "OBJECTID": 283.0, "ADDRESS": "71 N WASHINGTON STATE ROAD", "L_SRC": "BRPC"}},{"geometry": {"type": "Point", "coordinates": [-73.453249544713415, 42.099731984897154]}, "type": "Feature", "id": 278, "properties": {"CITY": "MOUNT WASHINGTON", "NAME": "MOUNT WASHINGTON POLICE DEPARTMENT", "ZIP": "01258", "JURISDIC": "LOCAL", "L_DATE": "2006-09-12", "SOURCE": "MEMA", "STATE": "MA", "OBJECTID": 284.0, "ADDRESS": "118 EAST ST", "L_SRC": "BRPC"}},{"geometry": {"type": "Point", "coordinates": [-72.563250874332681, 42.655867988104909]}, "type": "Feature", "id": 279, "properties": {"CITY": "BERNARDSTON", "NAME": "BERNARDSTON POLICE DEPT", "ZIP": "01337", "JURISDIC": "LOCAL", "L_DATE": "2006-09-12", "SOURCE": "MEMA", "STATE": "MA", "OBJECTID": 285.0, "ADDRESS": "BARTON RD", "L_SRC": "BRPC"}},{"geometry": {"type": "Point", "coordinates": [-72.871504256420067, 42.626854927447745]}, "type": "Feature", "id": 280, "properties": {"CITY": "CHARLEMONT", "NAME": "CHARLEMONT POLICE DEPT", "ZIP": "01339", "JURISDIC": "LOCAL", "L_DATE": "2006-09-12", "SOURCE": "MEMA", "STATE": "MA", "OBJECTID": 286.0, "ADDRESS": "5 FACTORY RD", "L_SRC": "MEMA"}},{"geometry": {"type": "Point", "coordinates": [-72.518429081884648, 42.628555862284124]}, "type": "Feature", "id": 281, "properties": {"CITY": "GILL", "NAME": "GILL POLICE DEPT- SHELBURNE FALLS", "ZIP": "01376", "JURISDIC": "LOCAL", "L_DATE": "2006-09-12", "SOURCE": "MEMA", "STATE": "MA", "OBJECTID": 288.0, "ADDRESS": "196 MAIN RD-B", "L_SRC": "BRPC"}},{"geometry": {"type": "Point", "coordinates": [-72.821712387941218, 42.673699481746524]}, "type": "Feature", "id": 282, "properties": {"CITY": "HEATH", "NAME": "HEATH POLICE DEPT- SHELBURNE FALLS", "ZIP": "01346", "JURISDIC": "LOCAL", "L_DATE": "2006-09-12", "SOURCE": "MEMA", "STATE": "MA", "OBJECTID": 289.0, "ADDRESS": "1 EAST MAIN ST", "L_SRC": "BRPC"}},{"geometry": {"type": "Point", "coordinates": [-72.631038899796081, 42.700068720074725]}, "type": "Feature", "id": 283, "properties": {"CITY": "LEYDEN", "NAME": "LEYDEN POLCIE DEPT- SHELBURNE FALLS", "ZIP": "01337", "JURISDIC": "LOCAL", "L_DATE": "2006-09-12", "SOURCE": "MEMA", "STATE": "MA", "OBJECTID": 290.0, "ADDRESS": "16 WEST LEYDEN RD", "L_SRC": "BRPC"}},{"geometry": {"type": "Point", "coordinates": [-72.898395317133023, 42.694745323796617]}, "type": "Feature", "id": 284, "properties": {"CITY": "ROWE", "NAME": "ROWE POLICE DEPT", "ZIP": "01367", "JURISDIC": "LOCAL", "L_DATE": "2006-09-12", "SOURCE": "MEMA", "STATE": "MA", "OBJECTID": 291.0, "ADDRESS": "321 ZOAR RD", "L_SRC": "MEMA"}},{"geometry": {"type": "Point", "coordinates": [-72.409523680044245, 42.451811160497073]}, "type": "Feature", "id": 285, "properties": {"CITY": "SHUTESBURY", "NAME": "SHUTESBURY POLICE DEPT", "ZIP": "01072", "JURISDIC": "LOCAL", "L_DATE": "2006-09-12", "SOURCE": "MEMA", "STATE": "MA", "OBJECTID": 292.0, "ADDRESS": "1 COOLEYVILLE RD", "L_SRC": "FRCOG"}},{"geometry": {"type": "Point", "coordinates": [-72.69674097429737, 42.508851756785191]}, "type": "Feature", "id": 286, "properties": {"CITY": "CONWAY", "NAME": "CONWAY POLICE DEPT", "ZIP": "01344", "JURISDIC": "LOCAL", "L_DATE": "2006-09-12", "SOURCE": "MEMA", "STATE": "MA", "OBJECTID": 293.0, "ADDRESS": "32 MAIN STREET", "L_SRC": "BRPC"}},{"geometry": {"type": "Point", "coordinates": [-72.640093878787766, 42.35444443130897]}, "type": "Feature", "id": 287, "properties": {"CITY": "NORTHAMPTON", "NAME": "SP NORTHAMPTON", "ZIP": "01060", "JURISDIC": "STATE", "L_DATE": "2006-09-12", "SOURCE": "MEMA", "STATE": "MA", "OBJECTID": 294.0, "ADDRESS": "555 N KING ST", "L_SRC": "BRPC"}},