{"type":"FeatureCollection","features":[{"geometry": {"type": "Point", "coordinates": [-71.533407200385625, 42.017353416215037]}, "type": "Feature", "id": 0, "properties": {"CITY": "BLACKSTONE", "NAME": "Blackstone Town Hall", "ZIP": "01504", "AREACODE": "508", "L_DATE": "2006-07-07", "TELEPHONE": "883-1500", "SOURCE": "MEMA", "ADDRESS_1": "15 Saint Paul St.", "L_SRC": "MEMA"}},{"geometry": {"type": "Point", "coordinates": [-72.925278027677948, 42.180023217014885]}, "type": "Feature", "id": 1, "properties": {"CITY": "BLANDFORD", "NAME": "Blandford Town Hall", "ZIP": "01008", "AREACODE": "413", "L_DATE": "2006-07-07", "TELEPHONE": "848-2782", "SOURCE": "MEMA", "ADDRESS_1": "102 Main St.", "ADDRESS_2": "P.O. Box 101", "L_SRC": "MEMA"}},{"geometry": {"type": "Point", "coordinates": [-71.60525393850547, 42.43348605678743]}, "type": "Feature", "id": 2, "properties": {"CITY": "BOLTON", "NAME": "Bolton Town Hall", "ZIP": "01740", "AREACODE": "978", "L_DATE": "2006-07-07", "TELEPHONE": "779-2771", "SOURCE": "MEMA", "ADDRESS_1": "663 Main St.", "ADDRESS_2": "P.O. Box 278", "L_SRC": "MEMA"}},{"geometry": {"type": "Point", "coordinates": [-70.601745125171107, 41.747895368011577]}, "type": "Feature", "id": 3, "properties": {"CITY": "BOURNE", "NAME": "Bourne Town Hall", "ZIP": "02532", "AREACODE": "508", "L_DATE": "2006-07-07", "TELEPHONE": "759-0600", "SOURCE": "MEMA", "ADDRESS_1": "24 Perry Ave.", "L_SRC": "CAPECODCO"}},{"geometry": {"type": "Point", "coordinates": [-71.513887279289435, 42.482854994242857]}, "type": "Feature", "id": 4, "properties": {"CITY": "BOXBOROUGH", "NAME": "Boxborough Town Hall", "ZIP": "01719", "AREACODE": "978", "L_DATE": "2006-07-07", "TELEPHONE": "263-1116", "SOURCE": "MEMA", "ADDRESS_1": "29 Middle Rd.", "L_SRC": "MAPC"}},{"geometry": {"type": "Point", "coordinates": [-71.014506690900504, 42.694109370668173]}, "type": "Feature", "id": 5, "properties": {"CITY": "BOXFORD", "NAME": "Boxford Town Hall", "ZIP": "01921", "AREACODE": "978", "L_DATE": "2006-07-07", "TELEPHONE": "887-0806", "SOURCE": "MEMA", "ADDRESS_1": "7A Spotford Rd", "L_SRC": "MVPC"}},{"geometry": {"type": "Point", "coordinates": [-71.753037822728416, 42.325470600057081]}, "type": "Feature", "id": 6, "properties": {"CITY": "BOYLSTON", "NAME": "Boylston Town Hall", "ZIP": "01505", "AREACODE": "508", "L_DATE": "2006-07-07", "TELEPHONE": "869-2234", "SOURCE": "MEMA", "ADDRESS_1": "221 Main St.", "L_SRC": "MEMA"}},{"geometry": {"type": "Point", "coordinates": [-71.005356977483018, 42.206072522884568]}, "type": "Feature", "id": 7, "properties": {"CITY": "BRAINTREE", "NAME": "Braintree Town Hall", "ZIP": "02184", "AREACODE": "781", "L_DATE": "2006-07-07", "TELEPHONE": "794-8244", "SOURCE": "MEMA", "ADDRESS_1": "1 JFK Memorial Dr.", "L_SRC": "MAPC"}},{"geometry": {"type": "Point", "coordinates": [-70.074438809375636, 41.761914618622605]}, "type": "Feature", "id": 8, "properties": {"CITY": "BREWSTER", "NAME": "Brewster Town Hall", "ZIP": "02631", "AREACODE": "508", "L_DATE": "2006-07-07", "TELEPHONE": "896-4506", "SOURCE": "MEMA", "ADDRESS_1": "2198 Main St.", "L_SRC": "MEMA"}},{"geometry": {"type": "Point", "coordinates": [-70.9758816010022, 41.988903269907553]}, "type": "Feature", "id": 9, "properties": {"CITY": "BRIDGEWATER", "NAME": "Bridgewater Town Hall", "ZIP": "02324", "AREACODE": "508", "L_DATE": "2006-07-07", "TELEPHONE": "697-0922", "SOURCE": "MEMA", "ADDRESS_1": "64 Central Sq.", "L_SRC": "OCPC"}},{"geometry": {"type": "Point", "coordinates": [-72.203942714755485, 42.121802697465277]}, "type": "Feature", "id": 10, "properties": {"CITY": "BRIMFIELD", "NAME": "Brimfield Town Hall", "ZIP": "01010", "AREACODE": "413", "L_DATE": "2006-07-07", "TELEPHONE": "245-4101", "SOURCE": "MEMA", "ADDRESS_1": "21 Main St.", "ADDRESS_2": "P.O. Box 508", "L_SRC": "PVPC"}},{"geometry": {"type": "Point", "coordinates": [-71.018563354753326, 42.082652753249569]}, "type": "Feature", "id": 11, "properties": {"CITY": "BROCKTON", "NAME": "Brockton City Hall", "ZIP": "02301", "AREACODE": "508", "L_DATE": "2006-07-07", "TELEPHONE": "580-7117", "SOURCE": "MEMA", "ADDRESS_1": "45 School St.", "L_SRC": "OCPC"}},{"geometry": {"type": "Point", "coordinates": [-72.101200370011441, 42.215231505476083]}, "type": "Feature", "id": 12, "properties": {"CITY": "BROOKFIELD", "NAME": "Brookfield Town Hall", "ZIP": "01506", "AREACODE": "508", "L_DATE": "2006-07-07", "TELEPHONE": "867-2930", "SOURCE": "MEMA", "ADDRESS_1": "6 Central St.", "L_SRC": "MEMA"}},{"geometry": {"type": "Point", "coordinates": [-71.120626915725495, 42.33399229803279]}, "type": "Feature", "id": 13, "properties": {"CITY": "BROOKLINE", "NAME": "Brookline Town Hall", "ZIP": "02445", "AREACODE": "617", "L_DATE": "2006-07-07", "TELEPHONE": "730-2010", "SOURCE": "MEMA", "ADDRESS_1": "333 Washington St.", "L_SRC": "MEMA"}},{"geometry": {"type": "Point", "coordinates": [-71.193896386166728, 42.506188898153773]}, "type": "Feature", "id": 14, "properties": {"CITY": "BURLINGTON", "NAME": "Burlington Town Hall", "ZIP": "01803", "AREACODE": "781", "L_DATE": "2006-07-07", "TELEPHONE": "270-1660", "SOURCE": "MEMA", "ADDRESS_1": "29 Center St.", "L_SRC": "MAPC"}},{"geometry": {"type": "Point", "coordinates": [-71.105659074764986, 42.36711229503031]}, "type": "Feature", "id": 15, "properties": {"CITY": "CAMBRIDGE", "NAME": "Cambridge City Hall", "ZIP": "02139", "AREACODE": "617", "L_DATE": "2006-07-07", "TELEPHONE": "349-4361", "SOURCE": "MEMA", "ADDRESS_1": "795 Massachusetts Ave.", "L_SRC": "MEMA"}},{"geometry": {"type": "Point", "coordinates": [-71.14425791299017, 42.159135813127094]}, "type": "Feature", "id": 16, "properties": {"CITY": "CANTON", "NAME": "Canton Town Hall", "ZIP": "02021", "AREACODE": "781", "L_DATE": "2006-07-07", "TELEPHONE": "821-5013", "SOURCE": "MEMA", "ADDRESS_1": "801 Washington St.", "L_SRC": "MEMA"}},{"geometry": {"type": "Point", "coordinates": [-71.351249647131525, 42.529396955488465]}, "type": "Feature", "id": 17, "properties": {"CITY": "CARLISLE", "NAME": "Carlisle Town Hall", "ZIP": "01741", "AREACODE": "978", "L_DATE": "2006-07-07", "TELEPHONE": "369-6155", "SOURCE": "MEMA", "ADDRESS_1": "66 Westford St.", "L_SRC": "MAPC"}},{"geometry": {"type": "Point", "coordinates": [-70.768481492580108, 41.888865726524443]}, "type": "Feature", "id": 18, "properties": {"CITY": "CARVER", "NAME": "Carver Town Hall", "ZIP": "02330", "AREACODE": "508", "L_DATE": "2006-07-07", "TELEPHONE": "866-3404", "SOURCE": "MEMA", "ADDRESS_1": "108 Main St.", "L_SRC": "SRPEDD"}},{"geometry": {"type": "Point", "coordinates": [-71.970169550777783, 42.134030127101994]}, "type": "Feature", "id": 19, "properties": {"CITY": "CHARLTON", "NAME": "Charlton Town Hall", "ZIP": "01507", "AREACODE": "508", "L_DATE": "2006-07-07", "TELEPHONE": "248-2249", "SOURCE": "MEMA", "ADDRESS_1": "37 Main St.", "L_SRC": "MEMA"}},{"geometry": {"type": "Point", "coordinates": [-69.959270412981468, 41.681135714927244]}, "type": "Feature", "id": 20, "properties": {"CITY": "CHATHAM", "NAME": "Chatham Town Hall", "ZIP": "02633", "AREACODE": "508", "L_DATE": "2006-07-07", "TELEPHONE": "945-5101", "SOURCE": "MEMA", "ADDRESS_1": "549 Main St.", "L_SRC": "MEMA"}},{"geometry": {"type": "Point", "coordinates": [-71.347170662526935, 42.598554084344052]}, "type": "Feature", "id": 21, "properties": {"CITY": "CHELMSFORD", "NAME": "Chelmsford Town Hall", "ZIP": "01824", "AREACODE": "978", "L_DATE": "2006-07-07", "TELEPHONE": "250-5205", "SOURCE": "MEMA", "ADDRESS_1": "50 Billerica Rd.", "L_SRC": "NMCOG"}},{"geometry": {"type": "Point", "coordinates": [-71.032979664206181, 42.393726976127105]}, "type": "Feature", "id": 22, "properties": {"CITY": "CHELSEA", "NAME": "Chelsea City Hall", "ZIP": "02150", "AREACODE": "617", "L_DATE": "2006-07-07", "TELEPHONE": "889-8226", "SOURCE": "MEMA", "ADDRESS_1": "500 Broadway", "L_SRC": "MEMA"}},{"geometry": {"type": "Point", "coordinates": [-73.162813296247791, 42.561926780639446]}, "type": "Feature", "id": 23, "properties": {"CITY": "CHESHIRE", "NAME": "Cheshire Town Hall", "ZIP": "01225", "AREACODE": "413", "L_DATE": "2006-07-07", "TELEPHONE": "743-1690", "SOURCE": "MEMA", "ADDRESS_1": "80 Church St.", "L_SRC": "BRPC"}},{"geometry": {"type": "Point", "coordinates": [-72.98315445978308, 42.279802705999991]}, "type": "Feature", "id": 24, "properties": {"CITY": "CHESTER", "NAME": "Chester Town Hall", "ZIP": "01011", "AREACODE": "413", "L_DATE": "2006-07-07", "TELEPHONE": "354-6603", "SOURCE": "MEMA", "ADDRESS_1": "15 Middlefield Rd.", "L_SRC": "MEMA"}},{"geometry": {"type": "Point", "coordinates": [-72.843619860459171, 42.392398717143074]}, "type": "Feature", "id": 25, "properties": {"CITY": "CHESTERFIELD", "NAME": "Chesterfield Town Hall", "ZIP": "01012", "AREACODE": "413", "L_DATE": "2006-07-07", "TELEPHONE": "296-4741", "SOURCE": "MEMA", "ADDRESS_1": "422 Main Rd.", "ADDRESS_2": "P.O. Box 33", "L_SRC": "MEMA"}},{"geometry": {"type": "Point", "coordinates": [-72.60650089525825, 42.148591324376433]}, "type": "Feature", "id": 26, "properties": {"CITY": "CHICOPEE", "NAME": "Chicopee City Hall", "ZIP": "01013", "AREACODE": "413", "L_DATE": "2006-07-07", "TELEPHONE": "594-1550", "SOURCE": "MEMA", "ADDRESS_1": "274 Front Street", "L_SRC": "MEMA"}},{"geometry": {"type": "Point", "coordinates": [-70.74397766468114, 41.343753881528706]}, "type": "Feature", "id": 27, "properties": {"CITY": "CHILMARK", "NAME": "Chilmark Town Hall", "ZIP": "02535", "AREACODE": "508", "L_DATE": "2006-07-07", "TELEPHONE": "645-2107", "SOURCE": "MEMA", "ADDRESS_1": "401 Middle Rd.", "ADDRESS_2": "P.O. Box 119", "L_SRC": "MEMA"}},{"geometry": {"type": "Point", "coordinates": [-73.084443781975878, 42.712074084740848]}, "type": "Feature", "id": 28, "properties": {"CITY": "CLARKSBURG", "NAME": "Clarksburg Town Hall", "ZIP": "01247", "AREACODE": "413", "L_DATE": "2006-07-07", "TELEPHONE": "663-8247", "SOURCE": "MEMA", "ADDRESS_1": "111 River Rd.", "L_SRC": "BRPC"}},{"geometry": {"type": "Point", "coordinates": [-71.682652398520119, 42.417312963393499]}, "type": "Feature", "id": 29, "properties": {"CITY": "CLINTON", "NAME": "Clinton Town Hall", "ZIP": "01510", "AREACODE": "978", "L_DATE": "2006-07-07", "TELEPHONE": "365-4119", "SOURCE": "MEMA", "ADDRESS_1": "242 Church St.", "L_SRC": "MRPC"}},{"geometry": {"type": "Point", "coordinates": [-70.802437766969433, 42.243141414091795]}, "type": "Feature", "id": 30, "properties": {"CITY": "COHASSET", "NAME": "Cohasset Town Hall", "ZIP": "02025", "AREACODE": "781", "L_DATE": "2006-07-07", "TELEPHONE": "383-4100", "SOURCE": "MEMA", "ADDRESS_1": "41 Highland Ave.", "L_SRC": "MAPC"}},{"geometry": {"type": "Point", "coordinates": [-72.706921319750109, 42.673823718525796]}, "type": "Feature", "id": 31, "properties": {"CITY": "COLRAIN", "NAME": "Colrain Town Hall", "ZIP": "01340", "AREACODE": "413", "L_DATE": "2006-07-07", "TELEPHONE": "624-3454", "SOURCE": "MEMA", "ADDRESS_1": "55 Main Rd.", "ADDRESS_2": "P.O. Box 31", "L_SRC": "FRCOG"}},{"geometry": {"type": "Point", "coordinates": [-71.348734379844515, 42.461127014433366]}, "type": "Feature", "id": 32, "properties": {"CITY": "CONCORD", "NAME": "Concord Town Hall", "ZIP": "01742", "AREACODE": "978", "L_DATE": "2006-07-07", "TELEPHONE": "318-3080", "SOURCE": "MEMA", "ADDRESS_1": "22 Monument Sq.", "ADDRESS_2": "P.O. Box 535", "L_SRC": "MAPC"}},{"geometry": {"type": "Point", "coordinates": [-72.696737780182474, 42.508875828859068]}, "type": "Feature", "id": 33, "properties": {"CITY": "CONWAY", "NAME": "Conway Town Hall", "ZIP": "01341", "AREACODE": "413", "L_DATE": "2006-07-07", "TELEPHONE": "369-4235", "SOURCE": "MEMA", "ADDRESS_1": "32 Main St.", "ADDRESS_2": "P.O. Box 240", "L_SRC": "FRCOG"}},{"geometry": {"type": "Point", "coordinates": [-72.893194156462968, 42.460758396960273]}, "type": "Feature", "id": 34, "properties": {"CITY": "CUMMINGTON", "NAME": "Cummington Town Hall", "ZIP": "01026", "AREACODE": "413", "L_DATE": "2006-07-07", "TELEPHONE": "634-5354", "SOURCE": "MEMA", "ADDRESS_1": "33 Main St.", "ADDRESS_2": "P.O. Box 128", "L_SRC": "MEMA"}},{"geometry": {"type": "Point", "coordinates": [-73.169525178858237, 42.472818813842714]}, "type": "Feature", "id": 35, "properties": {"CITY": "DALTON", "NAME": "Dalton Town Hall", "ZIP": "01226", "AREACODE": "413", "L_DATE": "2006-07-07", "TELEPHONE": "684-6103", "SOURCE": "MEMA", "ADDRESS_1": "462 Main St.", "L_SRC": "BRPC"}},{"geometry": {"type": "Point", "coordinates": [-70.939529261388103, 42.562610710619737]}, "type": "Feature", "id": 36, "properties": {"CITY": "DANVERS", "NAME": "Danvers Town Hall", "ZIP": "01923", "AREACODE": "978", "L_DATE": "2006-07-07", "TELEPHONE": "777-0001", "SOURCE": "MEMA", "ADDRESS_1": "One Sylvan St.", "L_SRC": "MAPC"}},{"geometry": {"type": "Point", "coordinates": [-70.965503345850848, 41.62876166024067]}, "type": "Feature", "id": 37, "properties": {"CITY": "DARTMOUTH", "NAME": "Dartmouth Town Hall", "ZIP": "02747", "AREACODE": "508", "L_DATE": "2006-07-07", "TELEPHONE": "910-1800", "SOURCE": "MEMA", "ADDRESS_1": "400 Slocum Rd.", "ADDRESS_2": "P.O. Box 79399", "L_SRC": "MEMA"}},{"geometry": {"type": "Point", "coordinates": [-71.173315251469347, 42.246436429875779]}, "type": "Feature", "id": 38, "properties": {"CITY": "DEDHAM", "NAME": "Dedham Town Hall", "ZIP": "02027", "AREACODE": "781", "L_DATE": "2006-07-07", "TELEPHONE": "326-1638", "SOURCE": "MEMA", "ADDRESS_1": "26 Bryant St.", "ADDRESS_2": "P.O. Box 306", "L_SRC": "MEMA"}},{"geometry": {"type": "Point", "coordinates": [-72.608435129849823, 42.479316023592951]}, "type": "Feature", "id": 39, "properties": {"CITY": "DEERFIELD", "NAME": "Deerfield Town Hall", "ZIP": "01373", "AREACODE": "413", "L_DATE": "2006-07-07", "TELEPHONE": "665-2130", "SOURCE": "MEMA", "ADDRESS_1": "8 Conway St.", "L_SRC": "FRCOG"}},{"geometry": {"type": "Point", "coordinates": [-70.156698291966492, 41.689636422305846]}, "type": "Feature", "id": 40, "properties": {"CITY": "DENNIS", "NAME": "Dennis Town Hall", "ZIP": "02660", "AREACODE": "508", "L_DATE": "2006-07-07", "TELEPHONE": "760-6115", "SOURCE": "MEMA", "ADDRESS_1": "485 Main St.", "ADDRESS_2": "P.O. Box 1419", "L_SRC": "CAPECODCO"}},{"geometry": {"type": "Point", "coordinates": [-71.713202029204083, 42.071707493921892]}, "type": "Feature", "id": 41, "properties": {"CITY": "DOUGLAS", "NAME": "Douglas Town Hall", "ZIP": "01516", "AREACODE": "508", "L_DATE": "2006-07-07", "TELEPHONE": "476-4000", "SOURCE": "MEMA", "ADDRESS_1": "29 Depot St.", "L_SRC": "MEMA"}},{"geometry": {"type": "Point", "coordinates": [-71.280815331740314, 42.245075335567989]}, "type": "Feature", "id": 42, "properties": {"CITY": "DOVER", "NAME": "Dover Town Hall", "ZIP": "02030", "AREACODE": "508", "L_DATE": "2006-07-07", "TELEPHONE": "785-0032", "SOURCE": "MEMA", "ADDRESS_1": "5 Springdale Ave.", "ADDRESS_2": "P.O. Box 250", "L_SRC": "MEMA"}},{"geometry": {"type": "Point", "coordinates": [-71.301099737868384, 42.670438186121629]}, "type": "Feature", "id": 43, "properties": {"CITY": "DRACUT", "NAME": "Dracut Town Hall", "ZIP": "01826", "AREACODE": "978", "L_DATE": "2006-07-07", "TELEPHONE": "453-0951", "SOURCE": "MEMA", "ADDRESS_1": "62 Arlington St.", "L_SRC": "NMCOG"}},{"geometry": {"type": "Point", "coordinates": [-71.891879706171721, 42.044031913980675]}, "type": "Feature", "id": 44, "properties": {"CITY": "DUDLEY", "NAME": "Dudley Town Hall", "ZIP": "01571", "AREACODE": "508", "L_DATE": "2006-07-07", "TELEPHONE": "949-8004", "SOURCE": "MEMA", "ADDRESS_1": "40 Schofield Ave.", "L_SRC": "MEMA"}},{"geometry": {"type": "Point", "coordinates": [-71.481751073042375, 42.674904452610413]}, "type": "Feature", "id": 45, "properties": {"CITY": "DUNSTABLE", "NAME": "Dunstable Town Hall", "ZIP": "01827", "AREACODE": "978", "L_DATE": "2006-07-07", "TELEPHONE": "649-4514", "SOURCE": "MEMA", "ADDRESS_1": "511 Main St.", "L_SRC": "NMCOG"}},{"geometry": {"type": "Point", "coordinates": [-70.692187437694827, 42.035238314535881]}, "type": "Feature", "id": 46, "properties": {"CITY": "DUXBURY", "NAME": "Duxbury Town Hall", "ZIP": "02332", "AREACODE": "781", "L_DATE": "2006-07-07", "TELEPHONE": "934-1131", "SOURCE": "MEMA", "ADDRESS_1": "878 Tremont St.", "L_SRC": "MEMA"}},{"geometry": {"type": "Point", "coordinates": [-70.955742700850635, 42.029050061276067]}, "type": "Feature", "id": 47, "properties": {"CITY": "EAST BRIDGEWATER", "NAME": "East Bridgewater Town Hall", "ZIP": "02333", "AREACODE": "508", "L_DATE": "2006-07-07", "TELEPHONE": "378-1606", "SOURCE": "MEMA", "ADDRESS_1": "175 Central St.", "ADDRESS_2": "P.O. Box 387", "L_SRC": "MEMA"}},{"geometry": {"type": "Point", "coordinates": [-70.736549921608201, 41.996927264722117]}, "type": "Feature", "id": 48, "properties": {"CITY": "KINGSTON", "NAME": "Kingston Town Hall", "ZIP": "02364", "AREACODE": "781", "L_DATE": "2006-07-07", "TELEPHONE": "585-0502", "SOURCE": "MEMA", "ADDRESS_1": "26 Evergreen St.", "L_SRC": "OCPC"}},{"geometry": {"type": "Point", "coordinates": [-70.944847185290115, 41.838253666827029]}, "type": "Feature", "id": 49, "properties": {"CITY": "LAKEVILLE", "NAME": "Lakeville Town Hall", "ZIP": "02347", "AREACODE": "508", "L_DATE": "2006-07-07", "TELEPHONE": "946-8814", "SOURCE": "MEMA", "ADDRESS_1": "346 Bedford St.", "L_SRC": "SRPEDD"}},{"geometry": {"type": "Point", "coordinates": [-71.673047696587517, 42.454488450784041]}, "type": "Feature", "id": 50, "properties": {"CITY": "LANCASTER", "NAME": "Lancaster Town Hall", "ZIP": "01523", "AREACODE": "978", "L_DATE": "2006-07-07", "TELEPHONE": "365-2542", "SOURCE": "MEMA", "ADDRESS_1": "695 Main St.", "ADDRESS_2": "P.O. Box 97", "L_SRC": "MRPC"}},{"geometry": {"type": "Point", "coordinates": [-73.228312836789826, 42.520216419779203]}, "type": "Feature", "id": 51, "properties": {"CITY": "LANESBOROUGH", "NAME": "Lanesborough Town Hall", "ZIP": "01237", "AREACODE": "413", "L_DATE": "2006-07-07", "TELEPHONE": "442-1351", "SOURCE": "MEMA", "ADDRESS_1": "83 North Main St.", "ADDRESS_2": "P.O. Box 1492", "L_SRC": "MEMA"}},{"geometry": {"type": "Point", "coordinates": [-71.16003269676429, 42.708217341032281]}, "type": "Feature", "id": 52, "properties": {"CITY": "LAWRENCE", "NAME": "Lawerence City Hall", "ZIP": "01840", "AREACODE": "978", "L_DATE": "2006-07-07", "TELEPHONE": "794-5803", "SOURCE": "MEMA", "ADDRESS_1": "200 Common St.", "L_SRC": "MVPC"}},{"geometry": {"type": "Point", "coordinates": [-73.24889117750709, 42.305116528044316]}, "type": "Feature", "id": 53, "properties": {"CITY": "LEE", "NAME": "Lee Town Hall", "ZIP": "01238", "AREACODE": "413", "L_DATE": "2006-07-07", "TELEPHONE": "243-5505", "SOURCE": "MEMA", "ADDRESS_1": "32 Main St.", "L_SRC": "BRPC"}},{"geometry": {"type": "Point", "coordinates": [-71.90598088047247, 42.247104497284219]}, "type": "Feature", "id": 54, "properties": {"CITY": "LEICESTER", "NAME": "Leicester Town Hall", "ZIP": "01524", "AREACODE": "508", "L_DATE": "2006-07-07", "TELEPHONE": "892-7011", "SOURCE": "MEMA", "ADDRESS_1": "3 Washburn Sq.", "L_SRC": "MEMA"}},{"geometry": {"type": "Point", "coordinates": [-73.284605645877335, 42.356494110046334]}, "type": "Feature", "id": 55, "properties": {"CITY": "LENOX", "NAME": "Lenox Town Hall", "ZIP": "01240", "AREACODE": "413", "L_DATE": "2006-07-07", "TELEPHONE": "637-5506", "SOURCE": "MEMA", "ADDRESS_1": "6 Walker St.", "L_SRC": "BRPC"}},{"geometry": {"type": "Point", "coordinates": [-71.761367836500369, 42.527027296369226]}, "type": "Feature", "id": 56, "properties": {"CITY": "LEOMINSTER", "NAME": "Leominster City Hall", "ZIP": "01453", "AREACODE": "978", "L_DATE": "2006-07-07", "TELEPHONE": "534-7536", "SOURCE": "MEMA", "ADDRESS_1": "25 West St.", "L_SRC": "MRPC"}},{"geometry": {"type": "Point", "coordinates": [-72.500722177519961, 42.452436761198129]}, "type": "Feature", "id": 57, "properties": {"CITY": "LEVERETT", "NAME": "Leverett Town Hall", "ZIP": "01054", "AREACODE": "413", "L_DATE": "2006-07-07", "TELEPHONE": "548-9150", "SOURCE": "MEMA", "ADDRESS_1": "9 Montague Rd.", "ADDRESS_2": "P.O.Box 300", "L_SRC": "FRCOG"}},{"geometry": {"type": "Point", "coordinates": [-71.22452796714866, 42.4469286574911]}, "type": "Feature", "id": 58, "properties": {"CITY": "LEXINGTON", "NAME": "Lexington Town Hall", "ZIP": "02420", "AREACODE": "781", "L_DATE": "2006-07-07", "TELEPHONE": "862-0500", "SOURCE": "MEMA", "ADDRESS_1": "1625 Massachusetts Ave.", "L_SRC": "MAPC"}},{"geometry": {"type": "Point", "coordinates": [-71.306927113054883, 42.423981706773489]}, "type": "Feature", "id": 59, "properties": {"CITY": "LINCOLN", "NAME": "Lincoln Town Hall", "ZIP": "01773", "AREACODE": "781", "L_DATE": "2006-07-07", "TELEPHONE": "259-2607", "SOURCE": "MEMA", "ADDRESS_1": "16 Lincoln Rd.", "ADDRESS_2": "P.O. Box 6353", "L_SRC": "MAPC"}},{"geometry": {"type": "Point", "coordinates": [-71.480580232446187, 42.542175256417082]}, "type": "Feature", "id": 60, "properties": {"CITY": "LITTLETON", "NAME": "Littleton Town Hall", "ZIP": "01460", "AREACODE": "978", "L_DATE": "2006-07-07", "TELEPHONE": "952-2314", "SOURCE": "MEMA", "ADDRESS_1": "37 Shattuck St.", "ADDRESS_2": "P.O. Box 1305", "L_SRC": "MAPC"}},{"geometry": {"type": "Point", "coordinates": [-72.580661037796844, 42.050648610107153]}, "type": "Feature", "id": 61, "properties": {"CITY": "LONGMEADOW", "NAME": "Longmeadow Town Hall", "ZIP": "01106", "AREACODE": "413", "L_DATE": "2006-07-07", "TELEPHONE": "567-1066", "SOURCE": "MEMA", "ADDRESS_1": "20 Williams St.", "L_SRC": "PVPC"}},{"geometry": {"type": "Point", "coordinates": [-71.314005624824318, 42.646367584436732]}, "type": "Feature", "id": 62, "properties": {"CITY": "LOWELL", "NAME": "Lowell City Hall", "ZIP": "01852", "AREACODE": "978", "L_DATE": "2006-07-07", "TELEPHONE": "970-4046", "SOURCE": "MEMA", "ADDRESS_1": "375 Merrimack St.", "L_SRC": "NMCOG"}},{"geometry": {"type": "Point", "coordinates": [-72.464780819957895, 42.170484853107048]}, "type": "Feature", "id": 63, "properties": {"CITY": "LUDLOW", "NAME": "Ludlow Town Hall", "ZIP": "01056", "AREACODE": "413", "L_DATE": "2006-07-07", "TELEPHONE": "583-5610", "SOURCE": "MEMA", "ADDRESS_1": "488 Chapin St.", "L_SRC": "MEMA"}},{"geometry": {"type": "Point", "coordinates": [-71.725196882114844, 42.595472512797528]}, "type": "Feature", "id": 64, "properties": {"CITY": "LUNENBURG", "NAME": "Lunenburg Town Hall", "ZIP": "01462", "AREACODE": "978", "L_DATE": "2006-07-07", "TELEPHONE": "582-4130", "SOURCE": "MEMA", "ADDRESS_1": "17 Main St.", "ADDRESS_2": "P.O. Box 135", "L_SRC": "MRPC"}},{"geometry": {"type": "Point", "coordinates": [-70.951042801553001, 42.464748098999266]}, "type": "Feature", "id": 65, "properties": {"CITY": "LYNN", "NAME": "Lynn City Hall", "ZIP": "01901", "AREACODE": "781", "L_DATE": "2006-07-07", "TELEPHONE": "586-6725", "SOURCE": "MEMA", "ADDRESS_1": "3 City Hall Sq.", "ADDRESS_2": "Room 201", "L_SRC": "MAPC"}},{"geometry": {"type": "Point", "coordinates": [-71.04720233462966, 42.538307774818556]}, "type": "Feature", "id": 66, "properties": {"CITY": "LYNNFIELD", "NAME": "Lynnfield Town Hall", "ZIP": "01940", "AREACODE": "781", "L_DATE": "2006-07-07", "TELEPHONE": "334-3128", "SOURCE": "MEMA", "ADDRESS_1": "55 Summer St.", "L_SRC": "MAPC"}},{"geometry": {"type": "Point", "coordinates": [-71.072705600926724, 42.427271076733184]}, "type": "Feature", "id": 67, "properties": {"CITY": "MALDEN", "NAME": "Malden City Hall", "ZIP": "02148", "AREACODE": "781", "L_DATE": "2006-07-07", "TELEPHONE": "397-7116", "SOURCE": "MEMA", "ADDRESS_1": "200 Pleasant St.", "L_SRC": "MAPC"}},{"geometry": {"type": "Point", "coordinates": [-70.772304625990543, 42.574873106763754]}, "type": "Feature", "id": 68, "properties": {"CITY": "MANCHESTER-BY-THE-SEA", "NAME": "Manchester Town Hall", "ZIP": "01944", "AREACODE": "978", "L_DATE": "2006-07-07", "TELEPHONE": "526-2040", "SOURCE": "MEMA", "ADDRESS_1": "10 Central St.", "L_SRC": "MAPC"}},{"geometry": {"type": "Point", "coordinates": [-71.216254539105236, 42.023492193619362]}, "type": "Feature", "id": 69, "properties": {"CITY": "MANSFIELD", "NAME": "Mansfield Town Hall", "ZIP": "02048", "AREACODE": "508", "L_DATE": "2006-07-07", "TELEPHONE": "261-7345", "SOURCE": "MEMA", "ADDRESS_1": "6 Park Row", "L_SRC": "MEMA"}},{"geometry": {"type": "Point", "coordinates": [-70.852415892174278, 42.502568625441221]}, "type": "Feature", "id": 70, "properties": {"CITY": "MARBLEHEAD", "NAME": "Marblehead Abbot Hall", "ZIP": "01945", "AREACODE": "781", "L_DATE": "2006-07-07", "TELEPHONE": "631-0528", "SOURCE": "MEMA", "ADDRESS_1": "188 Washington St.", "L_SRC": "MAPC"}},{"geometry": {"type": "Point", "coordinates": [-70.767036149108819, 41.702614882960169]}, "type": "Feature", "id": 71, "properties": {"CITY": "MARION", "NAME": "Marion Town Hall", "ZIP": "02738", "AREACODE": "508", "L_DATE": "2006-07-07", "TELEPHONE": "748-3505", "SOURCE": "MEMA", "ADDRESS_1": "2 Spring St.", "L_SRC": "SRPEDD"}},{"geometry": {"type": "Point", "coordinates": [-71.547798658163643, 42.346589823367061]}, "type": "Feature", "id": 72, "properties": {"CITY": "MARLBOROUGH", "NAME": "Marlborough City Hall", "ZIP": "01752", "AREACODE": "508", "L_DATE": "2006-07-07", "TELEPHONE": "460-3775", "SOURCE": "MEMA", "ADDRESS_1": "140 Main St.", "L_SRC": "MAPC"}},{"geometry": {"type": "Point", "coordinates": [-70.709486445575564, 42.091002845802954]}, "type": "Feature", "id": 73, "properties": {"CITY": "MARSHFIELD", "NAME": "Marshfield Town Hall", "ZIP": "02050", "AREACODE": "781", "L_DATE": "2006-07-07", "TELEPHONE": "834-5540", "SOURCE": "MEMA", "ADDRESS_1": "870 Moraine St.", "L_SRC": "MAPC"}},{"geometry": {"type": "Point", "coordinates": [-70.480830533427365, 41.648081594246854]}, "type": "Feature", "id": 74, "properties": {"CITY": "MASHPEE", "NAME": "Mashpee Town Hall", "ZIP": "02649", "AREACODE": "508", "L_DATE": "2006-07-07", "TELEPHONE": "539-1400", "SOURCE": "MEMA", "ADDRESS_1": "16 Great Neck Rd. North", "L_SRC": "CAPECODCO"}},{"geometry": {"type": "Point", "coordinates": [-70.817239668528231, 41.659225884943687]}, "type": "Feature", "id": 75, "properties": {"CITY": "MATTAPOISETT", "NAME": "Mattapoisett Town Hall", "ZIP": "02739", "AREACODE": "508", "L_DATE": "2006-07-07", "TELEPHONE": "758-4103", "SOURCE": "MEMA", "ADDRESS_1": "16 Main St.", "ADDRESS_2": "P.O. Box 89", "L_SRC": "SRPEDD"}},{"geometry": {"type": "Point", "coordinates": [-71.461252430746057, 42.430401839869084]}, "type": "Feature", "id": 76, "properties": {"CITY": "MAYNARD", "NAME": "Maynard Town Hall", "ZIP": "01754", "AREACODE": "978", "L_DATE": "2006-07-07", "TELEPHONE": "897-1000", "SOURCE": "MEMA", "ADDRESS_1": "195 Main St.", "L_SRC": "MAPC"}},{"geometry": {"type": "Point", "coordinates": [-71.305020376078843, 42.18719173708692]}, "type": "Feature", "id": 77, "properties": {"CITY": "MEDFIELD", "NAME": "Medfield Town Hall", "ZIP": "02052", "AREACODE": "508", "L_DATE": "2006-07-07", "TELEPHONE": "359-8505", "SOURCE": "MEMA", "ADDRESS_1": "459 Main St.", "L_SRC": "MEMA"}},{"geometry": {"type": "Point", "coordinates": [-71.105865550478171, 42.418241407553573]}, "type": "Feature", "id": 78, "properties": {"CITY": "MEDFORD", "NAME": "Medford City Hall", "ZIP": "02155", "AREACODE": "781", "L_DATE": "2006-07-07", "TELEPHONE": "393-2491", "SOURCE": "MEMA", "ADDRESS_1": "85 George P. Hassett Dr.", "ADDRESS_2": "Room 103", "L_SRC": "MAPC"}},{"geometry": {"type": "Point", "coordinates": [-71.398281014896966, 42.140059613850518]}, "type": "Feature", "id": 79, "properties": {"CITY": "MEDWAY", "NAME": "Medway Town Hall", "ZIP": "02053", "AREACODE": "508", "L_DATE": "2006-07-07", "TELEPHONE": "533-3204", "SOURCE": "MEMA", "ADDRESS_1": "155 Village St.", "L_SRC": "MEMA"}},{"geometry": {"type": "Point", "coordinates": [-71.064728285494851, 42.4566625511357]}, "type": "Feature", "id": 80, "properties": {"CITY": "MELROSE", "NAME": "Melrose City Hall", "ZIP": "02176", "AREACODE": "781", "L_DATE": "2006-07-07", "TELEPHONE": "979-4125", "SOURCE": "MEMA", "ADDRESS_1": "562 Main St.", "ADDRESS_2": "P.O. Box C", "L_SRC": "MAPC"}},{"geometry": {"type": "Point", "coordinates": [-71.55128382818684, 42.105471715557627]}, "type": "Feature", "id": 81, "properties": {"CITY": "MENDON", "NAME": "Mendon Town Hall", "ZIP": "01756", "AREACODE": "508", "L_DATE": "2006-07-07", "TELEPHONE": "473-1085", "SOURCE": "MEMA", "ADDRESS_1": "20 Main St.", "ADDRESS_2": "P.O. Box 54", "L_SRC": "MEMA"}},{"geometry": {"type": "Point", "coordinates": [-71.00185488442051, 42.833521231141397]}, "type": "Feature", "id": 82, "properties": {"CITY": "MERRIMAC", "NAME": "Merrimac Town Hall", "ZIP": "01860", "AREACODE": "978", "L_DATE": "2006-07-07", "TELEPHONE": "346-8013", "SOURCE": "MEMA", "ADDRESS_1": "2 School St.", "L_SRC": "MVPC"}},{"geometry": {"type": "Point", "coordinates": [-71.183447889208708, 42.729950669407536]}, "type": "Feature", "id": 83, "properties": {"CITY": "METHUEN", "NAME": "Methuen Town Hall", "ZIP": "01844", "AREACODE": "978", "L_DATE": "2006-07-07", "TELEPHONE": "794-3213", "SOURCE": "MEMA", "ADDRESS_1": "41 Pleasant St.", "L_SRC": "MVPC"}},{"geometry": {"type": "Point", "coordinates": [-70.91110793723611, 41.891921196740576]}, "type": "Feature", "id": 84, "properties": {"CITY": "MIDDLEBOROUGH", "NAME": "Middleborough Town Hall", "ZIP": "02346", "AREACODE": "508", "L_DATE": "2006-07-07", "TELEPHONE": "946-2415", "SOURCE": "MEMA", "ADDRESS_1": "20 Centre St.", "ADDRESS_2": "1st Floor", "L_SRC": "MEMA"}},{"geometry": {"type": "Point", "coordinates": [-71.014205617965317, 42.59306284267236]}, "type": "Feature", "id": 85, "properties": {"CITY": "MIDDLETON", "NAME": "Middleton Memorial Hall", "ZIP": "01949", "AREACODE": "978", "L_DATE": "2006-07-07", "TELEPHONE": "774-6927", "SOURCE": "MEMA", "ADDRESS_1": "48 South Main St.", "L_SRC": "MAPC"}},{"geometry": {"type": "Point", "coordinates": [-71.516572391498954, 42.142684221110784]}, "type": "Feature", "id": 86, "properties": {"CITY": "MILFORD", "NAME": "Milford Town Hall", "ZIP": "01757", "AREACODE": "508", "L_DATE": "2006-07-07", "TELEPHONE": "634-2307", "SOURCE": "MEMA", "ADDRESS_1": "52 Main St.", "L_SRC": "MEMA"}},{"geometry": {"type": "Point", "coordinates": [-71.762005514381357, 42.189077427865982]}, "type": "Feature", "id": 87, "properties": {"CITY": "MILLBURY", "NAME": "Millbury Town Hall", "ZIP": "01527", "AREACODE": "508", "L_DATE": "2006-07-07", "TELEPHONE": "865-9110", "SOURCE": "MEMA", "ADDRESS_1": "127 Elm St.", "L_SRC": "MEMA"}},{"geometry": {"type": "Point", "coordinates": [-71.360171537237065, 42.166766286571409]}, "type": "Feature", "id": 88, "properties": {"CITY": "MILLIS", "NAME": "Millis Town Hall", "ZIP": "02054", "AREACODE": "508", "L_DATE": "2006-07-07", "TELEPHONE": "376-7046", "SOURCE": "MEMA", "ADDRESS_1": "900 Main St.", "L_SRC": "MEMA"}},{"geometry": {"type": "Point", "coordinates": [-73.115980597000473, 42.373188206871049]}, "type": "Feature", "id": 89, "properties": {"CITY": "WASHINGTON", "NAME": "Washington Town Hall", "ZIP": "01223", "AREACODE": "413", "L_DATE": "2006-07-07", "TELEPHONE": "623-8878", "SOURCE": "MEMA", "ADDRESS_1": "8 Summit Hill Rd.", "L_SRC": "BRPC"}},{"geometry": {"type": "Point", "coordinates": [-71.187446701627806, 42.367871197032528]}, "type": "Feature", "id": 90, "properties": {"CITY": "WATERTOWN", "NAME": "Watertown Town Hall", "ZIP": "02472", "AREACODE": "617", "L_DATE": "2006-07-07", "TELEPHONE": "972-6486", "SOURCE": "MEMA", "ADDRESS_1": "149 Main St.", "L_SRC": "MAPC"}},{"geometry": {"type": "Point", "coordinates": [-71.359850819315554, 42.361452074507568]}, "type": "Feature", "id": 91, "properties": {"CITY": "WAYLAND", "NAME": "Wayland Town Hall", "ZIP": "01778", "AREACODE": "508", "L_DATE": "2006-07-07", "TELEPHONE": "358-3631", "SOURCE": "MEMA", "ADDRESS_1": "41 Cochituate Rd.", "L_SRC": "MAPC"}},{"geometry": {"type": "Point", "coordinates": [-71.880387568075875, 42.04949135063282]}, "type": "Feature", "id": 92, "properties": {"CITY": "WEBSTER", "NAME": "Webster Town Hall", "ZIP": "01570", "AREACODE": "508", "L_DATE": "2006-07-07", "TELEPHONE": "949-3850", "SOURCE": "MEMA", "ADDRESS_1": "350 Main St.", "ADDRESS_2": "P.O. Box 193", "L_SRC": "MEMA"}},{"geometry": {"type": "Point", "coordinates": [-71.291548588901136, 42.297997355963275]}, "type": "Feature", "id": 93, "properties": {"CITY": "WELLESLEY", "NAME": "Wellesley Town Hall", "ZIP": "02482", "AREACODE": "781", "L_DATE": "2006-07-07", "TELEPHONE": "431-1019", "SOURCE": "MEMA", "ADDRESS_1": "525 Washington St.", "L_SRC": "MEMA"}},{"geometry": {"type": "Point", "coordinates": [-70.031081312102017, 41.938463740598323]}, "type": "Feature", "id": 94, "properties": {"CITY": "WELLFLEET", "NAME": "Wellfleet Town Hall", "ZIP": "02667", "AREACODE": "508", "L_DATE": "2006-07-07", "TELEPHONE": "349-0301", "SOURCE": "MEMA", "ADDRESS_1": "300 Main St.", "L_SRC": "CAPECODCO"}},{"geometry": {"type": "Point", "coordinates": [-70.886791538839603, 42.60441106344345]}, "type": "Feature", "id": 95, "properties": {"CITY": "WENHAM", "NAME": "Wenham Town Hall", "ZIP": "01984", "AREACODE": "978", "L_DATE": "2006-07-07", "TELEPHONE": "468-5520", "SOURCE": "MEMA", "ADDRESS_1": "138 Main St.", "L_SRC": "MEMA"}},{"geometry": {"type": "Point", "coordinates": [-71.776810485656569, 42.386585498678123]}, "type": "Feature", "id": 96, "properties": {"CITY": "WEST BOYLSTON", "NAME": "West Boylston Town Hall", "ZIP": "01583", "AREACODE": "508", "L_DATE": "2006-07-07", "TELEPHONE": "835-6240", "SOURCE": "MEMA", "ADDRESS_1": "120 Prescott St.", "L_SRC": "MEMA"}},{"geometry": {"type": "Point", "coordinates": [-71.008634420626635, 42.021205800927575]}, "type": "Feature", "id": 97, "properties": {"CITY": "WEST BRIDGEWATER", "NAME": "West Bridgewater Town Hal", "ZIP": "02379", "AREACODE": "508", "L_DATE": "2006-07-07", "TELEPHONE": "894-1200", "SOURCE": "MEMA", "ADDRESS_1": "65 North Main St.", "L_SRC": "OCPC"}},{"geometry": {"type": "Point", "coordinates": [-72.142388209271118, 42.235194567695082]}, "type": "Feature", "id": 98, "properties": {"CITY": "WEST BROOKFIELD", "NAME": "West Brookfield Town Hall", "ZIP": "01585", "AREACODE": "508", "L_DATE": "2006-07-07", "TELEPHONE": "867-1415", "SOURCE": "MEMA", "ADDRESS_1": "2 East Main St.", "ADDRESS_2": "P.O. Box 766", "L_SRC": "MEMA"}},{"geometry": {"type": "Point", "coordinates": [-70.989306286344416, 42.800462193826021]}, "type": "Feature", "id": 99, "properties": {"CITY": "WEST NEWBURY", "NAME": "West Newbury Town Hall", "ZIP": "01985", "AREACODE": "978", "L_DATE": "2006-07-07", "TELEPHONE": "363-1100", "SOURCE": "MEMA", "ADDRESS_1": "381 Main St.", "L_SRC": "MVPC"}},{"geometry": {"type": "Point", "coordinates": [-72.623404118940371, 42.105855371795037]}, "type": "Feature", "id": 100, "properties": {"CITY": "WEST SPRINGFIELD", "NAME": "West Springfield Town Hall", "ZIP": "01089", "AREACODE": "413", "L_DATE": "2006-07-07", "TELEPHONE": "263-3012", "SOURCE": "MEMA", "ADDRESS_1": "26 Central St.", "L_SRC": "PVPC"}},{"geometry": {"type": "Point", "coordinates": [-73.367069033932296, 42.334202728271009]}, "type": "Feature", "id": 101, "properties": {"CITY": "WEST STOCKBRIDGE", "NAME": "West Stockbridge Town Hal", "ZIP": "01266", "AREACODE": "413", "L_DATE": "2006-07-07", "TELEPHONE": "232-0300", "SOURCE": "MEMA", "ADDRESS_1": "9 Main St.", "ADDRESS_2": "P.O. Box 163", "L_SRC": "MEMA"}},{"geometry": {"type": "Point", "coordinates": [-70.675239314273043, 41.38025410206135]}, "type": "Feature", "id": 102, "properties": {"CITY": "WEST TISBURY", "NAME": "West Tisbury Town Hall", "ZIP": "02575", "AREACODE": "508", "L_DATE": "2006-07-07", "TELEPHONE": "696-0148", "SOURCE": "MEMA", "ADDRESS_1": "1059 State Rd.", "ADDRESS_2": "P.O. Box 278", "L_SRC": "MEMA"}},{"geometry": {"type": "Point", "coordinates": [-71.6137849503517, 42.268438062068206]}, "type": "Feature", "id": 103, "properties": {"CITY": "WESTBOROUGH", "NAME": "Westborough Town Hall", "ZIP": "01581", "AREACODE": "508", "L_DATE": "2006-07-07", "TELEPHONE": "366-3020", "SOURCE": "MEMA", "ADDRESS_1": "34 West Main St.", "L_SRC": "MEMA"}},{"geometry": {"type": "Point", "coordinates": [-71.581525649069832, 42.027383687502869]}, "type": "Feature", "id": 104, "properties": {"CITY": "MILLVILLE", "NAME": "Millville Town Hall", "ZIP": "01529", "AREACODE": "508", "L_DATE": "2006-07-07", "TELEPHONE": "883-5849", "SOURCE": "MEMA", "ADDRESS_1": "8 Central St.", "ADDRESS_2": "P.O. Box 703", "L_SRC": "MEMA"}},{"geometry": {"type": "Point", "coordinates": [-71.080178461682081, 42.253433320288188]}, "type": "Feature", "id": 105, "properties": {"CITY": "MILTON", "NAME": "Milton Town Hall", "ZIP": "02186", "AREACODE": "617", "L_DATE": "2006-07-07", "TELEPHONE": "696-5414", "SOURCE": "MEMA", "ADDRESS_1": "525 Canton Ave.", "L_SRC": "MAPC"}},{"geometry": {"type": "Point", "coordinates": [-72.940575943170188, 42.722507145258476]}, "type": "Feature", "id": 106, "properties": {"CITY": "MONROE", "NAME": "Monroe Town Hall", "ZIP": "01350", "AREACODE": "413", "L_DATE": "2006-07-07", "TELEPHONE": "424-5272", "SOURCE": "MEMA", "ADDRESS_1": "3-C School St.", "ADDRESS_2": "P.O. Box 59", "L_SRC": "FRCOG"}},{"geometry": {"type": "Point", "coordinates": [-72.315490402919892, 42.099908761922109]}, "type": "Feature", "id": 107, "properties": {"CITY": "MONSON", "NAME": "Monson Town Hall", "ZIP": "01057", "AREACODE": "413", "L_DATE": "2006-07-07", "TELEPHONE": "267-4115", "SOURCE": "MEMA", "ADDRESS_1": "110 Main St.", "ADDRESS_2": "Suite 4", "L_SRC": "PVPC"}},{"geometry": {"type": "Point", "coordinates": [-73.21377678842785, 42.179675146561863]}, "type": "Feature", "id": 108, "properties": {"CITY": "MONTEREY", "NAME": "Monterey Town Hall", "ZIP": "01245", "AREACODE": "413", "L_DATE": "2006-07-07", "TELEPHONE": "528-5175", "SOURCE": "MEMA", "ADDRESS_1": "435 Main Rd.", "L_SRC": "BRPC"}},{"geometry": {"type": "Point", "coordinates": [-72.817171598851033, 42.213961836255464]}, "type": "Feature", "id": 109, "properties": {"CITY": "MONTGOMERY", "NAME": "Montgomery Town Hall", "ZIP": "01085", "AREACODE": "413", "L_DATE": "2006-07-07", "TELEPHONE": "862-4478", "SOURCE": "MEMA", "ADDRESS_1": "161 Main Rd.", "L_SRC": "MEMA"}},{"geometry": {"type": "Point", "coordinates": [-70.913569618797908, 42.424330304603806]}, "type": "Feature", "id": 110, "properties": {"CITY": "NAHANT", "NAME": "Nahant Town Hall", "ZIP": "01908", "AREACODE": "781", "L_DATE": "2006-07-07", "TELEPHONE": "581-0018", "SOURCE": "MEMA", "ADDRESS_1": "334 Nahant Rd.", "L_SRC": "MAPC"}},{"geometry": {"type": "Point", "coordinates": [-70.099004090412492, 41.285093654791552]}, "type": "Feature", "id": 111, "properties": {"CITY": "NANTUCKET", "NAME": "Nantucket Town Hall", "ZIP": "02554", "AREACODE": "508", "L_DATE": "2006-07-07", "TELEPHONE": "228-7217", "SOURCE": "MEMA", "ADDRESS_1": "16 Broad St.", "L_SRC": "MEMA"}},{"geometry": {"type": "Point", "coordinates": [-72.331526665538121, 42.501625153025095]}, "type": "Feature", "id": 112, "properties": {"CITY": "NEW SALEM", "NAME": "New Salem Town Hall", "ZIP": "01355", "AREACODE": "978", "L_DATE": "2006-07-07", "TELEPHONE": "544-2731", "SOURCE": "MEMA", "ADDRESS_1": "15 South Main St.", "L_SRC": "FRCOG"}},{"geometry": {"type": "Point", "coordinates": [-70.86108869653259, 42.797839281493424]}, "type": "Feature", "id": 113, "properties": {"CITY": "NEWBURY", "NAME": "Newbury Town Hall", "ZIP": "01951", "AREACODE": "978", "L_DATE": "2006-07-07", "TELEPHONE": "462-2332", "SOURCE": "MEMA", "ADDRESS_1": "25 High Rd.", "L_SRC": "MVPC"}},{"geometry": {"type": "Point", "coordinates": [-70.872602740730187, 42.811104981553171]}, "type": "Feature", "id": 114, "properties": {"CITY": "NEWBURYPORT", "NAME": "Newburyport City Hall", "ZIP": "01950", "AREACODE": "978", "L_DATE": "2006-07-07", "TELEPHONE": "465-4407", "SOURCE": "MEMA", "ADDRESS_1": "60 Pleasant St.", "ADDRESS_2": "P.O. Box 550", "L_SRC": "MVPC"}},{"geometry": {"type": "Point", "coordinates": [-71.20870997885271, 42.337449303756564]}, "type": "Feature", "id": 115, "properties": {"CITY": "NEWTON", "NAME": "Newton City Hall", "ZIP": "02459", "AREACODE": "617", "L_DATE": "2006-07-07", "TELEPHONE": "796-1350", "SOURCE": "MEMA", "ADDRESS_1": "1000 Commonwealth Ave.", "L_SRC": "MAPC"}},{"geometry": {"type": "Point", "coordinates": [-71.282198047976934, 42.090876782173524]}, "type": "Feature", "id": 116, "properties": {"CITY": "NORFOLK", "NAME": "Norfolk Town Hall", "ZIP": "02056", "AREACODE": "508", "L_DATE": "2006-07-07", "TELEPHONE": "528-1400", "SOURCE": "MEMA", "ADDRESS_1": "One Liberty Ln.", "ADDRESS_2": "P.O. Box 216", "L_SRC": "MEMA"}},{"geometry": {"type": "Point", "coordinates": [-73.114348290094284, 42.698992271815449]}, "type": "Feature", "id": 117, "properties": {"CITY": "NORTH ADAMS", "NAME": "North Adams City Hall", "ZIP": "01247", "AREACODE": "413", "L_DATE": "2006-07-07", "TELEPHONE": "662-3015", "SOURCE": "MEMA", "ADDRESS_1": "10 Main St.", "L_SRC": "MEMA"}},{"geometry": {"type": "Point", "coordinates": [-71.130871852401569, 42.703104647456584]}, "type": "Feature", "id": 118, "properties": {"CITY": "NORTH ANDOVER", "NAME": "North Andover Town Hall", "ZIP": "01845", "AREACODE": "978", "L_DATE": "2006-09-07", "TELEPHONE": "688-9502", "SOURCE": "MEMA", "ADDRESS_1": "120 Main St", "L_SRC": "MEMA"}},{"geometry": {"type": "Point", "coordinates": [-71.333996431761477, 41.980919682423639]}, "type": "Feature", "id": 119, "properties": {"CITY": "NORTH ATTLEBOROUGH", "NAME": "North Attleborough Town Hall", "ZIP": "02760", "AREACODE": "508", "L_DATE": "2006-07-07", "TELEPHONE": "699-0106", "SOURCE": "MEMA", "ADDRESS_1": "43 South Washington St.", "L_SRC": "MEMA"}},{"geometry": {"type": "Point", "coordinates": [-72.085468291675866, 42.268778434421442]}, "type": "Feature", "id": 120, "properties": {"CITY": "NORTH BROOKFIELD", "NAME": "North Brookfield Town Hall", "ZIP": "01535", "AREACODE": "508", "L_DATE": "2006-07-07", "TELEPHONE": "867-0203", "SOURCE": "MEMA", "ADDRESS_1": "185 North Main St.", "L_SRC": "MEMA"}},{"geometry": {"type": "Point", "coordinates": [-71.119753126054235, 42.58672752629392]}, "type": "Feature", "id": 121, "properties": {"CITY": "NORTH READING", "NAME": "North Reading Town Hall", "ZIP": "01864", "AREACODE": "978", "L_DATE": "2006-07-07", "TELEPHONE": "664-6017", "SOURCE": "MEMA", "ADDRESS_1": "235 North St.", "L_SRC": "MAPC"}},{"geometry": {"type": "Point", "coordinates": [-72.631875029196678, 42.31756053115484]}, "type": "Feature", "id": 122, "properties": {"CITY": "NORTHAMPTON", "NAME": "Northampton City Hall", "ZIP": "01060", "AREACODE": "413", "L_DATE": "2006-07-07", "TELEPHONE": "587-1291", "SOURCE": "MEMA", "ADDRESS_1": "210 Main St.", "L_SRC": "MEMA"}},{"geometry": {"type": "Point", "coordinates": [-71.638066925767944, 42.32061378677863]}, "type": "Feature", "id": 123, "properties": {"CITY": "NORTHBOROUGH", "NAME": "Northborough Town Hall", "ZIP": "01532", "AREACODE": "508", "L_DATE": "2006-07-07", "TELEPHONE": "393-5002", "SOURCE": "MEMA", "ADDRESS_1": "63 Main St.", "L_SRC": "MEMA"}},{"geometry": {"type": "Point", "coordinates": [-71.665420687178752, 42.110085846026209]}, "type": "Feature", "id": 124, "properties": {"CITY": "NORTHBRIDGE", "NAME": "Northbridge Town Hall", "ZIP": "01588", "AREACODE": "508", "L_DATE": "2006-07-07", "TELEPHONE": "234-2001", "SOURCE": "MEMA", "ADDRESS_1": "7 Main St.", "L_SRC": "MEMA"}},{"geometry": {"type": "Point", "coordinates": [-72.456084182621098, 42.69371601409329]}, "type": "Feature", "id": 125, "properties": {"CITY": "NORTHFIELD", "NAME": "Northfield Town Hall", "ZIP": "01360", "AREACODE": "413", "L_DATE": "2006-07-07", "TELEPHONE": "498-2901", "SOURCE": "MEMA", "ADDRESS_1": "69 Main St.", "L_SRC": "FRCOG"}},{"geometry": {"type": "Point", "coordinates": [-71.181190543517516, 41.970601326815697]}, "type": "Feature", "id": 126, "properties": {"CITY": "NORTON", "NAME": "Norton Town Hall", "ZIP": "02766", "AREACODE": "508", "L_DATE": "2006-07-07", "TELEPHONE": "285-0230", "SOURCE": "MEMA", "ADDRESS_1": "70 East Main St.", "L_SRC": "MEMA"}},{"geometry": {"type": "Point", "coordinates": [-70.820385715648086, 42.15689565566943]}, "type": "Feature", "id": 127, "properties": {"CITY": "NORWELL", "NAME": "Norwell Town Hall", "ZIP": "02061", "AREACODE": "781", "L_DATE": "2006-07-07", "TELEPHONE": "659-8072", "SOURCE": "MEMA", "ADDRESS_1": "345 Main St.", "ADDRESS_2": "P.O. Box 295", "L_SRC": "MEMA"}},{"geometry": {"type": "Point", "coordinates": [-71.199806080739393, 42.194867823328863]}, "type": "Feature", "id": 128, "properties": {"CITY": "NORWOOD", "NAME": "Norwood Town Hall", "ZIP": "02062", "AREACODE": "781", "L_DATE": "2013-04-24", "TELEPHONE": "762-1240", "SOURCE": "MEMA", "ADDRESS_1": "566 Washington St.", "L_SRC": "MEMA"}},{"geometry": {"type": "Point", "coordinates": [-70.56699697762707, 41.455641648743068]}, "type": "Feature", "id": 129, "properties": {"CITY": "OAK BLUFFS", "NAME": "Oak Bluffs Town Hall", "ZIP": "02557", "AREACODE": "508", "L_DATE": "2006-07-07", "TELEPHONE": "693-5515", "SOURCE": "MEMA", "ADDRESS_1": "56 School St.", "ADDRESS_2": "P.O. Box 2490", "L_SRC": "MEMA"}},{"geometry": {"type": "Point", "coordinates": [-72.042026189779051, 42.35339734420991]}, "type": "Feature", "id": 130, "properties": {"CITY": "OAKHAM", "NAME": "Oakham Town Hall", "ZIP": "01068", "AREACODE": "508", "L_DATE": "2006-07-07", "TELEPHONE": "882-5549", "SOURCE": "MEMA", "ADDRESS_1": "2 Coldbrook Rd.", "ADDRESS_2": "P.O. Box 222", "L_SRC": "MEMA"}},{"geometry": {"type": "Point", "coordinates": [-72.309992920041864, 42.59180269998074]}, "type": "Feature", "id": 131, "properties": {"CITY": "ORANGE", "NAME": "Orange Town Hall", "ZIP": "01364", "AREACODE": "978", "L_DATE": "2006-07-07", "TELEPHONE": "544-2254", "SOURCE": "MEMA", "ADDRESS_1": "6 Prospect St.", "L_SRC": "FRCOG"}},{"geometry": {"type": "Point", "coordinates": [-69.976779290585029, 41.782567126808829]}, "type": "Feature", "id": 132, "properties": {"CITY": "ORLEANS", "NAME": "Orleans Town Hall", "ZIP": "02653", "AREACODE": "508", "L_DATE": "2006-07-07", "TELEPHONE": "240-3700", "SOURCE": "MEMA", "ADDRESS_1": "19 School Rd.", "L_SRC": "MEMA"}},{"geometry": {"type": "Point", "coordinates": [-73.093334943418881, 42.192729689490541]}, "type": "Feature", "id": 133, "properties": {"CITY": "OTIS", "NAME": "Otis Town Hall", "ZIP": "01253", "AREACODE": "413", "L_DATE": "2006-07-07", "TELEPHONE": "269-0101", "SOURCE": "MEMA", "ADDRESS_1": "One North Main Rd.", "ADDRESS_2": "P.O. Box 237", "L_SRC": "BRPC"}},{"geometry": {"type": "Point", "coordinates": [-71.865002790422906, 42.117617865951672]}, "type": "Feature", "id": 134, "properties": {"CITY": "OXFORD", "NAME": "Oxford Town Hall", "ZIP": "01540", "AREACODE": "508", "L_DATE": "2006-07-07", "TELEPHONE": "987-6032", "SOURCE": "MEMA", "ADDRESS_1": "325 Main St.", "L_SRC": "MEMA"}},{"geometry": {"type": "Point", "coordinates": [-72.34417894757047, 42.188033979814712]}, "type": "Feature", "id": 135, "properties": {"CITY": "PALMER", "NAME": "Palmer Town Hall", "ZIP": "01069", "AREACODE": "413", "L_DATE": "2006-07-07", "TELEPHONE": "283-2608", "SOURCE": "MEMA", "ADDRESS_1": "4417 Main St.", "L_SRC": "MEMA"}},{"geometry": {"type": "Point", "coordinates": [-71.928205399796383, 42.311469286773061]}, "type": "Feature", "id": 136, "properties": {"CITY": "PAXTON", "NAME": "Paxton Town Hall", "ZIP": "01612", "AREACODE": "508", "L_DATE": "2006-07-07", "TELEPHONE": "799-7347", "SOURCE": "MEMA", "ADDRESS_1": "697 Pleasant St.", "L_SRC": "MEMA"}},{"geometry": {"type": "Point", "coordinates": [-70.928871752195249, 42.525986152305386]}, "type": "Feature", "id": 137, "properties": {"CITY": "PEABODY", "NAME": "Peabody City Hall", "ZIP": "01960", "AREACODE": "978", "L_DATE": "2006-07-07", "TELEPHONE": "538-5750", "SOURCE": "MEMA", "ADDRESS_1": "24 Lowell St.", "L_SRC": "MAPC"}},{"geometry": {"type": "Point", "coordinates": [-72.409289937309794, 42.39099239532321]}, "type": "Feature", "id": 138, "properties": {"CITY": "PELHAM", "NAME": "Pelham Town Hall", "ZIP": "01002", "AREACODE": "413", "L_DATE": "2006-07-07", "TELEPHONE": "253-7129", "SOURCE": "MEMA", "ADDRESS_1": "351 Amherst Rd.", "L_SRC": "MEMA"}},{"geometry": {"type": "Point", "coordinates": [-70.808724009802319, 42.072076805859609]}, "type": "Feature", "id": 139, "properties": {"CITY": "PEMBROKE", "NAME": "Pembroke Town Hall", "ZIP": "02359", "AREACODE": "781", "L_DATE": "2006-07-07", "TELEPHONE": "293-7211", "SOURCE": "MEMA", "ADDRESS_1": "100 Center St.", "L_SRC": "OCPC"}},{"geometry": {"type": "Point", "coordinates": [-71.597792231042121, 42.667338200441307]}, "type": "Feature", "id": 140, "properties": {"CITY": "PEPPERELL", "NAME": "Pepperell Town Hall", "ZIP": "01463", "AREACODE": "978", "L_DATE": "2006-07-07", "TELEPHONE": "433-0339", "SOURCE": "MEMA", "ADDRESS_1": "One Main St.", "L_SRC": "NMCOG"}},{"geometry": {"type": "Point", "coordinates": [-73.04427380616022, 42.437811110316218]}, "type": "Feature", "id": 141, "properties": {"CITY": "PERU", "NAME": "Peru Town Hall", "ZIP": "01235", "AREACODE": "413", "L_DATE": "2006-07-07", "TELEPHONE": "655-8312", "SOURCE": "MEMA", "ADDRESS_1": "3 East Main Rd.", "L_SRC": "BRPC"}},{"geometry": {"type": "Point", "coordinates": [-72.513538901658038, 42.064869827462303]}, "type": "Feature", "id": 142, "properties": {"CITY": "EAST LONGMEADOW", "NAME": "East Longmeadow Town Hall", "ZIP": "01028", "AREACODE": "413", "L_DATE": "2006-07-07", "TELEPHONE": "525-5400", "SOURCE": "MEMA", "ADDRESS_1": "60 Center Sq.", "L_SRC": "MEMA"}},{"geometry": {"type": "Point", "coordinates": [-69.973128279809188, 41.830343839996999]}, "type": "Feature", "id": 143, "properties": {"CITY": "EASTHAM", "NAME": "Eastham Town Hall", "ZIP": "02642", "AREACODE": "508", "L_DATE": "2006-07-07", "TELEPHONE": "240-5900", "SOURCE": "MEMA", "ADDRESS_1": "2500 State Highway", "L_SRC": "CAPECODCO"}},{"geometry": {"type": "Point", "coordinates": [-72.670848934447463, 42.265669543216248]}, "type": "Feature", "id": 144, "properties": {"CITY": "EASTHAMPTON", "NAME": "Easthampton Town Hall", "ZIP": "01027", "AREACODE": "413", "L_DATE": "2006-07-07", "TELEPHONE": "529-1460", "SOURCE": "MEMA", "ADDRESS_1": "50 Payson Ave", "L_SRC": "PVPC"}},{"geometry": {"type": "Point", "coordinates": [-71.095761929208578, 42.074829859099871]}, "type": "Feature", "id": 145, "properties": {"CITY": "EASTON", "NAME": "Easton Town Hall", "ZIP": "02356", "AREACODE": "508", "L_DATE": "2006-07-07", "TELEPHONE": "230-0530", "SOURCE": "MEMA", "ADDRESS_1": "136 Elm St.", "L_SRC": "OCPC"}},{"geometry": {"type": "Point", "coordinates": [-72.398466715151372, 42.600048084213796]}, "type": "Feature", "id": 146, "properties": {"CITY": "ERVING", "NAME": "Erving Town Hall", "ZIP": "01344", "AREACODE": "413", "L_DATE": "2006-07-07", "TELEPHONE": "422-2800", "SOURCE": "MEMA", "ADDRESS_1": "12 East Main St.", "L_SRC": "FRCOG"}},{"geometry": {"type": "Point", "coordinates": [-70.783219633445682, 42.631578578621195]}, "type": "Feature", "id": 147, "properties": {"CITY": "ESSEX", "NAME": "Essex Town Hall", "ZIP": "01929", "AREACODE": "978", "L_DATE": "2006-07-07", "TELEPHONE": "768-7111", "SOURCE": "MEMA", "ADDRESS_1": "30 Martin St.", "L_SRC": "MAPC"}},{"geometry": {"type": "Point", "coordinates": [-71.054757776820125, 42.408389048927098]}, "type": "Feature", "id": 148, "properties": {"CITY": "EVERETT", "NAME": "Everett City Hall", "ZIP": "02149", "AREACODE": "617", "L_DATE": "2006-07-07", "TELEPHONE": "394-2297", "SOURCE": "MEMA", "ADDRESS_1": "484 Broadway", "L_SRC": "MEMA"}},{"geometry": {"type": "Point", "coordinates": [-70.903504164541474, 41.636326761125069]}, "type": "Feature", "id": 149, "properties": {"CITY": "FAIRHAVEN", "NAME": "Fairhaven Town Hall", "ZIP": "02719", "AREACODE": "508", "L_DATE": "2006-07-07", "TELEPHONE": "979-4025", "SOURCE": "MEMA", "ADDRESS_1": "40 Center St.", "L_SRC": "MEMA"}},{"geometry": {"type": "Point", "coordinates": [-70.618486531854273, 41.551432245492684]}, "type": "Feature", "id": 150, "properties": {"CITY": "FALMOUTH", "NAME": "Falmouth Town Hall", "ZIP": "02540", "AREACODE": "508", "L_DATE": "2006-07-07", "TELEPHONE": "495-7353", "SOURCE": "MEMA", "ADDRESS_1": "59 Town Hall Sq.", "L_SRC": "CAPECODCO"}},{"geometry": {"type": "Point", "coordinates": [-71.803814397921428, 42.584010517522977]}, "type": "Feature", "id": 151, "properties": {"CITY": "FITCHBURG", "NAME": "Fitchburg City Hall", "ZIP": "01420", "AREACODE": "978", "L_DATE": "2006-07-07", "TELEPHONE": "345-9592", "SOURCE": "MEMA", "ADDRESS_1": "718 Main St.", "L_SRC": "MRPC"}},{"geometry": {"type": "Point", "coordinates": [-71.250351765980255, 42.062800506957522]}, "type": "Feature", "id": 152, "properties": {"CITY": "FOXBOROUGH", "NAME": "Foxborough Town Hall", "ZIP": "02035", "AREACODE": "508", "L_DATE": "2006-07-07", "TELEPHONE": "543-1208", "SOURCE": "MEMA", "ADDRESS_1": "40 South St.", "L_SRC": "MEMA"}},{"geometry": {"type": "Point", "coordinates": [-71.416844725963912, 42.2797285457779]}, "type": "Feature", "id": 153, "properties": {"CITY": "FRAMINGHAM", "NAME": "Framingham Town Hall", "ZIP": "01702", "AREACODE": "508", "L_DATE": "2006-07-07", "TELEPHONE": "620-4863", "SOURCE": "MEMA", "ADDRESS_1": "150 Concord St.", "L_SRC": "MAPC"}},{"geometry": {"type": "Point", "coordinates": [-71.399889525007239, 42.084300503951113]}, "type": "Feature", "id": 154, "properties": {"CITY": "FRANKLIN", "NAME": "Franklin Town Hall", "ZIP": "02038", "AREACODE": "508", "L_DATE": "2006-07-07", "TELEPHONE": "520-4900", "SOURCE": "MEMA", "ADDRESS_1": "150 Emmons St.", "L_SRC": "MEMA"}},{"geometry": {"type": "Point", "coordinates": [-71.068092570205863, 41.795473211441568]}, "type": "Feature", "id": 155, "properties": {"CITY": "FREETOWN", "NAME": "Freetown Town Hall", "ZIP": "02702", "AREACODE": "508", "L_DATE": "2006-07-07", "TELEPHONE": "644-2203", "SOURCE": "MEMA", "ADDRESS_1": "3 North Main St.", "ADDRESS_2": "P.O. Box 438", "L_SRC": "MEMA"}},{"geometry": {"type": "Point", "coordinates": [-71.996013309865987, 42.574073441983302]}, "type": "Feature", "id": 156, "properties": {"CITY": "GARDNER", "NAME": "Gardner City Hall", "ZIP": "01440", "AREACODE": "978", "L_DATE": "2006-07-07", "TELEPHONE": "630-4008", "SOURCE": "MEMA", "ADDRESS_1": "95 Pleasant St.", "L_SRC": "MRPC"}},{"geometry": {"type": "Point", "coordinates": [-70.992791614059911, 42.722644191936119]}, "type": "Feature", "id": 157, "properties": {"CITY": "GEORGETOWN", "NAME": "Georgetown Town Hall", "ZIP": "01833", "AREACODE": "978", "L_DATE": "2006-07-07", "TELEPHONE": "352-5711", "SOURCE": "MEMA", "ADDRESS_1": "One Library St.", "L_SRC": "MVPC"}},{"geometry": {"type": "Point", "coordinates": [-72.499764701591161, 42.641245342795003]}, "type": "Feature", "id": 158, "properties": {"CITY": "GILL", "NAME": "Gill Town Hall", "ZIP": "01376", "AREACODE": "413", "L_DATE": "2006-07-07", "TELEPHONE": "863-8103", "SOURCE": "MEMA", "ADDRESS_1": "325 Main Rd.", "L_SRC": "FRCOG"}},{"geometry": {"type": "Point", "coordinates": [-70.662719247873454, 42.614086798290067]}, "type": "Feature", "id": 159, "properties": {"CITY": "GLOUCESTER", "NAME": "Gloucester City Hall", "ZIP": "01930", "AREACODE": "978", "L_DATE": "2006-07-07", "TELEPHONE": "281-9720", "SOURCE": "MEMA", "ADDRESS_1": "9 Dale Ave.", "L_SRC": "MAPC"}},{"geometry": {"type": "Point", "coordinates": [-71.693098444933611, 42.210237079303049]}, "type": "Feature", "id": 160, "properties": {"CITY": "GRAFTON", "NAME": "Grafton Town Hall", "ZIP": "01519", "AREACODE": "508", "L_DATE": "2006-07-07", "TELEPHONE": "839-5335", "SOURCE": "MEMA", "ADDRESS_1": "30 Providence Rd.", "L_SRC": "MEMA"}},{"geometry": {"type": "Point", "coordinates": [-72.515641012771496, 42.257973246701177]}, "type": "Feature", "id": 161, "properties": {"CITY": "GRANBY", "NAME": "Granby Kellogg Hall", "ZIP": "01033", "AREACODE": "413", "L_DATE": "2006-07-07", "TELEPHONE": "467-7178", "SOURCE": "MEMA", "ADDRESS_1": "250 State St.", "L_SRC": "MEMA"}},{"geometry": {"type": "Point", "coordinates": [-72.880610005617442, 42.06695883447734]}, "type": "Feature", "id": 162, "properties": {"CITY": "GRANVILLE", "NAME": "Granville Town Hall", "ZIP": "01034", "AREACODE": "413", "L_DATE": "2006-07-07", "TELEPHONE": "357-8585", "SOURCE": "MEMA", "ADDRESS_1": "707 Main Rd.", "ADDRESS_2": "P.O. Box 247", "L_SRC": "MEMA"}},{"geometry": {"type": "Point", "coordinates": [-73.363741079874799, 42.193795927099252]}, "type": "Feature", "id": 163, "properties": {"CITY": "GREAT BARRINGTON", "NAME": "Great Barrington Town Hall", "ZIP": "01230", "AREACODE": "413", "L_DATE": "2006-07-07", "TELEPHONE": "528-3140", "SOURCE": "MEMA", "ADDRESS_1": "334 Main St.", "L_SRC": "MEMA"}},{"geometry": {"type": "Point", "coordinates": [-72.601269108597549, 42.587491126739792]}, "type": "Feature", "id": 164, "properties": {"CITY": "GREENFIELD", "NAME": "Greenfield Town Hall", "ZIP": "01301", "AREACODE": "413", "L_DATE": "2006-07-07", "TELEPHONE": "772-1555", "SOURCE": "MEMA", "ADDRESS_1": "14 Court Sq.", "L_SRC": "FRCOG"}},{"geometry": {"type": "Point", "coordinates": [-71.571558980510119, 42.607976910484318]}, "type": "Feature", "id": 165, "properties": {"CITY": "GROTON", "NAME": "Groton Town Hall", "ZIP": "01450", "AREACODE": "978", "L_DATE": "2006-07-07", "TELEPHONE": "448-1100", "SOURCE": "MEMA", "ADDRESS_1": "173 Main St.", "L_SRC": "MRPC"}},{"geometry": {"type": "Point", "coordinates": [-71.025470040162375, 42.767956579900158]}, "type": "Feature", "id": 166, "properties": {"CITY": "GROVELAND", "NAME": "Groveland Town Hall", "ZIP": "01834", "AREACODE": "978", "L_DATE": "2006-07-07", "TELEPHONE": "469-5005", "SOURCE": "MEMA", "ADDRESS_1": "183 Main St.", "L_SRC": "MVPC"}},{"geometry": {"type": "Point", "coordinates": [-72.588530857828189, 42.342100003007374]}, "type": "Feature", "id": 167, "properties": {"CITY": "HADLEY", "NAME": "Hadley Town Hall", "ZIP": "01035", "AREACODE": "413", "L_DATE": "2006-07-07", "TELEPHONE": "584-1590", "SOURCE": "MEMA", "ADDRESS_1": "100 Middle St.", "L_SRC": "MEMA"}},{"geometry": {"type": "Point", "coordinates": [-70.860935330571152, 41.991349147974255]}, "type": "Feature", "id": 168, "properties": {"CITY": "HALIFAX", "NAME": "Halifax Town Hall", "ZIP": "02338", "AREACODE": "781", "L_DATE": "2006-07-07", "TELEPHONE": "293-7970", "SOURCE": "MEMA", "ADDRESS_1": "499 Plymouth St.", "L_SRC": "OCPC"}},{"geometry": {"type": "Point", "coordinates": [-72.413954208172726, 42.064511146408755]}, "type": "Feature", "id": 169, "properties": {"CITY": "HAMPDEN", "NAME": "Hampden Town Hall", "ZIP": "01036", "AREACODE": "413", "L_DATE": "2006-07-07", "TELEPHONE": "566-3214", "SOURCE": "MEMA", "ADDRESS_1": "625 Main St.", "ADDRESS_2": "P.O Box 215", "L_SRC": "PVPC"}},{"geometry": {"type": "Point", "coordinates": [-73.310954588414489, 42.547946636083928]}, "type": "Feature", "id": 170, "properties": {"CITY": "HANCOCK", "NAME": "Hancock Town Hall", "ZIP": "01237", "AREACODE": "413", "L_DATE": "2006-07-07", "TELEPHONE": "738-5225", "SOURCE": "MEMA", "ADDRESS_1": "3650 Hancock Rd.", "L_SRC": "MEMA"}},{"geometry": {"type": "Point", "coordinates": [-70.84364624697487, 42.116255382918887]}, "type": "Feature", "id": 171, "properties": {"CITY": "HANOVER", "NAME": "Hanover Town Hall", "ZIP": "02339", "AREACODE": "781", "L_DATE": "2006-07-07", "TELEPHONE": "826-2691", "SOURCE": "MEMA", "ADDRESS_1": "550 Hanover St.", "L_SRC": "MEMA"}},{"geometry": {"type": "Point", "coordinates": [-70.866662900634822, 42.065155900757119]}, "type": "Feature", "id": 172, "properties": {"CITY": "HANSON", "NAME": "Hanson Town Hall", "ZIP": "02341", "AREACODE": "781", "L_DATE": "2006-07-07", "TELEPHONE": "293-2772", "SOURCE": "MEMA", "ADDRESS_1": "542 Liberty St.", "L_SRC": "OCPC"}},{"geometry": {"type": "Point", "coordinates": [-72.210384777048318, 42.306616400179628]}, "type": "Feature", "id": 173, "properties": {"CITY": "HARDWICK", "NAME": "Hardwick Town Hall", "ZIP": "01031", "AREACODE": "413", "L_DATE": "2006-07-07", "TELEPHONE": "477-6700", "SOURCE": "MEMA", "ADDRESS_1": "307 Main St.", "ADDRESS_2": "P.O. Box 575", "L_SRC": "MEMA"}},{"geometry": {"type": "Point", "coordinates": [-71.584650353554068, 42.50259980194874]}, "type": "Feature", "id": 174, "properties": {"CITY": "HARVARD", "NAME": "Harvard Town Hall", "ZIP": "01451", "AREACODE": "978", "L_DATE": "2006-07-07", "TELEPHONE": "456-4100", "SOURCE": "MEMA", "ADDRESS_1": "13 Ayer Rd.", "L_SRC": "MRPC"}},{"geometry": {"type": "Point", "coordinates": [-70.072881586477649, 41.68654069589784]}, "type": "Feature", "id": 175, "properties": {"CITY": "HARWICH", "NAME": "Harwich Town Hall", "ZIP": "02645", "AREACODE": "508", "L_DATE": "2006-07-07", "TELEPHONE": "430-7516", "SOURCE": "MEMA", "ADDRESS_1": "732 Main St.", "L_SRC": "CAPECODCO"}},{"geometry": {"type": "Point", "coordinates": [-72.596866866327289, 42.372599742442624]}, "type": "Feature", "id": 176, "properties": {"CITY": "HATFIELD", "NAME": "Hatfield Town Hall", "ZIP": "01038", "AREACODE": "413", "L_DATE": "2006-07-07", "TELEPHONE": "247-0492", "SOURCE": "MEMA", "ADDRESS_1": "59 Main St.", "L_SRC": "PVPC"}},{"geometry": {"type": "Point", "coordinates": [-71.076764812528651, 42.777972684500241]}, "type": "Feature", "id": 177, "properties": {"CITY": "HAVERHILL", "NAME": "Haverhill City Hall", "ZIP": "01830", "AREACODE": "978", "L_DATE": "2006-07-07", "TELEPHONE": "374-2312", "SOURCE": "MEMA", "ADDRESS_1": "4 Summer St.", "L_SRC": "MVPC"}},{"geometry": {"type": "Point", "coordinates": [-70.885797798677814, 42.23132305545564]}, "type": "Feature", "id": 178, "properties": {"CITY": "HINGHAM", "NAME": "Hingham Town Hall", "ZIP": "02043", "AREACODE": "781", "L_DATE": "2006-07-07", "TELEPHONE": "741-1410", "SOURCE": "MEMA", "ADDRESS_1": "210 Central St.", "L_SRC": "MAPC"}},{"geometry": {"type": "Point", "coordinates": [-73.122867020460163, 42.437618981163901]}, "type": "Feature", "id": 179, "properties": {"CITY": "HINSDALE", "NAME": "Hinsdale Town Hall", "ZIP": "01235", "AREACODE": "413", "L_DATE": "2006-07-07", "TELEPHONE": "655-2301", "SOURCE": "MEMA", "ADDRESS_1": "39 South St.", "ADDRESS_2": "P.O. Box 803", "L_SRC": "BRPC"}},{"geometry": {"type": "Point", "coordinates": [-71.862427429302073, 42.351181016213935]}, "type": "Feature", "id": 180, "properties": {"CITY": "HOLDEN", "NAME": "Holden Town Hall", "ZIP": "01520", "AREACODE": "508", "L_DATE": "2006-07-07", "TELEPHONE": "829-0265", "SOURCE": "MEMA", "ADDRESS_1": "1196 Main St.", "L_SRC": "MEMA"}},{"geometry": {"type": "Point", "coordinates": [-72.160430527680958, 42.065389040207151]}, "type": "Feature", "id": 181, "properties": {"CITY": "HOLLAND", "NAME": "Holland Town Hall", "ZIP": "01521", "AREACODE": "413", "L_DATE": "2006-07-07", "TELEPHONE": "245-7108", "SOURCE": "MEMA", "ADDRESS_1": "27 Sturbridge Rd.", "L_SRC": "MEMA"}},{"geometry": {"type": "Point", "coordinates": [-71.429494796571831, 42.202192144870281]}, "type": "Feature", "id": 182, "properties": {"CITY": "HOLLISTON", "NAME": "Holliston Town Hall", "ZIP": "01746", "AREACODE": "508", "L_DATE": "2006-07-07", "TELEPHONE": "429-0601", "SOURCE": "MEMA", "ADDRESS_1": "703 Washington St.", "L_SRC": "MAPC"}},{"geometry": {"type": "Point", "coordinates": [-72.607441541216389, 42.206613573213488]}, "type": "Feature", "id": 183, "properties": {"CITY": "HOLYOKE", "NAME": "Holyoke City Hall", "ZIP": "01040", "AREACODE": "413", "L_DATE": "2006-07-07", "TELEPHONE": "322-5540", "SOURCE": "MEMA", "ADDRESS_1": "536 Dwight St.", "L_SRC": "MEMA"}},{"geometry": {"type": "Point", "coordinates": [-71.539832853356756, 42.128967126237796]}, "type": "Feature", "id": 184, "properties": {"CITY": "HOPEDALE", "NAME": "Hopedale Town Hall", "ZIP": "01747", "AREACODE": "508", "L_DATE": "2006-07-07", "TELEPHONE": "634-2203", "SOURCE": "MEMA", "ADDRESS_1": "78 Hopedale St.", "ADDRESS_2": "P.O. Box 7", "L_SRC": "MEMA"}},{"geometry": {"type": "Point", "coordinates": [-71.519275937111829, 42.229608724542054]}, "type": "Feature", "id": 185, "properties": {"CITY": "HOPKINTON", "NAME": "Hopkinton Town Hall", "ZIP": "01748", "AREACODE": "508", "L_DATE": "2006-07-07", "TELEPHONE": "497-9710", "SOURCE": "MEMA", "ADDRESS_1": "18 Main St.", "L_SRC": "MEMA"}},{"geometry": {"type": "Point", "coordinates": [-72.007352713161879, 42.474572543558196]}, "type": "Feature", "id": 186, "properties": {"CITY": "HUBBARDSTON", "NAME": "Hubbardston Town Hall", "ZIP": "01452", "AREACODE": "978", "L_DATE": "2006-07-07", "TELEPHONE": "928-5244", "SOURCE": "MEMA", "ADDRESS_1": "7 Main St.", "ADDRESS_2": "P.O. Box H", "L_SRC": "MEMA"}},{"geometry": {"type": "Point", "coordinates": [-71.567742692798319, 42.391571760109969]}, "type": "Feature", "id": 187, "properties": {"CITY": "HUDSON", "NAME": "Hudson Town Hall", "ZIP": "01749", "AREACODE": "978", "L_DATE": "2006-07-07", "TELEPHONE": "568-9615", "SOURCE": "MEMA", "ADDRESS_1": "78 Main St.", "L_SRC": "MAPC"}},{"geometry": {"type": "Point", "coordinates": [-70.845976094973821, 42.265239059302225]}, "type": "Feature", "id": 188, "properties": {"CITY": "HULL", "NAME": "Hull Town Hall", "ZIP": "02045", "AREACODE": "781", "L_DATE": "2006-07-07", "TELEPHONE": "925-2262", "SOURCE": "MEMA", "ADDRESS_1": "253 Atlantic Ave.", "L_SRC": "MAPC"}},{"geometry": {"type": "Point", "coordinates": [-72.87696801744039, 42.231433488904862]}, "type": "Feature", "id": 189, "properties": {"CITY": "HUNTINGTON", "NAME": "Huntington Town Hall", "ZIP": "01050", "AREACODE": "413", "L_DATE": "2006-07-07", "TELEPHONE": "667-3186", "SOURCE": "MEMA", "ADDRESS_1": "24 Russell Rd.", "ADDRESS_2": "P.O. Box 523", "L_SRC": "MEMA"}},{"geometry": {"type": "Point", "coordinates": [-70.929622329265328, 41.421136417218655]}, "type": "Feature", "id": 190, "properties": {"CITY": "GOSNOLD", "NAME": "Gosnold Town Hall", "ZIP": "02713", "AREACODE": "508", "L_DATE": "2005-03-14", "TELEPHONE": "990-7408", "SOURCE": "MEMA", "ADDRESS_1": "28 Tower Road", "L_SRC": "MEMA"}},{"geometry": {"type": "Point", "coordinates": [-70.957554779388758, 42.117778264608766]}, "type": "Feature", "id": 191, "properties": {"CITY": "ABINGTON", "NAME": "Abington Town Hall", "ZIP": "02351", "AREACODE": "781", "L_DATE": "2006-07-12", "TELEPHONE": "982-2112", "SOURCE": "MEMA", "ADDRESS_1": "500 Gliniewicz Way", "L_SRC": "MEMA"}},{"geometry": {"type": "Point", "coordinates": [-72.741644797820484, 42.603885071356899]}, "type": "Feature", "id": 192, "properties": {"CITY": "BUCKLAND", "NAME": "Buckland Town Hall", "ZIP": "01370", "AREACODE": "413", "L_DATE": "2006-07-12", "TELEPHONE": "625-8572", "SOURCE": "MEMA", "ADDRESS_1": "17 State St.", "ADDRESS_2": "P.O. Box 418", "L_SRC": "FRCOG"}},{"geometry": {"type": "Point", "coordinates": [-71.118515945630847, 41.836915097879604]}, "type": "Feature", "id": 193, "properties": {"CITY": "DIGHTON", "NAME": "Dighton Town Hall", "ZIP": "02715", "AREACODE": "508", "L_DATE": "2006-07-12", "TELEPHONE": "669-5411", "SOURCE": "MEMA", "ADDRESS_1": "979 Somerset Ave.", "L_SRC": "SRPEDD"}},{"geometry": {"type": "Point", "coordinates": [-72.029932497068316, 42.214028291149702]}, "type": "Feature", "id": 194, "properties": {"CITY": "EAST BROOKFIELD", "NAME": "East Brookfield Town Hall", "ZIP": "01515", "AREACODE": "508", "L_DATE": "2006-07-12", "TELEPHONE": "867-6769", "SOURCE": "MEMA", "ADDRESS_1": "101 Depot Sq.", "ADDRESS_2": "P.O.Box 568", "L_SRC": "MEMA"}},{"geometry": {"type": "Point", "coordinates": [-71.154677448772631, 41.701941451424517]}, "type": "Feature", "id": 195, "properties": {"CITY": "FALL RIVER", "NAME": "Fall River City Hall", "ZIP": "02722", "AREACODE": "508", "L_DATE": "2006-07-12", "TELEPHONE": "324-2634", "SOURCE": "MEMA", "ADDRESS_1": "1 Government Center", "L_SRC": "SRPEDD"}},{"geometry": {"type": "Point", "coordinates": [-70.927432796562826, 41.635546167043422]}, "type": "Feature", "id": 196, "properties": {"CITY": "NEW BEDFORD", "NAME": "New Bedford Town Hall", "ZIP": "02740", "AREACODE": "508", "L_DATE": "2006-07-12", "TELEPHONE": "979-1420", "SOURCE": "MEMA", "ADDRESS_1": "133 Williams St.", "L_SRC": "SRPEDD"}},{"geometry": {"type": "Point", "coordinates": [-72.122725563667572, 42.31735935822168]}, "type": "Feature", "id": 197, "properties": {"CITY": "NEW BRAINTREE", "NAME": "New Braintree Town Hall", "ZIP": "01531", "AREACODE": "508", "L_DATE": "2006-07-12", "TELEPHONE": "967-4952", "SOURCE": "MEMA", "ADDRESS_1": "20 Memorial Dr.", "L_SRC": "MEMA"}},{"geometry": {"type": "Point", "coordinates": [-70.199030273785027, 41.663881341992216]}, "type": "Feature", "id": 198, "properties": {"CITY": "YARMOUTH", "NAME": "Yarmouth Town Hall", "ZIP": "02664", "AREACODE": "508", "L_DATE": "2007-02-21", "TELEPHONE": "398-2231", "SOURCE": "MEMA", "ADDRESS_1": "1146 Route 28", "L_SRC": "MassGIS"}},{"geometry": {"type": "Point", "coordinates": [-72.220354694686947, 42.073461532948748]}, "type": "Feature", "id": 199, "properties": {"CITY": "WALES", "NAME": "Wales Town Hall", "ZIP": "01081", "AREACODE": "413", "L_DATE": "2006-07-11", "TELEPHONE": "245-7571", "SOURCE": "MEMA", "ADDRESS_1": "3 Hollow Rd.", "L_SRC": "PVPC"}},{"geometry": {"type": "Point", "coordinates": [-73.009402712987466, 42.34452273349563]}, "type": "Feature", "id": 200, "properties": {"CITY": "MIDDLEFIELD", "NAME": "Middlefield Town Hall", "ZIP": "01243", "AREACODE": "413", "L_DATE": "2006-07-11", "TELEPHONE": "623-2079", "SOURCE": "MEMA", "ADDRESS_1": "188 Skyline Trail", "L_SRC": "PVPC"}},{"geometry": {"type": "Point", "coordinates": [-72.93698261526211, 42.399442046350408]}, "type": "Feature", "id": 201, "properties": {"CITY": "WORTHINGTON", "NAME": "Worthington Town Hall", "ZIP": "01098", "AREACODE": "413", "L_DATE": "2006-07-11", "TELEPHONE": "238-5578", "SOURCE": "MEMA", "ADDRESS_1": "160 Huntington Rd.", "L_SRC": "MEMA"}},{"geometry": {"type": "Point", "coordinates": [-72.799783759347733, 42.441503739969541]}, "type": "Feature", "id": 202, "properties": {"CITY": "GOSHEN", "NAME": "Goshen Town Hall", "ZIP": "01032", "AREACODE": "413", "L_DATE": "2006-07-11", "TELEPHONE": "268-8236", "SOURCE": "MEMA", "ADDRESS_1": "40/42 Main St.", "L_SRC": "PVPC"}},{"geometry": {"type": "Point", "coordinates": [-72.10872553069909, 42.423270266604277]}, "type": "Feature", "id": 203, "properties": {"CITY": "BARRE", "NAME": "Barre Town Offices", "ZIP": "01005", "AREACODE": "978", "L_DATE": "2006-07-11", "TELEPHONE": "355-5003", "SOURCE": "MEMA", "ADDRESS_1": "40 West St", "L_SRC": "MEMA"}},{"geometry": {"type": "Point", "coordinates": [-71.465035840421635, 42.261759124876974]}, "type": "Feature", "id": 204, "properties": {"CITY": "ASHLAND", "NAME": "Ashland Town Hall", "ZIP": "01721", "AREACODE": "508", "L_DATE": "2005-07-28", "TELEPHONE": "881-0101", "SOURCE": "MEMA", "ADDRESS_1": "101 Main Street", "L_SRC": "MAPC"}},{"geometry": {"type": "Point", "coordinates": [-71.134612954097719, 42.452741071567004]}, "type": "Feature", "id": 205, "properties": {"CITY": "WINCHESTER", "NAME": "Winchester Town Hall", "ZIP": "01890", "AREACODE": "781", "L_DATE": "2006-07-11", "TELEPHONE": "721-7133", "SOURCE": "MEMA", "ADDRESS_1": "71 Mount Vernon Street", "L_SRC": "MAPC"}},{"geometry": {"type": "Point", "coordinates": [-70.933287315892912, 42.856377987872399]}, "type": "Feature", "id": 206, "properties": {"CITY": "AMESBURY", "NAME": "Amesbury Town Hall", "ZIP": "01913", "AREACODE": "978", "L_DATE": "2006-07-07", "TELEPHONE": "388-8100", "SOURCE": "MEMA", "ADDRESS_1": "62 Friend St.", "L_SRC": "MVPC"}},{"geometry": {"type": "Point", "coordinates": [-71.281775891510904, 42.491627971450953]}, "type": "Feature", "id": 207, "properties": {"CITY": "BEDFORD", "NAME": "Bedford Town Hall", "ZIP": "01730", "AREACODE": "781", "L_DATE": "2006-07-07", "TELEPHONE": "275-0083", "SOURCE": "MEMA", "ADDRESS_1": "10 Mudge Way", "L_SRC": "MAPC"}},{"geometry": {"type": "Point", "coordinates": [-71.009218993804538, 42.156033034374964]}, "type": "Feature", "id": 208, "properties": {"CITY": "HOLBROOK", "NAME": "Holbrook Town Hall", "ZIP": "02343", "AREACODE": "781", "L_DATE": "2006-07-07", "TELEPHONE": "767-4314", "SOURCE": "MEMA", "ADDRESS_1": "50 North Franklin St.", "L_SRC": "MEMA"}},{"geometry": {"type": "Point", "coordinates": [-71.345968602925453, 42.283692738115157]}, "type": "Feature", "id": 209, "properties": {"CITY": "NATICK", "NAME": "Natick Town Hall", "ZIP": "01760", "AREACODE": "508", "L_DATE": "2006-07-07", "TELEPHONE": "647-6430", "SOURCE": "MEMA", "ADDRESS_1": "13 East Central St.", "L_SRC": "MAPC"}},{"geometry": {"type": "Point", "coordinates": [-71.236411338193221, 42.281028928658394]}, "type": "Feature", "id": 210, "properties": {"CITY": "NEEDHAM", "NAME": "Needham Town Hall", "ZIP": "02492", "AREACODE": "781", "L_DATE": "2006-07-07", "TELEPHONE": "455-7510", "SOURCE": "MEMA", "ADDRESS_1": "1471 Highland Ave.", "ADDRESS_2": "P.O. Box 920663", "L_SRC": "MEMA"}},{"geometry": {"type": "Point", "coordinates": [-71.249876323003178, 42.145545237051223]}, "type": "Feature", "id": 211, "properties": {"CITY": "WALPOLE", "NAME": "Walpole Town Hall", "ZIP": "02081", "AREACODE": "508", "L_DATE": "2006-07-07", "TELEPHONE": "660-7296", "SOURCE": "MEMA", "ADDRESS_1": "135 School St.", "L_SRC": "MEMA"}},{"geometry": {"type": "Point", "coordinates": [-72.242530582876768, 42.260331016972444]}, "type": "Feature", "id": 212, "properties": {"CITY": "WARE", "NAME": "Ware Town Hall", "ZIP": "01082", "AREACODE": "413", "L_DATE": "2006-07-07", "TELEPHONE": "967-4471", "SOURCE": "MEMA", "ADDRESS_1": "126 Main St.", "L_SRC": "PVPC"}},{"geometry": {"type": "Point", "coordinates": [-70.724066438239532, 41.75933549506891]}, "type": "Feature", "id": 213, "properties": {"CITY": "WAREHAM", "NAME": "Wareham Town Hall", "ZIP": "02571", "AREACODE": "508", "L_DATE": "2006-07-07", "TELEPHONE": "291-3140", "SOURCE": "MEMA", "ADDRESS_1": "54 Marion Rd.", "L_SRC": "SRPEDD"}},{"geometry": {"type": "Point", "coordinates": [-73.058350037456734, 42.276793620466918]}, "type": "Feature", "id": 214, "properties": {"CITY": "BECKET", "NAME": "Becket Town Hall", "ZIP": "01223", "AREACODE": "413", "L_DATE": "2006-07-07", "TELEPHONE": "623-8934", "SOURCE": "MEMA", "ADDRESS_1": "557 Main Street", "L_SRC": "BRPC"}},{"geometry": {"type": "Point", "coordinates": [-71.433553555173859, 42.486110618295442]}, "type": "Feature", "id": 215, "properties": {"CITY": "ACTON", "NAME": "Acton Town Hall", "ZIP": "01720", "AREACODE": "978", "L_DATE": "2006-07-07", "TELEPHONE": "264-9615", "SOURCE": "MEMA", "ADDRESS_1": "472 Main St.", "L_SRC": "MEMA"}},{"geometry": {"type": "Point", "coordinates": [-70.909459006914489, 41.683368425081049]}, "type": "Feature", "id": 216, "properties": {"CITY": "ACUSHNET", "NAME": "Acushnet Town Hall", "ZIP": "02743", "AREACODE": "508", "L_DATE": "2006-07-07", "TELEPHONE": "998-0215", "SOURCE": "MEMA", "ADDRESS_1": "122 Main St.", "L_SRC": "MEMA"}},{"geometry": {"type": "Point", "coordinates": [-73.120963926610855, 42.62138955625106]}, "type": "Feature", "id": 217, "properties": {"CITY": "ADAMS", "NAME": "Adams Town Hall", "ZIP": "01220", "AREACODE": "413", "L_DATE": "2006-07-07", "TELEPHONE": "743-8320", "SOURCE": "MEMA", "ADDRESS_1": "8 Park St.", "L_SRC": "MEMA"}},{"geometry": {"type": "Point", "coordinates": [-72.626070440529048, 42.088528630756514]}, "type": "Feature", "id": 218, "properties": {"CITY": "AGAWAM", "NAME": "Agawam Town Hall", "ZIP": "01001", "AREACODE": "413", "L_DATE": "2006-07-07", "TELEPHONE": "786-0400", "SOURCE": "MEMA", "ADDRESS_1": "36 Main St.", "L_SRC": "MEMA"}},{"geometry": {"type": "Point", "coordinates": [-72.518658800123134, 42.375573375337311]}, "type": "Feature", "id": 219, "properties": {"CITY": "AMHERST", "NAME": "Amherst Town Hall", "ZIP": "01002", "AREACODE": "413", "L_DATE": "2006-07-07", "TELEPHONE": "256-4035", "SOURCE": "MEMA", "ADDRESS_1": "4 Boltwood Ave.", "L_SRC": "MEMA"}},{"geometry": {"type": "Point", "coordinates": [-71.136348195247962, 42.654440802896808]}, "type": "Feature", "id": 220, "properties": {"CITY": "ANDOVER", "NAME": "Andover Town Hall", "ZIP": "01810", "AREACODE": "978", "L_DATE": "2006-07-07", "TELEPHONE": "623-8259", "SOURCE": "MEMA", "ADDRESS_1": "36 Bartlet St.", "L_SRC": "MVPC"}},{"geometry": {"type": "Point", "coordinates": [-71.156334192089034, 42.415768938201602]}, "type": "Feature", "id": 221, "properties": {"CITY": "ARLINGTON", "NAME": "Arlington Town Hall", "ZIP": "02476", "AREACODE": "781", "L_DATE": "2006-07-07", "TELEPHONE": "316-3071", "SOURCE": "MEMA", "ADDRESS_1": "730 Massachusetts Ave.", "L_SRC": "MAPC"}},{"geometry": {"type": "Point", "coordinates": [-71.909011865698218, 42.63628277134594]}, "type": "Feature", "id": 222, "properties": {"CITY": "ASHBURNHAM", "NAME": "Ashburnham Town Hall", "ZIP": "01430", "AREACODE": "978", "L_DATE": "2006-07-07", "TELEPHONE": "827-4102", "SOURCE": "MEMA", "ADDRESS_1": "32 Main St.", "L_SRC": "MRPC"}},{"geometry": {"type": "Point", "coordinates": [-71.822391585140139, 42.678470521564762]}, "type": "Feature", "id": 223, "properties": {"CITY": "ASHBY", "NAME": "Ashby Town Hall", "ZIP": "01431", "AREACODE": "978", "L_DATE": "2006-07-07", "TELEPHONE": "386-2424", "SOURCE": "MEMA", "ADDRESS_1": "895 Main St.", "L_SRC": "MRPC"}},{"geometry": {"type": "Point", "coordinates": [-72.791860140968595, 42.526156442907748]}, "type": "Feature", "id": 224, "properties": {"CITY": "ASHFIELD", "NAME": "Ashfield Town Hall", "ZIP": "01330", "AREACODE": "413", "L_DATE": "2006-07-07", "TELEPHONE": "628-4441", "SOURCE": "MEMA", "ADDRESS_1": "412 Main St.", "ADDRESS_2": "POBox 560", "L_SRC": "FRCOG"}},{"geometry": {"type": "Point", "coordinates": [-72.227998711103538, 42.594134574469486]}, "type": "Feature", "id": 225, "properties": {"CITY": "ATHOL", "NAME": "Athol Town Hall", "ZIP": "01331", "AREACODE": "978", "L_DATE": "2006-07-07", "TELEPHONE": "249-4551", "SOURCE": "MEMA", "ADDRESS_1": "584 Main St.", "L_SRC": "MRPC"}},{"geometry": {"type": "Point", "coordinates": [-71.280730113972055, 41.943751688329222]}, "type": "Feature", "id": 226, "properties": {"CITY": "ATTLEBORO", "NAME": "Attleboro City Hall", "ZIP": "02703", "AREACODE": "508", "L_DATE": "2006-07-07", "TELEPHONE": "223-2222", "SOURCE": "MEMA", "ADDRESS_1": "77 Park St.", "L_SRC": "SRPEDD"}},{"geometry": {"type": "Point", "coordinates": [-71.835441460195852, 42.195412187556308]}, "type": "Feature", "id": 227, "properties": {"CITY": "AUBURN", "NAME": "Auburn Town Hall", "ZIP": "01501", "AREACODE": "508", "L_DATE": "2006-07-07", "TELEPHONE": "832-7701", "SOURCE": "MEMA", "ADDRESS_1": "104 Central St.", "L_SRC": "MEMA"}},{"geometry": {"type": "Point", "coordinates": [-71.039287558373999, 42.129093043905797]}, "type": "Feature", "id": 228, "properties": {"CITY": "AVON", "NAME": "Avon Town Hall", "ZIP": "02322", "AREACODE": "508", "L_DATE": "2006-07-07", "TELEPHONE": "588-0414", "SOURCE": "MEMA", "ADDRESS_1": "65 East Main St.", "L_SRC": "MEMA"}},{"geometry": {"type": "Point", "coordinates": [-71.586705650420853, 42.559478964324818]}, "type": "Feature", "id": 229, "properties": {"CITY": "AYER", "NAME": "Ayer Town Hall", "ZIP": "01432", "AREACODE": "978", "L_DATE": "2006-07-07", "TELEPHONE": "772-8215", "SOURCE": "MEMA", "ADDRESS_1": "One Main St.", "ADDRESS_2": "P.O. Box 308", "L_SRC": "MRPC"}},{"geometry": {"type": "Point", "coordinates": [-70.282971439462926, 41.652950024137866]}, "type": "Feature", "id": 230, "properties": {"CITY": "BARNSTABLE", "NAME": "Barnstable Town Hall", "ZIP": "02601", "AREACODE": "508", "L_DATE": "2006-07-07", "TELEPHONE": "862-4044", "SOURCE": "MEMA", "ADDRESS_1": "367 Main St.", "L_SRC": "MEMA"}},{"geometry": {"type": "Point", "coordinates": [-72.400373311823898, 42.276904380178365]}, "type": "Feature", "id": 231, "properties": {"CITY": "BELCHERTOWN", "NAME": "Belchertown Town Hall", "ZIP": "01007", "AREACODE": "413", "L_DATE": "2006-07-07", "TELEPHONE": "323-0281", "SOURCE": "MEMA", "ADDRESS_1": "2 Jabish St.", "ADDRESS_2": "P.O. Box 629", "L_SRC": "MEMA"}},{"geometry": {"type": "Point", "coordinates": [-71.473320438427564, 42.087298090089604]}, "type": "Feature", "id": 232, "properties": {"CITY": "BELLINGHAM", "NAME": "Bellingham Town Hall", "ZIP": "02019", "AREACODE": "508", "L_DATE": "2006-07-07", "TELEPHONE": "966-5827", "SOURCE": "MEMA", "ADDRESS_1": "2 Mechanic St.", "ADDRESS_2": "P.O. Box 367", "L_SRC": "MEMA"}},{"geometry": {"type": "Point", "coordinates": [-71.1772747731697, 42.396635236388555]}, "type": "Feature", "id": 233, "properties": {"CITY": "BELMONT", "NAME": "Belmont Town Hall", "ZIP": "02478", "AREACODE": "617", "L_DATE": "2006-07-07", "TELEPHONE": "489-8203", "SOURCE": "MEMA", "ADDRESS_1": "455 Concord Ave.", "ADDRESS_2": "P.O. Box 56", "L_SRC": "MAPC"}},{"geometry": {"type": "Point", "coordinates": [-71.082868778869809, 41.845358001545797]}, "type": "Feature", "id": 234, "properties": {"CITY": "BERKLEY", "NAME": "Berkley Town Hall", "ZIP": "02779", "AREACODE": "508", "L_DATE": "2006-07-07", "TELEPHONE": "822-3348", "SOURCE": "MEMA", "ADDRESS_1": "One North Main St.", "L_SRC": "SRPEDD"}},{"geometry": {"type": "Point", "coordinates": [-71.640142488642041, 42.381052827430935]}, "type": "Feature", "id": 235, "properties": {"CITY": "BERLIN", "NAME": "Berlin Town Hall", "ZIP": "01503", "AREACODE": "978", "L_DATE": "2006-07-07", "TELEPHONE": "838-2931", "SOURCE": "MEMA", "ADDRESS_1": "23 Linden St.", "L_SRC": "MEMA"}},{"geometry": {"type": "Point", "coordinates": [-72.550668907486923, 42.67142041225388]}, "type": "Feature", "id": 236, "properties": {"CITY": "BERNARDSTON", "NAME": "Bernardston Town Hall", "ZIP": "01337", "AREACODE": "413", "L_DATE": "2006-07-07", "TELEPHONE": "648-5408", "SOURCE": "MEMA", "ADDRESS_1": "38 Church St.", "ADDRESS_2": "P.O. Box 504", "L_SRC": "FRCOG"}},{"geometry": {"type": "Point", "coordinates": [-70.878660740828252, 42.54780528834803]}, "type": "Feature", "id": 237, "properties": {"CITY": "BEVERLY", "NAME": "Beverly City Hall", "ZIP": "01915", "AREACODE": "978", "L_DATE": "2006-07-07", "TELEPHONE": "921-6037", "SOURCE": "MEMA", "ADDRESS_1": "191 Cabot St.", "L_SRC": "MAPC"}},{"geometry": {"type": "Point", "coordinates": [-71.27144849141402, 42.562562663900998]}, "type": "Feature", "id": 238, "properties": {"CITY": "BILLERICA", "NAME": "Billerica Town Hall", "ZIP": "01821", "AREACODE": "978", "L_DATE": "2006-07-07", "TELEPHONE": "671-0924", "SOURCE": "MEMA", "ADDRESS_1": "365 Boston Rd.", "L_SRC": "NMCOG"}},{"geometry": {"type": "Point", "coordinates": [-70.8325341574281, 42.679650035328841]}, "type": "Feature", "id": 239, "properties": {"CITY": "IPSWICH", "NAME": "Ipswich Town Hall", "ZIP": "01938", "AREACODE": "978", "L_DATE": "2006-07-07", "TELEPHONE": "356-6600", "SOURCE": "MEMA", "ADDRESS_1": "25 Green St.", "L_SRC": "MAPC"}},{"geometry": {"type": "Point", "coordinates": [-70.918263362282858, 42.469664161296919]}, "type": "Feature", "id": 240, "properties": {"CITY": "SWAMPSCOTT", "NAME": "Swampscott Town Hall", "ZIP": "01907", "AREACODE": "781", "L_DATE": "2006-07-07", "TELEPHONE": "596-8855", "SOURCE": "MEMA", "ADDRESS_1": "22 Monument Ave.", "L_SRC": "MAPC"}},{"geometry": {"type": "Point", "coordinates": [-71.190484883414783, 41.749054967260733]}, "type": "Feature", "id": 241, "properties": {"CITY": "SWANSEA", "NAME": "Swansea Town Hall", "ZIP": "02777", "AREACODE": "508", "L_DATE": "2006-07-07", "TELEPHONE": "678-9389", "SOURCE": "MEMA", "ADDRESS_1": "81 Main St.", "L_SRC": "MEMA"}},{"geometry": {"type": "Point", "coordinates": [-71.089499590930487, 41.901200231278089]}, "type": "Feature", "id": 242, "properties": {"CITY": "TAUNTON", "NAME": "Taunton Town Hall", "ZIP": "02780", "AREACODE": "508", "L_DATE": "2006-07-07", "TELEPHONE": "821-1024", "SOURCE": "MEMA", "ADDRESS_1": "15 Summer St.", "L_SRC": "MEMA"}},{"geometry": {"type": "Point", "coordinates": [-72.054675788498088, 42.597790181329209]}, "type": "Feature", "id": 243, "properties": {"CITY": "TEMPLETON", "NAME": "Templeton Town Hall", "ZIP": "01436", "AREACODE": "978", "L_DATE": "2006-07-07", "TELEPHONE": "939-8466", "SOURCE": "MEMA", "ADDRESS_1": "9 Main St.", "L_SRC": "MRPC"}},{"geometry": {"type": "Point", "coordinates": [-71.234294428802869, 42.611894630600617]}, "type": "Feature", "id": 244, "properties": {"CITY": "TEWKSBURY", "NAME": "Tewksbury Town Hall", "ZIP": "01876", "AREACODE": "978", "L_DATE": "2006-07-07", "TELEPHONE": "640-4355", "SOURCE": "MEMA", "ADDRESS_1": "1009 Main St.", "L_SRC": "NMCOG"}},{"geometry": {"type": "Point", "coordinates": [-70.605062921457744, 41.454268822934615]}, "type": "Feature", "id": 245, "properties": {"CITY": "TISBURY", "NAME": "Tisbury Town Hall", "ZIP": "02568", "AREACODE": "508", "L_DATE": "2006-07-07", "TELEPHONE": "696-4215", "SOURCE": "MEMA", "ADDRESS_1": "51 Spring St.", "ADDRESS_2": "P.O. Box 606", "L_SRC": "MEMA"}},{"geometry": {"type": "Point", "coordinates": [-70.895347621146158, 42.521770354238775]}, "type": "Feature", "id": 246, "properties": {"CITY": "SALEM", "NAME": "Salem City Hall", "ZIP": "01970", "AREACODE": "978", "L_DATE": "2006-07-07", "TELEPHONE": "745-9595", "SOURCE": "MEMA", "ADDRESS_1": "93 Washington St.", "L_SRC": "MAPC"}},{"geometry": {"type": "Point", "coordinates": [-71.103592043546541, 42.525471743228948]}, "type": "Feature", "id": 247, "properties": {"CITY": "READING", "NAME": "Reading Town Hall", "ZIP": "01867", "AREACODE": "781", "L_DATE": "2006-07-07", "TELEPHONE": "942-9050", "SOURCE": "MEMA", "ADDRESS_1": "16 Lowell St.", "L_SRC": "MAPC"}},{"geometry": {"type": "Point", "coordinates": [-71.009180936701313, 42.465290902065504]}, "type": "Feature", "id": 248, "properties": {"CITY": "SAUGUS", "NAME": "Saugus Town Hall", "ZIP": "01906", "AREACODE": "781", "L_DATE": "2006-07-07", "TELEPHONE": "231-4101", "SOURCE": "MEMA", "ADDRESS_1": "298 Central St.", "L_SRC": "MAPC"}},{"geometry": {"type": "Point", "coordinates": [-71.371330410387003, 42.239640419329888]}, "type": "Feature", "id": 249, "properties": {"CITY": "SHERBORN", "NAME": "Sherborn Town Hall", "ZIP": "01770", "AREACODE": "508", "L_DATE": "2006-07-07", "TELEPHONE": "651-7853", "SOURCE": "MEMA", "ADDRESS_1": "19 Washington St.", "L_SRC": "MAPC"}},{"geometry": {"type": "Point", "coordinates": [-72.728861863277828, 42.228855774499664]}, "type": "Feature", "id": 250, "properties": {"CITY": "SOUTHAMPTON", "NAME": "Southampton Town Hall", "ZIP": "01073", "AREACODE": "413", "L_DATE": "2006-07-07", "TELEPHONE": "527-8392", "SOURCE": "MEMA", "ADDRESS_1": "8 East St.", "ADDRESS_2": "P.O. Box 276", "L_SRC": "PVPC"}},{"geometry": {"type": "Point", "coordinates": [-71.098551596599037, 42.48032849135592]}, "type": "Feature", "id": 251, "properties": {"CITY": "STONEHAM", "NAME": "Stoneham Town Hall", "ZIP": "02180", "AREACODE": "781", "L_DATE": "2006-07-07", "TELEPHONE": "279-2650", "SOURCE": "MEMA", "ADDRESS_1": "35 Central St.", "L_SRC": "MAPC"}},{"geometry": {"type": "Point", "coordinates": [-73.002642283179284, 42.081574283321764]}, "type": "Feature", "id": 252, "properties": {"CITY": "TOLLAND", "NAME": "Tolland Town Hall", "ZIP": "01034", "AREACODE": "413", "L_DATE": "2006-07-07", "TELEPHONE": "258-4794", "SOURCE": "MEMA", "ADDRESS_1": "241 West Granville Rd.", "L_SRC": "PVPC"}},{"geometry": {"type": "Point", "coordinates": [-70.951187808979185, 42.641690362991085]}, "type": "Feature", "id": 253, "properties": {"CITY": "TOPSFIELD", "NAME": "Topsfield Town Hall", "ZIP": "01983", "AREACODE": "978", "L_DATE": "2006-07-07", "TELEPHONE": "887-1505", "SOURCE": "MEMA", "ADDRESS_1": "8 West Common St.", "L_SRC": "MAPC"}},{"geometry": {"type": "Point", "coordinates": [-71.706958874207501, 42.667074282566006]}, "type": "Feature", "id": 254, "properties": {"CITY": "TOWNSEND", "NAME": "Townsend Town Hall", "ZIP": "01469", "AREACODE": "978", "L_DATE": "2006-07-07", "TELEPHONE": "597-1704", "SOURCE": "MEMA", "ADDRESS_1": "272 Main St.", "L_SRC": "MRPC"}},{"geometry": {"type": "Point", "coordinates": [-70.056262561274806, 41.99837773173202]}, "type": "Feature", "id": 255, "properties": {"CITY": "TRURO", "NAME": "Truro Town Hall", "ZIP": "02666", "AREACODE": "508", "L_DATE": "2006-07-07", "TELEPHONE": "487-1386", "SOURCE": "MEMA", "ADDRESS_1": "24 Town Hall Rd.", "ADDRESS_2": "P.O. Box 2012", "L_SRC": "MEMA"}},{"geometry": {"type": "Point", "coordinates": [-71.427243363665113, 42.680449387756106]}, "type": "Feature", "id": 256, "properties": {"CITY": "TYNGSBOROUGH", "NAME": "Tyngsborough Town Hall", "ZIP": "01879", "AREACODE": "978", "L_DATE": "2006-07-07", "TELEPHONE": "649-2300", "SOURCE": "MEMA", "ADDRESS_1": "25 Bryants Lane", "L_SRC": "NMCOG"}},{"geometry": {"type": "Point", "coordinates": [-73.204509771202936, 42.246120733409228]}, "type": "Feature", "id": 257, "properties": {"CITY": "TYRINGHAM", "NAME": "Tyringham Town Hall", "ZIP": "01264", "AREACODE": "413", "L_DATE": "2006-07-07", "TELEPHONE": "243-1749", "SOURCE": "MEMA", "ADDRESS_1": "116 Main Rd.", "ADDRESS_2": "P.O. Box 442", "L_SRC": "BRPC"}},{"geometry": {"type": "Point", "coordinates": [-71.603681709018034, 42.173676394440953]}, "type": "Feature", "id": 258, "properties": {"CITY": "UPTON", "NAME": "Upton Town Hall", "ZIP": "01568", "AREACODE": "508", "L_DATE": "2006-07-07", "TELEPHONE": "529-3565", "SOURCE": "MEMA", "ADDRESS_1": "One Main St.", "ADDRESS_2": "P.O. Box 969", "L_SRC": "MEMA"}},{"geometry": {"type": "Point", "coordinates": [-71.628816534315007, 42.075263877454788]}, "type": "Feature", "id": 259, "properties": {"CITY": "UXBRIDGE", "NAME": "Uxbridge Town Hall", "ZIP": "01569", "AREACODE": "508", "L_DATE": "2006-07-07", "TELEPHONE": "278-8608", "SOURCE": "MEMA", "ADDRESS_1": "21 South Main St.", "L_SRC": "MEMA"}},{"geometry": {"type": "Point", "coordinates": [-71.072853184460627, 42.506217788035151]}, "type": "Feature", "id": 260, "properties": {"CITY": "WAKEFIELD", "NAME": "Wakefield Town Hall", "ZIP": "01880", "AREACODE": "781", "L_DATE": "2006-07-07", "TELEPHONE": "246-6383", "SOURCE": "MEMA", "ADDRESS_1": "One Lafayette St.", "L_SRC": "MAPC"}},{"geometry": {"type": "Point", "coordinates": [-71.235265742511217, 42.37614494301544]}, "type": "Feature", "id": 261, "properties": {"CITY": "WALTHAM", "NAME": "Waltham City Hall", "ZIP": "02452", "AREACODE": "781", "L_DATE": "2006-07-07", "TELEPHONE": "314-3120", "SOURCE": "MEMA", "ADDRESS_1": "610 Main St.", "L_SRC": "MAPC"}},{"geometry": {"type": "Point", "coordinates": [-72.198608653980713, 42.211415968384799]}, "type": "Feature", "id": 262, "properties": {"CITY": "WARREN", "NAME": "Warren Town Hall", "ZIP": "01083", "AREACODE": "413", "L_DATE": "2006-07-07", "TELEPHONE": "436-5702", "SOURCE": "MEMA", "ADDRESS_1": "48 High St.", "ADDRESS_2": "P.O. Box 603", "L_SRC": "MEMA"}},{"geometry": {"type": "Point", "coordinates": [-72.33804536039267, 42.682384109880175]}, "type": "Feature", "id": 263, "properties": {"CITY": "WARWICK", "NAME": "Warwick Town Hall", "ZIP": "01378", "AREACODE": "978", "L_DATE": "2006-07-07", "TELEPHONE": "544-8304", "SOURCE": "MEMA", "ADDRESS_1": "12 Athol Rd.", "L_SRC": "FRCOG"}},{"geometry": {"type": "Point", "coordinates": [-72.754425972471736, 42.120503921131331]}, "type": "Feature", "id": 264, "properties": {"CITY": "WESTFIELD", "NAME": "Westfield City Hall", "ZIP": "01085", "AREACODE": "413", "L_DATE": "2006-07-07", "TELEPHONE": "572-6235", "SOURCE": "MEMA", "ADDRESS_1": "59 Court St.", "L_SRC": "MEMA"}},{"geometry": {"type": "Point", "coordinates": [-71.437195561069856, 42.582105166344114]}, "type": "Feature", "id": 265, "properties": {"CITY": "WESTFORD", "NAME": "Westford Town Hall", "ZIP": "01886", "AREACODE": "978", "L_DATE": "2006-07-07", "TELEPHONE": "692-5515", "SOURCE": "MEMA", "ADDRESS_1": "55 Main St.", "L_SRC": "NMCOG"}},{"geometry": {"type": "Point", "coordinates": [-72.774437351840646, 42.304048714223356]}, "type": "Feature", "id": 266, "properties": {"CITY": "WESTHAMPTON", "NAME": "Westhampton Town Hall", "ZIP": "01027", "AREACODE": "413", "L_DATE": "2006-07-07", "TELEPHONE": "527-0463", "SOURCE": "MEMA", "ADDRESS_1": "One South Rd.", "L_SRC": "MEMA"}},{"geometry": {"type": "Point", "coordinates": [-71.911116357672086, 42.545768124545887]}, "type": "Feature", "id": 267, "properties": {"CITY": "WESTMINSTER", "NAME": "Westminster Town Hall", "ZIP": "01473", "AREACODE": "978", "L_DATE": "2006-07-07", "TELEPHONE": "874-7406", "SOURCE": "MEMA", "ADDRESS_1": "3 Bacon St.", "ADDRESS_2": "P.O. Box 456", "L_SRC": "MRPC"}},{"geometry": {"type": "Point", "coordinates": [-71.29879243501631, 42.369335780550983]}, "type": "Feature", "id": 268, "properties": {"CITY": "WESTON", "NAME": "Weston Town Hall", "ZIP": "02493", "AREACODE": "781", "L_DATE": "2006-07-07", "TELEPHONE": "893-7320", "SOURCE": "MEMA", "ADDRESS_1": "Town House Rd.", "ADDRESS_2": "P.O. Box 378", "L_SRC": "MAPC"}},{"geometry": {"type": "Point", "coordinates": [-71.089338416818165, 41.579386978745241]}, "type": "Feature", "id": 269, "properties": {"CITY": "WESTPORT", "NAME": "Westport Town Hall", "ZIP": "02790", "AREACODE": "508", "L_DATE": "2006-07-07", "TELEPHONE": "636-1000", "SOURCE": "MEMA", "ADDRESS_1": "816 Main Rd.", "L_SRC": "MEMA"}},{"geometry": {"type": "Point", "coordinates": [-71.220756088183677, 42.228409576295064]}, "type": "Feature", "id": 270, "properties": {"CITY": "WESTWOOD", "NAME": "Westwood Town Hall", "ZIP": "02090", "AREACODE": "781", "L_DATE": "2006-07-07", "TELEPHONE": "326-3964", "SOURCE": "MEMA", "ADDRESS_1": "580 High St.", "L_SRC": "MEMA"}},{"geometry": {"type": "Point", "coordinates": [-70.939130668518501, 42.221986128823652]}, "type": "Feature", "id": 271, "properties": {"CITY": "WEYMOUTH", "NAME": "Weymouth Town Hall", "ZIP": "02189", "AREACODE": "781", "L_DATE": "2006-07-07", "TELEPHONE": "335-2000", "SOURCE": "MEMA", "ADDRESS_1": "75 Middle St.", "L_SRC": "MAPC"}},{"geometry": {"type": "Point", "coordinates": [-70.935791133697862, 42.081281724079162]}, "type": "Feature", "id": 272, "properties": {"CITY": "WHITMAN", "NAME": "Whitman Town Hall", "ZIP": "02382", "AREACODE": "781", "L_DATE": "2006-07-07", "TELEPHONE": "447-7607", "SOURCE": "MEMA", "ADDRESS_1": "54 South Ave.", "ADDRESS_2": "P.O. Box 426", "L_SRC": "OCPC"}},{"geometry": {"type": "Point", "coordinates": [-72.452036688898488, 42.120485996066741]}, "type": "Feature", "id": 273, "properties": {"CITY": "WILBRAHAM", "NAME": "Wilbraham Town Hall", "ZIP": "01095", "AREACODE": "413", "L_DATE": "2006-07-07", "TELEPHONE": "596-2809", "SOURCE": "MEMA", "ADDRESS_1": "240 Springfield St.", "L_SRC": "MEMA"}},{"geometry": {"type": "Point", "coordinates": [-72.70310786875153, 42.374454213248796]}, "type": "Feature", "id": 274, "properties": {"CITY": "WILLIAMSBURG", "NAME": "Williamsburg Town Hall", "ZIP": "01039", "AREACODE": "413", "L_DATE": "2006-07-07", "TELEPHONE": "268-8402", "SOURCE": "MEMA", "ADDRESS_1": "141 Main St.", "ADDRESS_2": "P.O. Box 44", "L_SRC": "MEMA"}},{"geometry": {"type": "Point", "coordinates": [-73.209566521799402, 42.714634996890872]}, "type": "Feature", "id": 275, "properties": {"CITY": "WILLIAMSTOWN", "NAME": "Williamstown Town Hall", "ZIP": "01267", "AREACODE": "413", "L_DATE": "2006-07-07", "TELEPHONE": "458-9341", "SOURCE": "MEMA", "ADDRESS_1": "31 North St.", "L_SRC": "BRPC"}},{"geometry": {"type": "Point", "coordinates": [-71.180148688135674, 42.565784335149061]}, "type": "Feature", "id": 276, "properties": {"CITY": "WILMINGTON", "NAME": "Wilmington Town Hall", "ZIP": "01887", "AREACODE": "978", "L_DATE": "2006-07-07", "TELEPHONE": "658-2030", "SOURCE": "MEMA", "ADDRESS_1": "121 Glen Rd.", "L_SRC": "MAPC"}},{"geometry": {"type": "Point", "coordinates": [-72.049159983079207, 42.68165306087603]}, "type": "Feature", "id": 277, "properties": {"CITY": "WINCHENDON", "NAME": "Winchendon Town Hall", "ZIP": "01475", "AREACODE": "978", "L_DATE": "2006-07-07", "TELEPHONE": "297-2769", "SOURCE": "MEMA", "ADDRESS_1": "109 Front St.", "L_SRC": "MRPC"}},{"geometry": {"type": "Point", "coordinates": [-70.984664318621299, 42.377615507738291]}, "type": "Feature", "id": 278, "properties": {"CITY": "WINTHROP", "NAME": "Winthrop Town Hall", "ZIP": "02152", "AREACODE": "617", "L_DATE": "2006-07-07", "TELEPHONE": "846-1742", "SOURCE": "MEMA", "ADDRESS_1": "281 Broadway", "L_SRC": "MAPC"}},{"geometry": {"type": "Point", "coordinates": [-71.152569932988598, 42.479095385578873]}, "type": "Feature", "id": 279, "properties": {"CITY": "WOBURN", "NAME": "Woburn City Hall", "ZIP": "01801", "AREACODE": "781", "L_DATE": "2006-07-07", "TELEPHONE": "932-4450", "SOURCE": "MEMA", "ADDRESS_1": "10 Common St.", "L_SRC": "MAPC"}},{"geometry": {"type": "Point", "coordinates": [-71.801880894303778, 42.26252379609631]}, "type": "Feature", "id": 280, "properties": {"CITY": "WORCESTER", "NAME": "Worcester City Hall", "ZIP": "01608", "AREACODE": "508", "L_DATE": "2006-07-07", "TELEPHONE": "799-1134", "SOURCE": "MEMA", "ADDRESS_1": "455 Main St.", "L_SRC": "MEMA"}},{"geometry": {"type": "Point", "coordinates": [-71.329380679934729, 42.065137884867518]}, "type": "Feature", "id": 281, "properties": {"CITY": "WRENTHAM", "NAME": "Wrentham Town Hall", "ZIP": "02093", "AREACODE": "508", "L_DATE": "2006-07-07", "TELEPHONE": "384-5415", "SOURCE": "MEMA", "ADDRESS_1": "79 South St.", "L_SRC": "MEMA"}},{"geometry": {"type": "Point", "coordinates": [-73.414341540264033, 42.236083590336762]}, "type": "Feature", "id": 282, "properties": {"CITY": "ALFORD", "NAME": "Alford Town Hall", "ZIP": "01230", "AREACODE": "413", "L_DATE": "2006-07-07", "TELEPHONE": "528-4536", "SOURCE": "MEMA", "ADDRESS_1": "5 Center Road", "L_SRC": "BRPC"}},{"geometry": {"type": "Point", "coordinates": [-73.428117825054386, 42.190870795110648]}, "type": "Feature", "id": 283, "properties": {"CITY": "EGREMONT", "NAME": "Egremont Town Hall", "ZIP": "01258", "AREACODE": "413", "L_DATE": "2006-07-07", "TELEPHONE": "528-0182", "SOURCE": "BRPC", "ADDRESS_1": "Rte 71", "ADDRESS_2": "Rte 71", "L_SRC": "BRPC"}},{"geometry": {"type": "Point", "coordinates": [-72.631440997229859, 42.701170591713257]}, "type": "Feature", "id": 284, "properties": {"CITY": "LEYDEN", "NAME": "Leyden Town Hall", "ZIP": "01337", "AREACODE": "413", "L_DATE": "2006-07-07", "TELEPHONE": "774-4111", "SOURCE": "MEMA", "ADDRESS_1": "16 West Leyden Rd.", "L_SRC": "FRCOG"}},{"geometry": {"type": "Point", "coordinates": [-73.009746488946334, 42.666150582274483]}, "type": "Feature", "id": 285, "properties": {"CITY": "FLORIDA", "NAME": "Florida Drury Town Hall", "ZIP": "01343", "AREACODE": "413", "L_DATE": "2006-07-07", "TELEPHONE": "664-6685", "SOURCE": "MEMA", "ADDRESS_1": "367 Mohawk Trail", "L_SRC": "MEMA"}},{"geometry": {"type": "Point", "coordinates": [-73.24080714536278, 42.604566833551686]}, "type": "Feature", "id": 286, "properties": {"CITY": "NEW ASHFORD", "NAME": "New Ashford Town Hall", "ZIP": "01237", "AREACODE": "413", "L_DATE": "2006-07-07", "TELEPHONE": "458-5461", "SOURCE": "MEMA", "ADDRESS_1": "188 Mallery Road", "L_SRC": "MEMA"}},{"geometry": {"type": "Point", "coordinates": [-73.056192879842868, 42.511340982371976]}, "type": "Feature", "id": 287, "properties": {"CITY": "WINDSOR", "NAME": "Windsor Town Hall", "ZIP": "01270", "AREACODE": "413", "L_DATE": "2006-07-07", "TELEPHONE": "684-3878", "SOURCE": "MEMA", "ADDRESS_1": "1927 Rte 9", "L_SRC": "MEMA"}},{"geometry": {"type": "Point", "coordinates": [-73.453249544713145, 42.099731984897161]}, "type": "Feature", "id": 288, "properties": {"CITY": "MOUNT WASHINGTON", "NAME": "Mount Washington Town Hall", "ZIP": "01258", "AREACODE": "413", "L_DATE": "2006-07-07", "TELEPHONE": "528-2839", "SOURCE": "BRPC", "ADDRESS_1": "118 East Street", "L_SRC": "BRPC"}},{"geometry": {"type": "Point", "coordinates": [-73.266434827584504, 42.112757910962294]}, "type": "Feature", "id": 289, "properties": {"CITY": "NEW MARLBOROUGH", "NAME": "New Marlborough Town Hall", "ZIP": "01230", "AREACODE": "413", "L_DATE": "2006-07-07", "TELEPHONE": "229-8116", "SOURCE": "BRPC", "ADDRESS_1": "807 Mill River Southfield Rd", "L_SRC": "BRPC"}},{"geometry": {"type": "Point", "coordinates": [-72.913573327777272, 42.603311997593892]}, "type": "Feature", "id": 290, "properties": {"CITY": "HAWLEY", "NAME": "Hawley Town Hall", "ZIP": "01339", "AREACODE": "413", "L_DATE": "2006-07-07", "TELEPHONE": "339-5518", "SOURCE": "REVENUE", "ADDRESS_1": "Pudding Hollow Rd", "L_SRC": "FRCOG"}},{"geometry": {"type": "Point", "coordinates": [-72.555067796744353, 42.609447209164841]}, "type": "Feature", "id": 291, "properties": {"CITY": "MONTAGUE", "NAME": "Montague Town Hall", "ZIP": "01376", "AREACODE": "413", "L_DATE": "2006-07-07", "TELEPHONE": "863-3204", "SOURCE": "MEMA", "ADDRESS_1": "1 Avenue A", "L_SRC": "FRCOG"}},{"geometry": {"type": "Point", "coordinates": [-72.634463691493096, 42.440592216536544]}, "type": "Feature", "id": 292, "properties": {"CITY": "WHATELY", "NAME": "Whately Town Hall", "ZIP": "01093", "AREACODE": "413", "L_DATE": "2006-07-07", "TELEPHONE": "665-4400", "SOURCE": "REVENUE", "ADDRESS_1": "218 Chestnut Plain Rd.", "L_SRC": "FRCOG"}},{"geometry": {"type": "Point", "coordinates": [-72.132151777700599, 42.548935245481786]}, "type": "Feature", "id": 293, "properties": {"CITY": "PHILLIPSTON", "NAME": "Phillipston Town Hall", "ZIP": "01331", "AREACODE": "978", "L_DATE": "2006-07-07", "TELEPHONE": "249-6828", "SOURCE": "MRPC", "ADDRESS_1": "1 The Common", "L_SRC": "MRPC"}},{"geometry": {"type": "Point", "coordinates": [-71.759536410155548, 42.438524968159477]}, "type": "Feature", "id": 294, "properties": {"CITY": "STERLING", "NAME": "Sterling Town Hall", "ZIP": "01564", "AREACODE": "978", "L_DATE": "2006-07-07", "TELEPHONE": "422-8111", "SOURCE": "MRPC", "ADDRESS_1": "1 Park Street", "L_SRC": "MRPC"}},{"geometry": {"type": "Point", "coordinates": [-72.188002660892323, 42.675587347631989]}, "type": "Feature", "id": 295, "properties": {"CITY": "ROYALSTON", "NAME": "Royalston Town Hall", "ZIP": "01368", "AREACODE": "978", "L_DATE": "2006-07-07", "TELEPHONE": "249-0493", "SOURCE": "MRPC", "ADDRESS_1": "5 School Street", "L_SRC": "MRPC"}},{"geometry": {"type": "Point", "coordinates": [-72.39734868515373, 42.5495026310507]}, "type": "Feature", "id": 296, "properties": {"CITY": "WENDELL", "NAME": "Wendell Town Hall", "ZIP": "01380", "AREACODE": "978", "L_DATE": "2006-07-07", "TELEPHONE": "544-6052", "SOURCE": "MEMA", "ADDRESS_1": "270 Wendell Depot Rd", "L_SRC": "FRCOG"}},{"geometry": {"type": "Point", "coordinates": [-72.870654176841995, 42.628460135129174]}, "type": "Feature", "id": 297, "properties": {"CITY": "CHARLEMONT", "NAME": "Charlemont Town Hall", "ZIP": "01339", "AREACODE": "413", "L_DATE": "2006-07-10", "TELEPHONE": "339-4335", "SOURCE": "MEMA", "ADDRESS_1": "157 Main St", "L_SRC": "MEMA"}},{"geometry": {"type": "Point", "coordinates": [-72.409491168366173, 42.451816008814525]}, "type": "Feature", "id": 298, "properties": {"CITY": "SHUTESBURY", "NAME": "Shutesbury Town Hall", "ZIP": "01072", "AREACODE": "413", "L_DATE": "2005-03-14", "TELEPHONE": "259-1204", "SOURCE": "MEMA", "ADDRESS_1": "1 Cooleyville Rd.", "ADDRESS_2": "P.O. Box 264", "L_SRC": "FRCOG"}},{"geometry": {"type": "Point", "coordinates": [-72.82171075094449, 42.673720297619873]}, "type": "Feature", "id": 299, "properties": {"CITY": "HEATH", "NAME": "Heath Town Hall", "ZIP": "01346", "AREACODE": "413", "L_DATE": "2006-07-10", "TELEPHONE": "337-4934", "SOURCE": "MEMA", "ADDRESS_1": "1 East Main St", "L_SRC": "FRCOG"}},{"geometry": {"type": "Point", "coordinates": [-70.854755176034701, 42.619705467136768]}, "type": "Feature", "id": 300, "properties": {"CITY": "HAMILTON", "NAME": "Hamilton Town Hall", "ZIP": "01936", "AREACODE": "978", "L_DATE": "2006-07-11", "TELEPHONE": "468-5572", "SOURCE": "MEMA", "ADDRESS_1": "577 BAY ROAD", "L_SRC": "MAPC"}},{"geometry": {"type": "Point", "coordinates": [-71.057848441892745, 42.360421517155501]}, "type": "Feature", "id": 301, "properties": {"CITY": "BOSTON", "NAME": "Boston City Hall", "ZIP": "02201", "AREACODE": "617", "L_DATE": "2006-07-11", "TELEPHONE": "635-4500", "SOURCE": "MEMA", "ADDRESS_1": "1 City Hall Plz", "L_SRC": "MEMA"}},{"geometry": {"type": "Point", "coordinates": [-70.813294621572339, 41.343306561181755]}, "type": "Feature", "id": 302, "properties": {"CITY": "AQUINNAH", "NAME": "Aquinnah Town Hall", "ZIP": "02535", "AREACODE": "508", "L_DATE": "2006-07-13", "TELEPHONE": "645-2306", "SOURCE": "MEMA", "ADDRESS_1": "65 State Rd.", "L_SRC": "MEMA"}},{"geometry": {"type": "Point", "coordinates": [-70.514633147192285, 41.389944886525299]}, "type": "Feature", "id": 303, "properties": {"CITY": "EDGARTOWN", "NAME": "Edgartown Town Hall", "ZIP": "02539", "AREACODE": "508", "L_DATE": "2006-07-13", "TELEPHONE": "627-6110", "SOURCE": "MEMA", "ADDRESS_1": "70 Main St.", "ADDRESS_2": "P.O. Box 35", "L_SRC": "MEMA"}},{"geometry": {"type": "Point", "coordinates": [-73.096951614373609, 42.101105913666821]}, "type": "Feature", "id": 304, "properties": {"CITY": "SANDISFIELD", "NAME": "Sanisfield Old Town Hall", "ZIP": "01255", "AREACODE": "413", "L_DATE": "2007-01-02", "TELEPHONE": "258-4711", "SOURCE": "MEMA", "ADDRESS_1": "3 Silver Brook Rd", "L_SRC": "MEMA"}},{"geometry": {"type": "Point", "coordinates": [-71.11496318977207, 42.696637657057799]}, "type": "Feature", "id": 305, "properties": {"CITY": "NORTH ANDOVER", "NAME": "North Andover Town Offices", "ZIP": "01845", "AREACODE": "978", "L_DATE": "2007-01-02", "TELEPHONE": "688-9533", "SOURCE": "MEMA", "ADDRESS_1": "1600 Osgood", "L_SRC": "MAPC"}},{"geometry": {"type": "Point", "coordinates": [-70.881457621895933, 42.708124052396386]}, "type": "Feature", "id": 306, "properties": {"CITY": "ROWLEY", "NAME": "Rowley Town Hall Annex", "ZIP": "01969", "AREACODE": "978", "L_DATE": "2007-01-02", "TELEPHONE": "948-5549", "SOURCE": "MEMA", "ADDRESS_1": "39 Main St", "L_SRC": "MEMA"}},{"geometry": {"type": "Point", "coordinates": [-70.88581212850832, 42.608423645176416]}, "type": "Feature", "id": 307, "properties": {"CITY": "WENHAM", "NAME": "Wenham Town Hall - TEMP Location", "ZIP": "01984", "AREACODE": "978", "L_DATE": "2006-07-07", "TELEPHONE": "468-5520", "SOURCE": "MEMA", "ADDRESS_1": "5 School St", "L_SRC": "MAPC"}},{"geometry": {"type": "Point", "coordinates": [-72.185896929138195, 42.488307279349002]}, "type": "Feature", "id": 308, "properties": {"CITY": "PETERSHAM", "NAME": "Petersham Town Hall", "ZIP": "01366", "AREACODE": "978", "L_DATE": "2006-07-07", "TELEPHONE": "724-6649", "SOURCE": "MEMA", "ADDRESS_1": "3 South Main St.", "ADDRESS_2": "P.O. Box 486", "L_SRC": "MRPC"}},{"geometry": {"type": "Point", "coordinates": [-73.25193744185917, 42.449671464674324]}, "type": "Feature", "id": 309, "properties": {"CITY": "PITTSFIELD", "NAME": "Pittsfield City Hall", "ZIP": "01201", "AREACODE": "413", "L_DATE": "2006-07-07", "TELEPHONE": "499-9460", "SOURCE": "MEMA", "ADDRESS_1": "70 Allen St.", "L_SRC": "MEMA"}},{"geometry": {"type": "Point", "coordinates": [-72.916524071449601, 42.516197926994877]}, "type": "Feature", "id": 310, "properties": {"CITY": "PLAINFIELD", "NAME": "Plainfield Town Hall", "ZIP": "01070", "AREACODE": "413", "L_DATE": "2006-07-07", "TELEPHONE": "634-5417", "SOURCE": "MEMA", "ADDRESS_1": "344 Main St.", "L_SRC": "MEMA"}},{"geometry": {"type": "Point", "coordinates": [-71.337050404405588, 42.005794126853068]}, "type": "Feature", "id": 311, "properties": {"CITY": "PLAINVILLE", "NAME": "Plainville Town Hall", "ZIP": "02762", "AREACODE": "508", "L_DATE": "2006-07-07", "TELEPHONE": "695-3142", "SOURCE": "MEMA", "ADDRESS_1": "142 South St.", "ADDRESS_2": "P.O. Box 1717", "L_SRC": "SRPEDD"}},{"geometry": {"type": "Point", "coordinates": [-70.658511066556414, 41.953837469742716]}, "type": "Feature", "id": 312, "properties": {"CITY": "PLYMOUTH", "NAME": "Plymouth Town Hall", "ZIP": "02360", "AREACODE": "508", "L_DATE": "2006-07-07", "TELEPHONE": "830-4050", "SOURCE": "MEMA", "ADDRESS_1": "11 Lincoln St.", "L_SRC": "OCPC"}},{"geometry": {"type": "Point", "coordinates": [-70.816681375897517, 41.957244928395966]}, "type": "Feature", "id": 313, "properties": {"CITY": "PLYMPTON", "NAME": "Plympton Town Hall", "ZIP": "02367", "AREACODE": "781", "L_DATE": "2006-07-07", "TELEPHONE": "585-3220", "SOURCE": "MEMA", "ADDRESS_1": "5 Palmer Rd.", "ADDRESS_2": "P.O. Box 153", "L_SRC": "OCPC"}},{"geometry": {"type": "Point", "coordinates": [-70.822452663671726, 41.731588898487644]}, "type": "Feature", "id": 314, "properties": {"CITY": "ROCHESTER", "NAME": "Rochester Town Hall", "ZIP": "02770", "AREACODE": "508", "L_DATE": "2006-07-07", "TELEPHONE": "763-3866", "SOURCE": "MEMA", "ADDRESS_1": "One Constitution Way", "L_SRC": "MEMA"}},{"geometry": {"type": "Point", "coordinates": [-70.915648194604344, 42.128761864521593]}, "type": "Feature", "id": 315, "properties": {"CITY": "ROCKLAND", "NAME": "Rockland Town Hall", "ZIP": "02370", "AREACODE": "781", "L_DATE": "2006-07-07", "TELEPHONE": "871-1892", "SOURCE": "MEMA", "ADDRESS_1": "242 Union St.", "L_SRC": "MEMA"}},{"geometry": {"type": "Point", "coordinates": [-70.619518493722865, 42.656708805398139]}, "type": "Feature", "id": 316, "properties": {"CITY": "ROCKPORT", "NAME": "Rockport Town Hall", "ZIP": "01966", "AREACODE": "978", "L_DATE": "2006-07-07", "TELEPHONE": "546-6894", "SOURCE": "MEMA", "ADDRESS_1": "34 Broadway", "ADDRESS_2": "P.O. Box 429", "L_SRC": "MAPC"}},{"geometry": {"type": "Point", "coordinates": [-72.898413604005796, 42.69476085816121]}, "type": "Feature", "id": 317, "properties": {"CITY": "ROWE", "NAME": "Rowe Town Hall", "ZIP": "01367", "AREACODE": "413", "L_DATE": "2006-07-07", "TELEPHONE": "339-5520", "SOURCE": "MEMA", "ADDRESS_1": "321 Zoar Rd.", "ADDRESS_2": "P.O. Box 308", "L_SRC": "MEMA"}},{"geometry": {"type": "Point", "coordinates": [-70.879942218967116, 42.714721710799651]}, "type": "Feature", "id": 318, "properties": {"CITY": "ROWLEY", "NAME": "Rowley Town Hall", "ZIP": "01969", "AREACODE": "978", "L_DATE": "2006-07-07", "TELEPHONE": "948-2081", "SOURCE": "MEMA", "ADDRESS_1": "139 Main St.", "ADDRESS_2": "P.O. Box 351", "L_SRC": "MVPC"}},{"geometry": {"type": "Point", "coordinates": [-72.856593140116587, 42.189985210870368]}, "type": "Feature", "id": 319, "properties": {"CITY": "RUSSELL", "NAME": "Russell Town Hall", "ZIP": "01071", "AREACODE": "413", "L_DATE": "2006-07-07", "TELEPHONE": "862-3265", "SOURCE": "MEMA", "ADDRESS_1": "65 Main St.", "ADDRESS_2": "P.O. Box 407", "L_SRC": "MEMA"}},{"geometry": {"type": "Point", "coordinates": [-71.95522861141346, 42.376797358216393]}, "type": "Feature", "id": 320, "properties": {"CITY": "RUTLAND", "NAME": "Rutland Town Hall", "ZIP": "01543", "AREACODE": "508", "L_DATE": "2006-07-07", "TELEPHONE": "886-4104", "SOURCE": "MEMA", "ADDRESS_1": "250 Main St.", "L_SRC": "MEMA"}},{"geometry": {"type": "Point", "coordinates": [-70.859303142337112, 42.841785307155632]}, "type": "Feature", "id": 321, "properties": {"CITY": "SALISBURY", "NAME": "Salisbury Town Hall", "ZIP": "01952", "AREACODE": "978", "L_DATE": "2006-07-07", "TELEPHONE": "462-7591", "SOURCE": "MEMA", "ADDRESS_1": "5 Beach Rd.", "L_SRC": "MVPC"}},{"geometry": {"type": "Point", "coordinates": [-71.878796060589934, 42.449835892637587]}, "type": "Feature", "id": 322, "properties": {"CITY": "PRINCETON", "NAME": "Princeton Town Hall", "ZIP": "01541", "AREACODE": "978", "L_DATE": "2006-07-07", "TELEPHONE": "464-2103", "SOURCE": "MEMA", "ADDRESS_1": "6 Town Hall Dr.", "L_SRC": "MEMA"}},{"geometry": {"type": "Point", "coordinates": [-70.18751699134593, 42.051222653394532]}, "type": "Feature", "id": 323, "properties": {"CITY": "PROVINCETOWN", "NAME": "Provincetown Town Hall", "ZIP": "02657", "AREACODE": "508", "L_DATE": "2006-07-07", "TELEPHONE": "487-7000", "SOURCE": "MEMA", "ADDRESS_1": "260 Commercial St.", "L_SRC": "CAPECODCO"}},{"geometry": {"type": "Point", "coordinates": [-71.003717395713437, 42.25099903045173]}, "type": "Feature", "id": 324, "properties": {"CITY": "QUINCY", "NAME": "Quincy City Hall", "ZIP": "02169", "AREACODE": "617", "L_DATE": "2006-07-07", "TELEPHONE": "376-1131", "SOURCE": "MEMA", "ADDRESS_1": "1305 Hancock Street", "L_SRC": "MAPC"}},{"geometry": {"type": "Point", "coordinates": [-71.04287733236221, 42.161349429322037]}, "type": "Feature", "id": 325, "properties": {"CITY": "RANDOLPH", "NAME": "Randolph Town Hall", "ZIP": "02368", "AREACODE": "781", "L_DATE": "2006-07-07", "TELEPHONE": "961-0900", "SOURCE": "MEMA", "ADDRESS_1": "41 South Main St.", "L_SRC": "MAPC"}},{"geometry": {"type": "Point", "coordinates": [-71.051303902852183, 41.922171238851234]}, "type": "Feature", "id": 326, "properties": {"CITY": "RAYNHAM", "NAME": "Raynham Town Hall", "ZIP": "02767", "AREACODE": "508", "L_DATE": "2006-07-07", "TELEPHONE": "824-2700", "SOURCE": "MEMA", "ADDRESS_1": "53 Orchard St.", "L_SRC": "SRPEDD"}},{"geometry": {"type": "Point", "coordinates": [-71.201895464754543, 41.888604360818782]}, "type": "Feature", "id": 327, "properties": {"CITY": "REHOBOTH", "NAME": "Rehoboth Town Hall", "ZIP": "02769", "AREACODE": "508", "L_DATE": "2006-07-07", "TELEPHONE": "252-6502", "SOURCE": "MEMA", "ADDRESS_1": "148R Peck St.", "L_SRC": "MEMA"}},{"geometry": {"type": "Point", "coordinates": [-71.013169152787853, 42.407915367827357]}, "type": "Feature", "id": 328, "properties": {"CITY": "REVERE", "NAME": "Revere City Hall", "ZIP": "02151", "AREACODE": "781", "L_DATE": "2006-07-07", "TELEPHONE": "286-8105", "SOURCE": "MEMA", "ADDRESS_1": "281 Broadway", "L_SRC": "MAPC"}},{"geometry": {"type": "Point", "coordinates": [-73.367073865568585, 42.390087817208006]}, "type": "Feature", "id": 329, "properties": {"CITY": "RICHMOND", "NAME": "Richmond Town Hall", "ZIP": "01254", "AREACODE": "413", "L_DATE": "2006-07-07", "TELEPHONE": "698-3315", "SOURCE": "MEMA", "ADDRESS_1": "1529 State Rd.", "ADDRESS_2": "P.O. Box 81", "L_SRC": "BRPC"}},{"geometry": {"type": "Point", "coordinates": [-73.11746006620892, 42.112581906236237]}, "type": "Feature", "id": 330, "properties": {"CITY": "SANDISFIELD", "NAME": "Sandisfield New Town Hall Annex", "ZIP": "01255", "AREACODE": "413", "L_DATE": "2006-07-07", "TELEPHONE": "258-4711", "SOURCE": "MEMA", "ADDRESS_1": "66 Sandisfield Rd", "L_SRC": "MEMA"}},{"geometry": {"type": "Point", "coordinates": [-70.500633257473538, 41.758124853306676]}, "type": "Feature", "id": 331, "properties": {"CITY": "SANDWICH", "NAME": "Sandwich Town Hall", "ZIP": "02563", "AREACODE": "508", "L_DATE": "2006-07-07", "TELEPHONE": "888-0340", "SOURCE": "MEMA", "ADDRESS_1": "145 Main St.", "L_SRC": "CAPECODCO"}},{"geometry": {"type": "Point", "coordinates": [-73.025007406329195, 42.563734468053056]}, "type": "Feature", "id": 332, "properties": {"CITY": "SAVOY", "NAME": "Savoy Town Hall", "ZIP": "01256", "AREACODE": "413", "L_DATE": "2006-07-07", "TELEPHONE": "743-3759", "SOURCE": "MEMA", "ADDRESS_1": "720 Main Rd.", "L_SRC": "MEMA"}},{"geometry": {"type": "Point", "coordinates": [-70.768371069477681, 42.197508342604948]}, "type": "Feature", "id": 333, "properties": {"CITY": "SCITUATE", "NAME": "Scituate Town Hall", "ZIP": "02066", "AREACODE": "781", "L_DATE": "2006-07-07", "TELEPHONE": "545-8743", "SOURCE": "MEMA", "ADDRESS_1": "600 Chief Justice Cushing Hwy", "L_SRC": "MAPC"}},{"geometry": {"type": "Point", "coordinates": [-71.325268243414584, 41.83013081685467]}, "type": "Feature", "id": 334, "properties": {"CITY": "SEEKONK", "NAME": "Seekonk Town Hall", "ZIP": "02771", "AREACODE": "508", "L_DATE": "2006-07-07", "TELEPHONE": "336-2920", "SOURCE": "MEMA", "ADDRESS_1": "100 Peck St.", "L_SRC": "MEMA"}},{"geometry": {"type": "Point", "coordinates": [-71.180763123800148, 42.121615848794704]}, "type": "Feature", "id": 335, "properties": {"CITY": "SHARON", "NAME": "Sharon Town Hall", "ZIP": "02067", "AREACODE": "781", "L_DATE": "2006-07-07", "TELEPHONE": "784-1505", "SOURCE": "MEMA", "ADDRESS_1": "90 South Main St.", "L_SRC": "MEMA"}},{"geometry": {"type": "Point", "coordinates": [-73.35400323844128, 42.110938432924669]}, "type": "Feature", "id": 336, "properties": {"CITY": "SHEFFIELD", "NAME": "Sheffield Town Hall", "ZIP": "01257", "AREACODE": "413", "L_DATE": "2006-07-07", "TELEPHONE": "229-8752", "SOURCE": "MEMA", "ADDRESS_1": "21 Depot Sq.", "ADDRESS_2": "P.O. Box 175", "L_SRC": "MEMA"}},{"geometry": {"type": "Point", "coordinates": [-72.73874406251025, 42.603466793105959]}, "type": "Feature", "id": 337, "properties": {"CITY": "SHELBURNE", "NAME": "Shelburne Town Hall", "ZIP": "01370", "AREACODE": "413", "L_DATE": "2006-07-07", "TELEPHONE": "625-0301", "SOURCE": "MEMA", "ADDRESS_1": "51 Bridge St.", "L_SRC": "FRCOG"}},{"geometry": {"type": "Point", "coordinates": [-71.641561146039422, 42.545245178234474]}, "type": "Feature", "id": 338, "properties": {"CITY": "SHIRLEY", "NAME": "Shirley Town Hall", "ZIP": "01464", "AREACODE": "978", "L_DATE": "2006-07-07", "TELEPHONE": "425-2600", "SOURCE": "MEMA", "ADDRESS_1": "7 Keady Way", "ADDRESS_2": "P.O. Box 782", "L_SRC": "MRPC"}},{"geometry": {"type": "Point", "coordinates": [-71.722300243394983, 42.291514668199383]}, "type": "Feature", "id": 339, "properties": {"CITY": "SHREWSBURY", "NAME": "Shrewsbury Town Hall", "ZIP": "01545", "AREACODE": "508", "L_DATE": "2006-07-07", "TELEPHONE": "841-8507", "SOURCE": "MEMA", "ADDRESS_1": "100 Maple Ave.", "L_SRC": "MEMA"}},{"geometry": {"type": "Point", "coordinates": [-71.141367380847782, 41.751735505778967]}, "type": "Feature", "id": 340, "properties": {"CITY": "SOMERSET", "NAME": "Somerset Town Hall", "ZIP": "02726", "AREACODE": "508", "L_DATE": "2006-07-07", "TELEPHONE": "646-2818", "SOURCE": "MEMA", "ADDRESS_1": "140 Wood St.", "L_SRC": "MEMA"}},{"geometry": {"type": "Point", "coordinates": [-71.096969403020864, 42.387123505341407]}, "type": "Feature", "id": 341, "properties": {"CITY": "SOMERVILLE", "NAME": "Somerville City Hall", "ZIP": "02143", "AREACODE": "617", "L_DATE": "2006-07-07", "TELEPHONE": "625-4987", "SOURCE": "MEMA", "ADDRESS_1": "93 Highland Ave.", "L_SRC": "MEMA"}},{"geometry": {"type": "Point", "coordinates": [-72.593523628425515, 42.215001759565119]}, "type": "Feature", "id": 342, "properties": {"CITY": "SOUTH HADLEY", "NAME": "South Hadley Town Hall", "ZIP": "01075", "AREACODE": "413", "L_DATE": "2006-07-07", "TELEPHONE": "538-5023", "SOURCE": "MEMA", "ADDRESS_1": "116 Main St.", "L_SRC": "MEMA"}},{"geometry": {"type": "Point", "coordinates": [-71.531985991602568, 42.306109947056591]}, "type": "Feature", "id": 343, "properties": {"CITY": "SOUTHBOROUGH", "NAME": "Southborough Town Hall", "ZIP": "01772", "AREACODE": "508", "L_DATE": "2006-07-07", "TELEPHONE": "485-0710", "SOURCE": "MEMA", "ADDRESS_1": "17 Common St.", "L_SRC": "MEMA"}},{"geometry": {"type": "Point", "coordinates": [-72.034172168410535, 42.073315606833567]}, "type": "Feature", "id": 344, "properties": {"CITY": "SOUTHBRIDGE", "NAME": "Southbridge Town Hall", "ZIP": "01550", "AREACODE": "508", "L_DATE": "2006-07-07", "TELEPHONE": "764-5408", "SOURCE": "MEMA", "ADDRESS_1": "41 Elm St.", "L_SRC": "MEMA"}},{"geometry": {"type": "Point", "coordinates": [-72.771351143289522, 42.05315938714287]}, "type": "Feature", "id": 345, "properties": {"CITY": "SOUTHWICK", "NAME": "Southwick Town Hall", "ZIP": "01077", "AREACODE": "413", "L_DATE": "2006-07-07", "TELEPHONE": "569-5504", "SOURCE": "MEMA", "ADDRESS_1": "454 College Highway", "L_SRC": "MEMA"}},{"geometry": {"type": "Point", "coordinates": [-71.9924967958016, 42.244439528787638]}, "type": "Feature", "id": 346, "properties": {"CITY": "SPENCER", "NAME": "Spencer Town Hall", "ZIP": "01562", "AREACODE": "508", "L_DATE": "2006-07-07", "TELEPHONE": "885-7500", "SOURCE": "MEMA", "ADDRESS_1": "157 Main St.", "L_SRC": "MEMA"}},{"geometry": {"type": "Point", "coordinates": [-72.589757948608806, 42.101340367939194]}, "type": "Feature", "id": 347, "properties": {"CITY": "SPRINGFIELD", "NAME": "Springfield City Hall", "ZIP": "01103", "AREACODE": "413", "L_DATE": "2006-07-07", "TELEPHONE": "787-6189", "SOURCE": "MEMA", "ADDRESS_1": "36 Court St.", "L_SRC": "MEMA"}},{"geometry": {"type": "Point", "coordinates": [-73.319340520273045, 42.283182805784612]}, "type": "Feature", "id": 348, "properties": {"CITY": "STOCKBRIDGE", "NAME": "Stockbridge Town Hall", "ZIP": "01262", "AREACODE": "413", "L_DATE": "2006-07-07", "TELEPHONE": "298-4568", "SOURCE": "MEMA", "ADDRESS_1": "6 Main St.", "ADDRESS_2": "P.O. Box 417", "L_SRC": "BRPC"}},{"geometry": {"type": "Point", "coordinates": [-71.102980151595531, 42.125492614748538]}, "type": "Feature", "id": 349, "properties": {"CITY": "STOUGHTON", "NAME": "Stoughton Town Hall", "ZIP": "02072", "AREACODE": "781", "L_DATE": "2006-07-07", "TELEPHONE": "341-1300", "SOURCE": "MEMA", "ADDRESS_1": "10 Pearl St.", "L_SRC": "OCPC"}},{"geometry": {"type": "Point", "coordinates": [-71.506669965160739, 42.436311819570385]}, "type": "Feature", "id": 350, "properties": {"CITY": "STOW", "NAME": "Stow Town Hall", "ZIP": "01775", "AREACODE": "978", "L_DATE": "2006-07-07", "TELEPHONE": "897-4514", "SOURCE": "MEMA", "ADDRESS_1": "380 Great Rd.", "L_SRC": "MAPC"}},{"geometry": {"type": "Point", "coordinates": [-72.080779558871484, 42.108649781691433]}, "type": "Feature", "id": 351, "properties": {"CITY": "STURBRIDGE", "NAME": "Sturbridge Town Hall", "ZIP": "01566", "AREACODE": "508", "L_DATE": "2006-07-07", "TELEPHONE": "347-2510", "SOURCE": "MEMA", "ADDRESS_1": "308 Main St.", "L_SRC": "MEMA"}},{"geometry": {"type": "Point", "coordinates": [-71.411347527378368, 42.3827288412824]}, "type": "Feature", "id": 352, "properties": {"CITY": "SUDBURY", "NAME": "Sudbury Town Hall", "ZIP": "01776", "AREACODE": "978", "L_DATE": "2006-07-07", "TELEPHONE": "443-8891", "SOURCE": "MEMA", "ADDRESS_1": "322 Concord Rd.", "L_SRC": "MAPC"}},{"geometry": {"type": "Point", "coordinates": [-72.580491265115768, 42.46747476876417]}, "type": "Feature", "id": 353, "properties": {"CITY": "SUNDERLAND", "NAME": "Sunderland Town Hall", "ZIP": "01375", "AREACODE": "413", "L_DATE": "2006-07-07", "TELEPHONE": "665-1441", "SOURCE": "MEMA", "ADDRESS_1": "12 School St.", "L_SRC": "FRCOG"}},{"geometry": {"type": "Point", "coordinates": [-71.76264732332713, 42.149560735747151]}, "type": "Feature", "id": 354, "properties": {"CITY": "SUTTON", "NAME": "Sutton Town Hall", "ZIP": "01590", "AREACODE": "508", "L_DATE": "2006-07-07", "TELEPHONE": "865-8725", "SOURCE": "MEMA", "ADDRESS_1": "4 Uxbridge Rd.", "L_SRC": "MEMA"}}]}