{"type":"FeatureCollection","features":[{"geometry": {"type": "Point", "coordinates": [-71.098287718404521, 42.401288911665056]}, "type": "Feature", "id": 1, "properties": {"TOWN": "MEDFORD", "STATUS": "RAO", "NAME": "NO LOCATION AID", "AUL_DATE": "2003-07-14", "SITE_INFO": "http://public.dep.state.ma.us/SearchableSites/Site_Info.asp?RTN=3-0018495", "REGION": 3.0, "RTN": "3-0018495", "RAO_CLASS": "A3", "ADDRESS": "393 MYSTIC AVE"}},{"geometry": {"type": "Point", "coordinates": [-71.087153038678508, 42.3807374815906]}, "type": "Feature", "id": 2, "properties": {"TOWN": "SOMERVILLE", "STATUS": "RAO", "NAME": "MBTA MYSTIC JUNCTION", "AUL_DATE": "2005-10-17", "SITE_INFO": "http://public.dep.state.ma.us/SearchableSites/Site_Info.asp?RTN=3-0018503", "REGION": 3.0, "RTN": "3-0018503", "RAO_CLASS": "B2", "ADDRESS": "WASHINGTON ST NEAR JOY ST"}},{"geometry": {"type": "Point", "coordinates": [-71.008814298018876, 42.260078409313785]}, "type": "Feature", "id": 3, "properties": {"TOWN": "QUINCY", "STATUS": "RAO", "NAME": "NO LOCATION AID", "AUL_DATE": "2006-05-04", "SITE_INFO": "http://public.dep.state.ma.us/SearchableSites/Site_Info.asp?RTN=3-0018554", "REGION": 3.0, "RTN": "3-0018554", "RAO_CLASS": "A3", "ADDRESS": "954 HANCOCK ST"}},{"geometry": {"type": "Point", "coordinates": [-71.129258561272181, 42.286052138953195]}, "type": "Feature", "id": 4, "properties": {"TOWN": "BOSTON-ROSLINDALE", "STATUS": "RAO", "NAME": "NO LOCATION AID", "AUL_DATE": "2000-03-27", "SITE_INFO": "http://public.dep.state.ma.us/SearchableSites/Site_Info.asp?RTN=3-0018557", "REGION": 3.0, "RTN": "3-0018557", "RAO_CLASS": "B2", "ADDRESS": "42 THRU 44 CORINTH ST"}},{"geometry": {"type": "Point", "coordinates": [-71.238513019029213, 42.36352880127388]}, "type": "Feature", "id": 5, "properties": {"TOWN": "WALTHAM", "STATUS": "RAO", "NAME": "WADSWORTH ST", "AUL_DATE": "2003-11-26", "SITE_INFO": "http://public.dep.state.ma.us/SearchableSites/Site_Info.asp?RTN=3-0018574", "REGION": 3.0, "RTN": "3-0018574", "RAO_CLASS": "A3", "ADDRESS": "740 TO 750 MOODY ST"}},{"geometry": {"type": "Point", "coordinates": [-71.005750642075867, 42.399644715096088]}, "type": "Feature", "id": 6, "properties": {"TOWN": "REVERE", "STATUS": "RAO", "NAME": "TANK 15 DIKE AREA", "AUL_DATE": "2002-07-26", "SITE_INFO": "http://public.dep.state.ma.us/SearchableSites/Site_Info.asp?RTN=3-0018585", "REGION": 3.0, "RTN": "3-0018585", "RAO_CLASS": "B2", "ADDRESS": "222 LEE BURBANK HWY"}},{"geometry": {"type": "Point", "coordinates": [-71.186966001756758, 42.365689056514199]}, "type": "Feature", "id": 7, "properties": {"TOWN": "WATERTOWN", "STATUS": "RAO", "NAME": "CONSTRUCTION SITE", "AUL_DATE": "2001-01-05", "SITE_INFO": "http://public.dep.state.ma.us/SearchableSites/Site_Info.asp?RTN=3-0018592", "REGION": 3.0, "RTN": "3-0018592", "RAO_CLASS": "A3", "ADDRESS": "9 GALEN ST"}},{"geometry": {"type": "Point", "coordinates": [-71.042821823719791, 42.401063102751714]}, "type": "Feature", "id": 8, "properties": {"TOWN": "EVERETT", "STATUS": "RAO", "NAME": "330 EVERETT AVE", "AUL_DATE": "2012-01-25", "SITE_INFO": "http://public.dep.state.ma.us/SearchableSites/Site_Info.asp?RTN=3-0018620", "REGION": 3.0, "RTN": "3-0018620", "RAO_CLASS": "A3", "ADDRESS": "1690 REVERE BEACH PKWY"}},{"geometry": {"type": "Point", "coordinates": [-71.129262640004129, 42.286052152116895]}, "type": "Feature", "id": 9, "properties": {"TOWN": "BOSTON-ROSLINDALE", "STATUS": "RAO", "NAME": "NO LOCATION AID", "AUL_DATE": "2000-03-27", "SITE_INFO": "http://public.dep.state.ma.us/SearchableSites/Site_Info.asp?RTN=3-0018623", "REGION": 3.0, "RTN": "3-0018623", "RAO_CLASS": "B2", "ADDRESS": "42 THRU 44 CORINTH ST"}},{"geometry": {"type": "Point", "coordinates": [-71.154615268519763, 42.264013603175137]}, "type": "Feature", "id": 10, "properties": {"TOWN": "BOSTON-WEST ROXBURY", "STATUS": "RAO", "NAME": "NO LOCATION AID", "AUL_DATE": "2004-10-15", "SITE_INFO": "http://public.dep.state.ma.us/SearchableSites/Site_Info.asp?RTN=3-0018627", "REGION": 3.0, "RTN": "3-0018627", "RAO_CLASS": "A3", "ADDRESS": "5115 WASHINGTON ST"}},{"geometry": {"type": "Point", "coordinates": [-71.30886738605254, 42.35208085748166]}, "type": "Feature", "id": 11, "properties": {"TOWN": "WESTON", "STATUS": "RAO", "NAME": "NO LOCATION AID", "AUL_DATE": "1999-12-10", "SITE_INFO": "http://public.dep.state.ma.us/SearchableSites/Site_Info.asp?RTN=3-0018632", "REGION": 3.0, "RTN": "3-0018632", "RAO_CLASS": "A3", "ADDRESS": "235 WELLESLEY ST"}},{"geometry": {"type": "Point", "coordinates": [-71.210916439894561, 42.381597698940567]}, "type": "Feature", "id": 12, "properties": {"TOWN": "WALTHAM", "STATUS": "RAO", "NAME": "NO LOCATION AID", "AUL_DATE": "1999-10-28", "SITE_INFO": "http://public.dep.state.ma.us/SearchableSites/Site_Info.asp?RTN=3-0018647", "REGION": 3.0, "RTN": "3-0018647", "RAO_CLASS": "A3", "ADDRESS": "110 BEAVER ST"}},{"geometry": {"type": "Point", "coordinates": [-70.879694228183268, 42.844514956459932]}, "type": "Feature", "id": 13, "properties": {"TOWN": "SALISBURY", "STATUS": "RAO", "NAME": "NO LOCATION AID", "AUL_DATE": "2005-09-14", "SITE_INFO": "http://public.dep.state.ma.us/SearchableSites/Site_Info.asp?RTN=3-0018662", "REGION": 3.0, "RTN": "3-0018662", "RAO_CLASS": "A3", "ADDRESS": "164 ELM ST"}},{"geometry": {"type": "Point", "coordinates": [-71.001534422128998, 42.411882000710925]}, "type": "Feature", "id": 14, "properties": {"TOWN": "REVERE", "STATUS": "RAO", "NAME": "VACANT LOT", "AUL_DATE": "2003-03-31", "SITE_INFO": "http://public.dep.state.ma.us/SearchableSites/Site_Info.asp?RTN=3-0018678", "REGION": 3.0, "RTN": "3-0018678", "RAO_CLASS": "A3", "ADDRESS": "101 AMERICAN LEGION HWY"}},{"geometry": {"type": "Point", "coordinates": [-71.108301463668127, 42.261335602286806]}, "type": "Feature", "id": 15, "properties": {"TOWN": "BOSTON-HYDE PARK", "STATUS": "RAO", "NAME": "NO LOCATION AID", "AUL_DATE": "2003-11-26", "SITE_INFO": "http://public.dep.state.ma.us/SearchableSites/Site_Info.asp?RTN=3-0018680", "REGION": 3.0, "RTN": "3-0018680", "RAO_CLASS": "A3", "ADDRESS": "892 RIVER ST"}},{"geometry": {"type": "Point", "coordinates": [-71.071457542759944, 42.33173452588747]}, "type": "Feature", "id": 16, "properties": {"TOWN": "BOSTON-ROXBURY", "STATUS": "RAO", "NAME": "NO LOCATION AID", "AUL_DATE": "1999-09-21", "SITE_INFO": "http://public.dep.state.ma.us/SearchableSites/Site_Info.asp?RTN=3-0018697", "REGION": 3.0, "RTN": "3-0018697", "RAO_CLASS": "B2", "ADDRESS": "8 GERARD ST"}},{"geometry": {"type": "Point", "coordinates": [-71.02000923573749, 42.247442795105506]}, "type": "Feature", "id": 17, "properties": {"TOWN": "QUINCY", "STATUS": "RAO", "NAME": "SOCCER FIELD", "AUL_DATE": "2001-04-25", "SITE_INFO": "http://public.dep.state.ma.us/SearchableSites/Site_Info.asp?RTN=3-0018702", "REGION": 3.0, "RTN": "3-0018702", "RAO_CLASS": "A3", "ADDRESS": "254 QUARRY ST"}},{"geometry": {"type": "Point", "coordinates": [-71.1225250713794, 42.496612277706959]}, "type": "Feature", "id": 18, "properties": {"TOWN": "WOBURN", "STATUS": "RAO", "NAME": "VACANT LOT", "AUL_DATE": "2003-10-16", "SITE_INFO": "http://public.dep.state.ma.us/SearchableSites/Site_Info.asp?RTN=3-0018789", "REGION": 3.0, "RTN": "3-0018789", "RAO_CLASS": "A3", "ADDRESS": "39 CEDAR ST"}},{"geometry": {"type": "Point", "coordinates": [-71.05790294015155, 42.311782499347089]}, "type": "Feature", "id": 19, "properties": {"TOWN": "BOSTON-DORCHESTER", "STATUS": "RAO", "NAME": "NO LOCATION AID", "AUL_DATE": "2003-10-31", "SITE_INFO": "http://public.dep.state.ma.us/SearchableSites/Site_Info.asp?RTN=3-0018791", "REGION": 3.0, "RTN": "3-0018791", "RAO_CLASS": "A3", "ADDRESS": "1141 DORCHESTER AVE"}},{"geometry": {"type": "Point", "coordinates": [-71.094415803329923, 42.767069151911393]}, "type": "Feature", "id": 20, "properties": {"TOWN": "HAVERHILL", "STATUS": "RAO", "NAME": "NO LOCATION AID", "AUL_DATE": "2000-11-02", "SITE_INFO": "http://public.dep.state.ma.us/SearchableSites/Site_Info.asp?RTN=3-0018852", "REGION": 3.0, "RTN": "3-0018852", "RAO_CLASS": "B2", "ADDRESS": "312 RIVER ST"}},{"geometry": {"type": "Point", "coordinates": [-70.975106519974617, 42.463579521772431]}, "type": "Feature", "id": 21, "properties": {"TOWN": "LYNN", "STATUS": "RAO", "NAME": "NO LOCATION AID", "AUL_DATE": "2000-10-27", "SITE_INFO": "http://public.dep.state.ma.us/SearchableSites/Site_Info.asp?RTN=3-0018853", "REGION": 3.0, "RTN": "3-0018853", "RAO_CLASS": "A3", "ADDRESS": "606 BOSTON ST"}},{"geometry": {"type": "Point", "coordinates": [-71.058826782746479, 42.326754184353028]}, "type": "Feature", "id": 22, "properties": {"TOWN": "BOSTON-DORCHESTER", "STATUS": "RAO", "NAME": "NO LOCATION AID", "AUL_DATE": "1999-10-28", "SITE_INFO": "http://public.dep.state.ma.us/SearchableSites/Site_Info.asp?RTN=3-0018865", "REGION": 3.0, "RTN": "3-0018865", "RAO_CLASS": "B2", "ADDRESS": "99 BOSTON ST"}},{"geometry": {"type": "Point", "coordinates": [-71.130343839253015, 42.249984633811103]}, "type": "Feature", "id": 23, "properties": {"TOWN": "BOSTON-HYDE PARK", "STATUS": "RAO", "NAME": "BELL ATLANTIC FACILITY", "AUL_DATE": "2000-11-03", "SITE_INFO": "http://public.dep.state.ma.us/SearchableSites/Site_Info.asp?RTN=3-0018886", "REGION": 3.0, "RTN": "3-0018886", "ADDRESS": "1520 RIVER ST"}},{"geometry": {"type": "Point", "coordinates": [-71.069406394685132, 42.279072770247076]}, "type": "Feature", "id": 24, "properties": {"TOWN": "BOSTON-DORCHESTER", "STATUS": "RAO", "NAME": "NO LOCATION AID", "AUL_DATE": "2000-10-16", "SITE_INFO": "http://public.dep.state.ma.us/SearchableSites/Site_Info.asp?RTN=3-0018889", "REGION": 3.0, "RTN": "3-0018889", "RAO_CLASS": "A3", "ADDRESS": "970 WASHINGTON ST"}},{"geometry": {"type": "Point", "coordinates": [-71.089474867196159, 42.291049909548448]}, "type": "Feature", "id": 25, "properties": {"TOWN": "BOSTON-DORCHESTER", "STATUS": "RAO", "NAME": "ENGINE 52", "AUL_DATE": "2004-10-08", "SITE_INFO": "http://public.dep.state.ma.us/SearchableSites/Site_Info.asp?RTN=3-0018901", "REGION": 3.0, "RTN": "3-0018901", "RAO_CLASS": "A3", "ADDRESS": "975 BLUE HILL AVE"}},{"geometry": {"type": "Point", "coordinates": [-71.103548031207353, 42.515083773926783]}, "type": "Feature", "id": 26, "properties": {"TOWN": "READING", "STATUS": "RAO", "NAME": "NEW ENGLAND FORESTRY FMR", "AUL_DATE": "2009-09-10", "SITE_INFO": "http://public.dep.state.ma.us/SearchableSites/Site_Info.asp?RTN=3-0018903", "REGION": 3.0, "RTN": "3-0018903", "RAO_CLASS": "A3", "ADDRESS": "281 MAIN ST"}},{"geometry": {"type": "Point", "coordinates": [-70.951919689013351, 42.457497579762062]}, "type": "Feature", "id": 27, "properties": {"TOWN": "LYNN", "STATUS": "RAO", "NAME": "NO LOCATION AID", "AUL_DATE": "2008-10-20", "SITE_INFO": "http://public.dep.state.ma.us/SearchableSites/Site_Info.asp?RTN=3-0018919", "REGION": 3.0, "RTN": "3-0018919", "RAO_CLASS": "A3", "ADDRESS": "395 LYNNWAY"}},{"geometry": {"type": "Point", "coordinates": [-71.053711460459638, 42.295717402888862]}, "type": "Feature", "id": 28, "properties": {"TOWN": "BOSTON-DORCHESTER", "STATUS": "RAO", "NAME": "AT VICTORY RD", "AUL_DATE": "2000-04-12", "SITE_INFO": "http://public.dep.state.ma.us/SearchableSites/Site_Info.asp?RTN=3-0018922", "REGION": 3.0, "RTN": "3-0018922", "ADDRESS": "80 NEPONSET AVE"}},{"geometry": {"type": "Point", "coordinates": [-71.165004805837825, 42.702367656134136]}, "type": "Feature", "id": 29, "properties": {"TOWN": "LAWRENCE", "STATUS": "RAO", "NAME": "NO LOCATION AID", "AUL_DATE": "1999-12-08", "SITE_INFO": "http://public.dep.state.ma.us/SearchableSites/Site_Info.asp?RTN=3-0018930", "REGION": 3.0, "RTN": "3-0018930", "RAO_CLASS": "B2", "ADDRESS": "430 NORTH CANAL ST"}},{"geometry": {"type": "Point", "coordinates": [-71.061555900608042, 42.365812231088725]}, "type": "Feature", "id": 30, "properties": {"TOWN": "BOSTON-BOSTON", "STATUS": "RAO", "NAME": "OLD BOSTON GARDEN", "AUL_DATE": "2005-06-10", "SITE_INFO": "http://public.dep.state.ma.us/SearchableSites/Site_Info.asp?RTN=3-0018960", "REGION": 3.0, "RTN": "3-0018960", "RAO_CLASS": "A3", "ADDRESS": "CAUSEWAY ST"}},{"geometry": {"type": "Point", "coordinates": [-71.08911563417027, 42.777673574788288]}, "type": "Feature", "id": 31, "properties": {"TOWN": "HAVERHILL", "STATUS": "RAO", "NAME": "NO LOCATION AID", "AUL_DATE": "1999-11-23", "SITE_INFO": "http://public.dep.state.ma.us/SearchableSites/Site_Info.asp?RTN=3-0018974", "REGION": 3.0, "RTN": "3-0018974", "RAO_CLASS": "B2", "ADDRESS": "93 LAFAYETTE SQ"}},{"geometry": {"type": "Point", "coordinates": [-71.042676465322259, 42.336914152269969]}, "type": "Feature", "id": 32, "properties": {"TOWN": "BOSTON-SOUTH BOSTON", "STATUS": "RAO", "NAME": "NO LOCATION AID", "AUL_DATE": "2000-04-04", "SITE_INFO": "http://public.dep.state.ma.us/SearchableSites/Site_Info.asp?RTN=3-0018985", "REGION": 3.0, "RTN": "3-0018985", "RAO_CLASS": "A3", "ADDRESS": "515 TO 519 EAST SECOND ST"}},{"geometry": {"type": "Point", "coordinates": [-71.375210988172128, 42.451651257030768]}, "type": "Feature", "id": 33, "properties": {"TOWN": "CONCORD", "STATUS": "RAO", "NAME": "EMERSON HOSPITAL", "AUL_DATE": "2004-01-28", "SITE_INFO": "http://public.dep.state.ma.us/SearchableSites/Site_Info.asp?RTN=3-0018998", "REGION": 3.0, "RTN": "3-0018998", "RAO_CLASS": "C1", "ADDRESS": "133 OLD ROAD TO NINE ACRE COR"}},{"geometry": {"type": "Point", "coordinates": [-71.070955117603148, 42.357807390754729]}, "type": "Feature", "id": 34, "properties": {"TOWN": "BOSTON-BOSTON", "STATUS": "RAO", "NAME": "RIVER ST", "AUL_DATE": "2004-03-02", "SITE_INFO": "http://public.dep.state.ma.us/SearchableSites/Site_Info.asp?RTN=3-0019021", "REGION": 3.0, "RTN": "3-0019021", "RAO_CLASS": "B2", "ADDRESS": "127 MT VERNON ST"}},{"geometry": {"type": "Point", "coordinates": [-71.269761992461383, 42.583194516650394]}, "type": "Feature", "id": 35, "properties": {"TOWN": "BILLERICA", "STATUS": "RAO", "NAME": "SPINCRAFT FACILITY", "AUL_DATE": "2001-12-05", "SITE_INFO": "http://public.dep.state.ma.us/SearchableSites/Site_Info.asp?RTN=3-0019026", "REGION": 3.0, "RTN": "3-0019026", "RAO_CLASS": "A3", "ADDRESS": "500 IRON HORSE PARK"}},{"geometry": {"type": "Point", "coordinates": [-71.077368079055177, 42.415294308618883]}, "type": "Feature", "id": 36, "properties": {"TOWN": "MALDEN", "STATUS": "RAO", "NAME": "NO LOCATION AID", "AUL_DATE": "2000-12-22", "SITE_INFO": "http://public.dep.state.ma.us/SearchableSites/Site_Info.asp?RTN=3-0019069", "REGION": 3.0, "RTN": "3-0019069", "RAO_CLASS": "A3", "ADDRESS": "420 PEARL ST"}},{"geometry": {"type": "Point", "coordinates": [-71.093126290380624, 42.363370685615614]}, "type": "Feature", "id": 37, "properties": {"TOWN": "CAMBRIDGE", "STATUS": "RAO", "NAME": "BLDGS 100-700 TECHNOLOGY SQUARE", "AUL_DATE": "2003-03-05", "SITE_INFO": "http://public.dep.state.ma.us/SearchableSites/Site_Info.asp?RTN=3-0019076", "REGION": 3.0, "RTN": "3-0019076", "RAO_CLASS": "A3", "ADDRESS": "MAIN ST"}},{"geometry": {"type": "Point", "coordinates": [-71.079004751974637, 42.507633802810815]}, "type": "Feature", "id": 38, "properties": {"TOWN": "WAKEFIELD", "STATUS": "RAO", "NAME": "WAKEFIELD MUNI GAS & LIGHT DEPT", "AUL_DATE": "2008-10-23", "SITE_INFO": "http://public.dep.state.ma.us/SearchableSites/Site_Info.asp?RTN=3-0019079", "REGION": 3.0, "RTN": "3-0019079", "RAO_CLASS": "A2", "ADDRESS": "NORTH AVE"}},{"geometry": {"type": "Point", "coordinates": [-71.071000299375996, 42.422773270421175]}, "type": "Feature", "id": 39, "properties": {"TOWN": "MALDEN", "STATUS": "RAO", "NAME": "NEW ENGLAND COFFEE DRIVEWAY", "AUL_DATE": "2008-09-24", "SITE_INFO": "http://public.dep.state.ma.us/SearchableSites/Site_Info.asp?RTN=3-0019083", "REGION": 3.0, "RTN": "3-0019083", "RAO_CLASS": "A3", "ADDRESS": "100 CHARLES ST"}},{"geometry": {"type": "Point", "coordinates": [-70.946669722720145, 42.463527955095032]}, "type": "Feature", "id": 40, "properties": {"TOWN": "LYNN", "STATUS": "RAO", "NAME": "NO LOCATION AID", "AUL_DATE": "2005-06-28", "SITE_INFO": "http://public.dep.state.ma.us/SearchableSites/Site_Info.asp?RTN=3-0019084", "REGION": 3.0, "RTN": "3-0019084", "RAO_CLASS": "A3", "ADDRESS": "128 OXFORD ST"}},{"geometry": {"type": "Point", "coordinates": [-70.883605948336481, 42.554911755072006]}, "type": "Feature", "id": 41, "properties": {"TOWN": "BEVERLY", "STATUS": "RAO", "NAME": "NO LOCATION AID", "AUL_DATE": "2010-01-20", "SITE_INFO": "http://public.dep.state.ma.us/SearchableSites/Site_Info.asp?RTN=3-0019091", "REGION": 3.0, "RTN": "3-0019091", "RAO_CLASS": "B2", "ADDRESS": "112 ELLIOTT ST"}},{"geometry": {"type": "Point", "coordinates": [-71.045598431563675, 42.350355827081962]}, "type": "Feature", "id": 42, "properties": {"TOWN": "BOSTON-BOSTON", "STATUS": "RAO", "NAME": "EAST AND WEST SERVICE RDS", "AUL_DATE": "2001-01-23", "SITE_INFO": "http://public.dep.state.ma.us/SearchableSites/Site_Info.asp?RTN=3-0019097", "REGION": 3.0, "RTN": "3-0019097", "RAO_CLASS": "A3", "ADDRESS": "390-420 CONGRESS ST"}},{"geometry": {"type": "Point", "coordinates": [-71.163487876282574, 42.703420764808108]}, "type": "Feature", "id": 43, "properties": {"TOWN": "LAWRENCE", "STATUS": "RAO", "NAME": "NO LOCATION AID", "AUL_DATE": "2001-02-14", "SITE_INFO": "http://public.dep.state.ma.us/SearchableSites/Site_Info.asp?RTN=3-0019120", "REGION": 3.0, "RTN": "3-0019120", "RAO_CLASS": "B1", "ADDRESS": "454 NORTH CANAL ST"}},{"geometry": {"type": "Point", "coordinates": [-71.103970437993581, 42.355904827541117]}, "type": "Feature", "id": 44, "properties": {"TOWN": "CAMBRIDGE", "STATUS": "RAO", "NAME": "NO LOCATION AID", "AUL_DATE": "2005-01-05", "SITE_INFO": "http://public.dep.state.ma.us/SearchableSites/Site_Info.asp?RTN=3-0019125", "REGION": 3.0, "RTN": "3-0019125", "RAO_CLASS": "A3", "ADDRESS": "289 VASSAR ST"}},{"geometry": {"type": "Point", "coordinates": [-71.063632604760826, 42.40060464884435]}, "type": "Feature", "id": 45, "properties": {"TOWN": "EVERETT", "STATUS": "TIER 2", "NAME": "NO LOCATION AID", "AUL_DATE": "2002-06-14", "SITE_INFO": "http://public.dep.state.ma.us/SearchableSites/Site_Info.asp?RTN=3-0019135", "REGION": 3.0, "RTN": "3-0019135", "ADDRESS": "7-41 CHARLTON ST"}},{"geometry": {"type": "Point", "coordinates": [-71.04341268787914, 42.430362968937942]}, "type": "Feature", "id": 46, "properties": {"TOWN": "MALDEN", "STATUS": "RAO", "NAME": "NO LOCATION AID", "AUL_DATE": "2000-11-10", "SITE_INFO": "http://public.dep.state.ma.us/SearchableSites/Site_Info.asp?RTN=3-0019137", "REGION": 3.0, "RTN": "3-0019137", "RAO_CLASS": "B2", "ADDRESS": "940 EASTERN AVE"}},{"geometry": {"type": "Point", "coordinates": [-71.098229624613538, 42.333912332698894]}, "type": "Feature", "id": 47, "properties": {"TOWN": "BOSTON-ROXBURY", "STATUS": "RAO", "NAME": "FMR ROXBURY GAS LIGHT CO  GASOMETER", "AUL_DATE": "2001-02-05", "SITE_INFO": "http://public.dep.state.ma.us/SearchableSites/Site_Info.asp?RTN=3-0019140", "REGION": 3.0, "RTN": "3-0019140", "RAO_CLASS": "A3", "ADDRESS": "61 HORADAN WAY"}},{"geometry": {"type": "Point", "coordinates": [-71.046114700355588, 42.164230234740536]}, "type": "Feature", "id": 48, "properties": {"TOWN": "RANDOLPH", "STATUS": "RAO", "NAME": "RANDOLPH VFW", "AUL_DATE": "1999-12-20", "SITE_INFO": "http://public.dep.state.ma.us/SearchableSites/Site_Info.asp?RTN=4-3017799", "REGION": 4.0, "RTN": "4-3017799", "RAO_CLASS": "B2", "ADDRESS": "10 HIGHLAND AVE"}},{"geometry": {"type": "Point", "coordinates": [-70.98508288818401, 42.142448834283897]}, "type": "Feature", "id": 49, "properties": {"TOWN": "HOLBROOK", "STATUS": "RAO", "NAME": "RTE 139", "AUL_DATE": "2003-01-07", "SITE_INFO": "http://public.dep.state.ma.us/SearchableSites/Site_Info.asp?RTN=4-3018011", "REGION": 4.0, "RTN": "4-3018011", "ADDRESS": "795 PLYMOUTH ST"}},{"geometry": {"type": "Point", "coordinates": [-70.995524173784702, 42.184355649725163]}, "type": "Feature", "id": 50, "properties": {"TOWN": "BRAINTREE", "STATUS": "RAO", "NAME": "NO LOCATION AID", "AUL_DATE": "2000-07-14", "SITE_INFO": "http://public.dep.state.ma.us/SearchableSites/Site_Info.asp?RTN=4-3018466", "REGION": 4.0, "RTN": "4-3018466", "RAO_CLASS": "A3", "ADDRESS": "1243 LIBERTY ST"}},{"geometry": {"type": "Point", "coordinates": [-70.965926315786959, 42.242076626630293]}, "type": "Feature", "id": 51, "properties": {"TOWN": "WEYMOUTH", "STATUS": "RAO", "NAME": "SITHE  FMR GENERATING FACILITY", "AUL_DATE": "2002-01-03", "SITE_INFO": "http://public.dep.state.ma.us/SearchableSites/Site_Info.asp?RTN=4-3018690", "REGION": 4.0, "RTN": "4-3018690", "RAO_CLASS": "A3", "ADDRESS": "1 BRIDGE ST"}},{"geometry": {"type": "Point", "coordinates": [-70.924399216072018, 42.255240342413281]}, "type": "Feature", "id": 52, "properties": {"TOWN": "WEYMOUTH", "STATUS": "RAO", "NAME": "WEYMOUTHPORT CONDOMINIUMS", "AUL_DATE": "2008-02-08", "SITE_INFO": "http://public.dep.state.ma.us/SearchableSites/Site_Info.asp?RTN=4-3019115", "REGION": 4.0, "RTN": "4-3019115", "RAO_CLASS": "A3", "ADDRESS": "51 BROAD REACH"}},{"geometry": {"type": "Point", "coordinates": [-71.187272341393268, 42.184249923847922]}, "type": "Feature", "id": 53, "properties": {"TOWN": "NORWOOD", "STATUS": "RAO", "NAME": "NO LOCATION AID", "AUL_DATE": "2012-07-26", "SITE_INFO": "http://public.dep.state.ma.us/SearchableSites/Site_Info.asp?RTN=4-3019393", "REGION": 4.0, "RTN": "4-3019393", "RAO_CLASS": "A3", "ADDRESS": "825 PROVIDENCE HWY"}},{"geometry": {"type": "Point", "coordinates": [-70.923552124956032, 42.259684365739297]}, "type": "Feature", "id": 54, "properties": {"TOWN": "WEYMOUTH", "STATUS": "RAO", "NAME": "WEBB STATE PARK", "AUL_DATE": "2007-10-17", "SITE_INFO": "http://public.dep.state.ma.us/SearchableSites/Site_Info.asp?RTN=4-3019574", "REGION": 4.0, "RTN": "4-3019574", "RAO_CLASS": "A4", "ADDRESS": "RIVER ST"}},{"geometry": {"type": "Point", "coordinates": [-71.261446837520353, 42.134552716753134]}, "type": "Feature", "id": 55, "properties": {"TOWN": "WALPOLE", "STATUS": "RAO", "NAME": "RTE 1A", "AUL_DATE": "2008-01-03", "SITE_INFO": "http://public.dep.state.ma.us/SearchableSites/Site_Info.asp?RTN=4-3019617", "REGION": 4.0, "RTN": "4-3019617", "RAO_CLASS": "A3", "ADDRESS": "1333 MAIN ST"}},{"geometry": {"type": "Point", "coordinates": [-71.063043938697788, 42.382820412633478]}, "type": "Feature", "id": 56, "properties": {"TOWN": "BOSTON-CHARLESTOWN", "STATUS": "RAO", "NAME": "MASSPORT", "AUL_DATE": "1999-01-21", "SITE_INFO": "http://public.dep.state.ma.us/SearchableSites/Site_Info.asp?RTN=3-0001307", "REGION": 3.0, "RTN": "3-0001307", "RAO_CLASS": "A3", "ADDRESS": "333 MEDFORD ST"}},{"geometry": {"type": "Point", "coordinates": [-70.951898021423162, 42.454083739640389]}, "type": "Feature", "id": 57, "properties": {"TOWN": "LYNN", "STATUS": "RAO", "NAME": "LYNN GAS & ELECTRIC (FMR)", "AUL_DATE": "2003-10-02", "SITE_INFO": "http://public.dep.state.ma.us/SearchableSites/Site_Info.asp?RTN=3-0001308", "REGION": 3.0, "RTN": "3-0001308", "RAO_CLASS": "C1", "ADDRESS": "MARINE BOULEVARD AND RILEY WAY"}},{"geometry": {"type": "Point", "coordinates": [-70.907032168619182, 42.586185134105662]}, "type": "Feature", "id": 58, "properties": {"TOWN": "BEVERLY", "STATUS": "RAO", "NAME": "PROPERTY", "AUL_DATE": "1999-08-01", "SITE_INFO": "http://public.dep.state.ma.us/SearchableSites/Site_Info.asp?RTN=3-0001319", "REGION": 3.0, "RTN": "3-0001319", "RAO_CLASS": "A3", "ADDRESS": "LP HENDERSON RD LOT 3"}},{"geometry": {"type": "Point", "coordinates": [-70.921832460580603, 42.527668682827773]}, "type": "Feature", "id": 59, "properties": {"TOWN": "PEABODY", "STATUS": "RAO", "NAME": "BAY STATE CHEMICAL", "AUL_DATE": "1999-03-11", "SITE_INFO": "http://public.dep.state.ma.us/SearchableSites/Site_Info.asp?RTN=3-0001326", "REGION": 3.0, "RTN": "3-0001326", "RAO_CLASS": "A3", "ADDRESS": "0 WALNUT ST LOTS 8 AND 60A"}},{"geometry": {"type": "Point", "coordinates": [-71.208774888378102, 42.330762926006109]}, "type": "Feature", "id": 60, "properties": {"TOWN": "NEWTON", "STATUS": "RAO", "NAME": "SUNOCO STATION", "AUL_DATE": "2000-12-07", "SITE_INFO": "http://public.dep.state.ma.us/SearchableSites/Site_Info.asp?RTN=3-0001332", "REGION": 3.0, "RTN": "3-0001332", "RAO_CLASS": "A3", "ADDRESS": "1126 BEACON ST"}},{"geometry": {"type": "Point", "coordinates": [-71.024435056577559, 42.271407468099078]}, "type": "Feature", "id": 61, "properties": {"TOWN": "QUINCY", "STATUS": "RAO", "NAME": "BOSTON GEAR", "AUL_DATE": "2003-05-28", "SITE_INFO": "http://public.dep.state.ma.us/SearchableSites/Site_Info.asp?RTN=3-0001333", "REGION": 3.0, "RTN": "3-0001333", "RAO_CLASS": "A3", "ADDRESS": "14 HAYWARD ST"}},{"geometry": {"type": "Point", "coordinates": [-70.8911429800158, 42.519579898994706]}, "type": "Feature", "id": 62, "properties": {"TOWN": "SALEM", "STATUS": "RAO", "NAME": "PROPERTY", "AUL_DATE": "2002-09-30", "SITE_INFO": "http://public.dep.state.ma.us/SearchableSites/Site_Info.asp?RTN=3-0001359", "REGION": 3.0, "RTN": "3-0001359", "RAO_CLASS": "A3", "ADDRESS": "285 DERBY ST"}},{"geometry": {"type": "Point", "coordinates": [-71.092439859075881, 42.366251236203475]}, "type": "Feature", "id": 63, "properties": {"TOWN": "CAMBRIDGE", "STATUS": "RAO", "NAME": "CUMBERLAND FARMS", "AUL_DATE": "1994-06-14", "SITE_INFO": "http://public.dep.state.ma.us/SearchableSites/Site_Info.asp?RTN=3-0001421", "REGION": 3.0, "RTN": "3-0001421", "RAO_CLASS": "A3", "ADDRESS": "190-203 BROADWAY"}},{"geometry": {"type": "Point", "coordinates": [-71.076876981273898, 42.366840797441469]}, "type": "Feature", "id": 64, "properties": {"TOWN": "CAMBRIDGE", "STATUS": "RAO", "NAME": "EASEMENT PARCEL CAMBRIDGESIDE GALLERIA", "AUL_DATE": "2002-01-28", "SITE_INFO": "http://public.dep.state.ma.us/SearchableSites/Site_Info.asp?RTN=3-0001442", "REGION": 3.0, "RTN": "3-0001442", "RAO_CLASS": "C1", "ADDRESS": "88 FIRST ST/EDWIN LAND BLVD"}},{"geometry": {"type": "Point", "coordinates": [-71.069572045659868, 42.42259652844691]}, "type": "Feature", "id": 65, "properties": {"TOWN": "MALDEN", "STATUS": "RAO", "NAME": "GARYS SERVICE STATION", "AUL_DATE": "1996-01-10", "SITE_INFO": "http://public.dep.state.ma.us/SearchableSites/Site_Info.asp?RTN=3-0001472", "REGION": 3.0, "RTN": "3-0001472", "RAO_CLASS": "A3", "ADDRESS": "53 MADISON ST"}},{"geometry": {"type": "Point", "coordinates": [-71.030259958361199, 42.56945537806407]}, "type": "Feature", "id": 66, "properties": {"TOWN": "MIDDLETON", "STATUS": "RAO", "NAME": "BOSTIK DIVISION", "AUL_DATE": "2012-01-20", "SITE_INFO": "http://public.dep.state.ma.us/SearchableSites/Site_Info.asp?RTN=3-0001494", "REGION": 3.0, "RTN": "3-0001494", "RAO_CLASS": "A3", "ADDRESS": "211 BOSTON ST"}},{"geometry": {"type": "Point", "coordinates": [-70.921338258749927, 42.523825964227008]}, "type": "Feature", "id": 67, "properties": {"TOWN": "PEABODY", "STATUS": "RAO", "NAME": "HENRY LEATHER CO", "AUL_DATE": "1996-10-22", "SITE_INFO": "http://public.dep.state.ma.us/SearchableSites/Site_Info.asp?RTN=3-0001501", "REGION": 3.0, "RTN": "3-0001501", "RAO_CLASS": "A2", "ADDRESS": "150-156 MAIN ST"}},{"geometry": {"type": "Point", "coordinates": [-71.098320218104647, 42.36186988144658]}, "type": "Feature", "id": 68, "properties": {"TOWN": "CAMBRIDGE", "STATUS": "RAO", "NAME": "BEST PETROLEUM", "AUL_DATE": "2000-08-27", "SITE_INFO": "http://public.dep.state.ma.us/SearchableSites/Site_Info.asp?RTN=3-0001559", "REGION": 3.0, "RTN": "3-0001559", "RAO_CLASS": "A3", "ADDRESS": "266 MASSACHUSETTS AVE"}},{"geometry": {"type": "Point", "coordinates": [-71.043178387893889, 42.402224808221824]}, "type": "Feature", "id": 69, "properties": {"TOWN": "EVERETT", "STATUS": "RAO", "NAME": "BEST PETROLEUM", "AUL_DATE": "2001-06-26", "SITE_INFO": "http://public.dep.state.ma.us/SearchableSites/Site_Info.asp?RTN=3-0001564", "REGION": 3.0, "RTN": "3-0001564", "RAO_CLASS": "A3", "ADDRESS": "1707 REVERE BEACH PKWY"}},{"geometry": {"type": "Point", "coordinates": [-70.895852542153179, 42.508019621970377]}, "type": "Feature", "id": 70, "properties": {"TOWN": "SALEM", "STATUS": "RAO", "NAME": "BEST PETROLEUM", "AUL_DATE": "2000-11-14", "SITE_INFO": "http://public.dep.state.ma.us/SearchableSites/Site_Info.asp?RTN=3-0001567", "REGION": 3.0, "RTN": "3-0001567", "RAO_CLASS": "A3", "ADDRESS": "145 CANAL ST"}},{"geometry": {"type": "Point", "coordinates": [-71.065907469654178, 42.481366835640515]}, "type": "Feature", "id": 71, "properties": {"TOWN": "WAKEFIELD", "STATUS": "RAO", "NAME": "BEST PETROLEUM FMR", "AUL_DATE": "1999-10-28", "SITE_INFO": "http://public.dep.state.ma.us/SearchableSites/Site_Info.asp?RTN=3-0001569", "REGION": 3.0, "RTN": "3-0001569", "RAO_CLASS": "B2", "ADDRESS": "979 MAIN ST"}},{"geometry": {"type": "Point", "coordinates": [-71.264684792222695, 42.396293409462345]}, "type": "Feature", "id": 72, "properties": {"TOWN": "WALTHAM", "STATUS": "RAO", "NAME": "INDUSTRIAL PROPERTY", "AUL_DATE": "2003-12-23", "SITE_INFO": "http://public.dep.state.ma.us/SearchableSites/Site_Info.asp?RTN=3-0001621", "REGION": 3.0, "RTN": "3-0001621", "RAO_CLASS": "A3", "ADDRESS": "63-95 SECOND AVE"}},{"geometry": {"type": "Point", "coordinates": [-71.286456528729445, 42.302540342743569]}, "type": "Feature", "id": 73, "properties": {"TOWN": "WELLESLEY", "STATUS": "RAO", "NAME": "MOBIL STATION 01 185", "AUL_DATE": "1995-11-29", "SITE_INFO": "http://public.dep.state.ma.us/SearchableSites/Site_Info.asp?RTN=3-0001622", "REGION": 3.0, "RTN": "3-0001622", "RAO_CLASS": "A3", "ADDRESS": "453 WASHINGTON ST"}},{"geometry": {"type": "Point", "coordinates": [-71.045794025680763, 42.301406670574337]}, "type": "Feature", "id": 74, "properties": {"TOWN": "BOSTON-DORCHESTER", "STATUS": "TIER 1B", "NAME": "COMMERCIAL POINT LNG PLANT", "AUL_DATE": "2005-02-10", "SITE_INFO": "http://public.dep.state.ma.us/SearchableSites/Site_Info.asp?RTN=3-0001637", "REGION": 3.0, "RTN": "3-0001637", "ADDRESS": "220 VICTORY RD"}},{"geometry": {"type": "Point", "coordinates": [-71.130756418323529, 42.389124393452391]}, "type": "Feature", "id": 75, "properties": {"TOWN": "CAMBRIDGE", "STATUS": "RAO", "NAME": "WALDEN SQUARE APARTMENTS", "AUL_DATE": "2002-05-08", "SITE_INFO": "http://public.dep.state.ma.us/SearchableSites/Site_Info.asp?RTN=3-0001656", "REGION": 3.0, "RTN": "3-0001656", "RAO_CLASS": "A3", "ADDRESS": "21 WALDEN SQ"}},{"geometry": {"type": "Point", "coordinates": [-71.139179627227463, 42.384720893516267]}, "type": "Feature", "id": 76, "properties": {"TOWN": "CAMBRIDGE", "STATUS": "RAO", "NAME": "TOBIN SCHOOL", "AUL_DATE": "2002-11-06", "SITE_INFO": "http://public.dep.state.ma.us/SearchableSites/Site_Info.asp?RTN=3-0001658", "REGION": 3.0, "RTN": "3-0001658", "RAO_CLASS": "A3", "ADDRESS": "197 VASSAL LN"}},{"geometry": {"type": "Point", "coordinates": [-71.138537184965827, 42.392967973579644]}, "type": "Feature", "id": 77, "properties": {"TOWN": "CAMBRIDGE", "STATUS": "RAO", "NAME": "RINDGE TOWERS APARTMENTS", "AUL_DATE": "2001-10-26", "SITE_INFO": "http://public.dep.state.ma.us/SearchableSites/Site_Info.asp?RTN=3-0001659", "REGION": 3.0, "RTN": "3-0001659", "RAO_CLASS": "B2", "ADDRESS": "362-364 RINDGE AVE"}},{"geometry": {"type": "Point", "coordinates": [-70.94903633266938, 42.457304328992024]}, "type": "Feature", "id": 78, "properties": {"TOWN": "LYNN", "STATUS": "RAO", "NAME": "NORTH AMERICAN PHILLIPS LTNG", "AUL_DATE": "2002-11-01", "SITE_INFO": "http://public.dep.state.ma.us/SearchableSites/Site_Info.asp?RTN=3-0001680", "REGION": 3.0, "RTN": "3-0001680", "RAO_CLASS": "C1", "ADDRESS": "330 LYNNWAY"}},{"geometry": {"type": "Point", "coordinates": [-71.252785634106488, 42.619510039991269]}, "type": "Feature", "id": 79, "properties": {"TOWN": "TEWKSBURY", "STATUS": "RAO", "NAME": "ASTRO CIRCUITS CORP", "AUL_DATE": "1999-04-04", "SITE_INFO": "http://public.dep.state.ma.us/SearchableSites/Site_Info.asp?RTN=3-0001716", "REGION": 3.0, "RTN": "3-0001716", "RAO_CLASS": "C1", "ADDRESS": "540 MAIN ST"}},{"geometry": {"type": "Point", "coordinates": [-71.136666080117806, 42.451622320770923]}, "type": "Feature", "id": 80, "properties": {"TOWN": "WINCHESTER", "STATUS": "RAO", "NAME": "LOCATELLIS WINCHSTR RLTY TRUS", "AUL_DATE": "2002-09-19", "SITE_INFO": "http://public.dep.state.ma.us/SearchableSites/Site_Info.asp?RTN=3-0001730", "REGION": 3.0, "RTN": "3-0001730", "RAO_CLASS": "A3", "ADDRESS": "12 THOMPSON ST"}},{"geometry": {"type": "Point", "coordinates": [-71.011904131924737, 42.400444325797508]}, "type": "Feature", "id": 81, "properties": {"TOWN": "CHELSEA", "STATUS": "RAO", "NAME": "FORBES LITHOGRAPHIC CO FMR", "AUL_DATE": "2012-07-03", "SITE_INFO": "http://public.dep.state.ma.us/SearchableSites/Site_Info.asp?RTN=3-0001755", "REGION": 3.0, "RTN": "3-0001755", "RAO_CLASS": "C1", "ADDRESS": "1 FORBES STREET MARGINAL ST"}},{"geometry": {"type": "Point", "coordinates": [-71.352413435206316, 42.46366249662379]}, "type": "Feature", "id": 82, "properties": {"TOWN": "CONCORD", "STATUS": "RAO", "NAME": "GASOLINE STATION", "AUL_DATE": "2002-08-01", "SITE_INFO": "http://public.dep.state.ma.us/SearchableSites/Site_Info.asp?RTN=3-0001756", "REGION": 3.0, "RTN": "3-0001756", "RAO_CLASS": "A3", "ADDRESS": "107 LOWELL RD"}},{"geometry": {"type": "Point", "coordinates": [-71.052418807692916, 42.395764493271386]}, "type": "Feature", "id": 83, "properties": {"TOWN": "CHELSEA", "STATUS": "RAO", "NAME": "WILLIAM ST COAL TAR DUMP FMR", "AUL_DATE": "2002-06-14", "SITE_INFO": "http://public.dep.state.ma.us/SearchableSites/Site_Info.asp?RTN=3-0001791", "REGION": 3.0, "RTN": "3-0001791", "RAO_CLASS": "B2", "ADDRESS": "276 BEACHAM ST"}},{"geometry": {"type": "Point", "coordinates": [-71.018362621274733, 42.396460838779106]}, "type": "Feature", "id": 84, "properties": {"TOWN": "CHELSEA", "STATUS": "RAO", "NAME": "PROPERTY", "AUL_DATE": "1999-12-16", "SITE_INFO": "http://public.dep.state.ma.us/SearchableSites/Site_Info.asp?RTN=3-0001795", "REGION": 3.0, "RTN": "3-0001795", "RAO_CLASS": "A3", "ADDRESS": "295 EASTERN AVE"}},{"geometry": {"type": "Point", "coordinates": [-71.07020626196875, 42.325389765666934]}, "type": "Feature", "id": 85, "properties": {"TOWN": "BOSTON-ROXBURY", "STATUS": "RAO", "NAME": "SHAWMUT DESIGN & CONSTRUCTION", "AUL_DATE": "2002-10-18", "SITE_INFO": "http://public.dep.state.ma.us/SearchableSites/Site_Info.asp?RTN=3-0001797", "REGION": 3.0, "RTN": "3-0001797", "RAO_CLASS": "A3", "ADDRESS": "173A NORFOLK AVE"}},{"geometry": {"type": "Point", "coordinates": [-71.430326938473357, 42.252294675585013]}, "type": "Feature", "id": 86, "properties": {"TOWN": "ASHLAND", "STATUS": "RAO", "NAME": "PELS SUNOCO", "AUL_DATE": "2005-07-28", "SITE_INFO": "http://public.dep.state.ma.us/SearchableSites/Site_Info.asp?RTN=3-0001812", "REGION": 3.0, "RTN": "3-0001812", "RAO_CLASS": "A3", "ADDRESS": "126 POND ST"}},{"geometry": {"type": "Point", "coordinates": [-71.174081467797492, 42.231166315506577]}, "type": "Feature", "id": 87, "properties": {"TOWN": "DEDHAM", "STATUS": "RAO", "NAME": "NE CONCRETE PIPE FMR", "AUL_DATE": "2001-07-25", "SITE_INFO": "http://public.dep.state.ma.us/SearchableSites/Site_Info.asp?RTN=3-0001821", "REGION": 3.0, "RTN": "3-0001821", "RAO_CLASS": "A3", "ADDRESS": "RUSTCRAFT RD"}},{"geometry": {"type": "Point", "coordinates": [-71.066395899611962, 42.393976326117475]}, "type": "Feature", "id": 88, "properties": {"TOWN": "EVERETT", "STATUS": "RAO", "NAME": "PROPERTY", "AUL_DATE": "2002-02-12", "SITE_INFO": "http://public.dep.state.ma.us/SearchableSites/Site_Info.asp?RTN=3-0001830", "REGION": 3.0, "RTN": "3-0001830", "ADDRESS": "12 DEXTER ST"}},{"geometry": {"type": "Point", "coordinates": [-70.933360675837648, 42.493886275532809]}, "type": "Feature", "id": 89, "properties": {"TOWN": "SALEM", "STATUS": "RAO", "NAME": "SERVICE STATION", "AUL_DATE": "2011-08-24", "SITE_INFO": "http://public.dep.state.ma.us/SearchableSites/Site_Info.asp?RTN=3-0001835", "REGION": 3.0, "RTN": "3-0001835", "RAO_CLASS": "B2", "ADDRESS": "435-443 HIGHLAND AVE"}},{"geometry": {"type": "Point", "coordinates": [-71.320189321932119, 42.63988872734965]}, "type": "Feature", "id": 90, "properties": {"TOWN": "LOWELL", "STATUS": "PENNFA", "NAME": "JOAN FABRICS CORP", "AUL_DATE": "1995-07-31", "SITE_INFO": "http://public.dep.state.ma.us/SearchableSites/Site_Info.asp?RTN=3-0001840", "REGION": 3.0, "RTN": "3-0001840", "ADDRESS": "122 WESTERN AVE"}},{"geometry": {"type": "Point", "coordinates": [-71.06548348648046, 42.333278199901436]}, "type": "Feature", "id": 91, "properties": {"TOWN": "BOSTON-ROXBURY", "STATUS": "RAO", "NAME": "PROPERTY", "AUL_DATE": "2009-09-14", "SITE_INFO": "http://public.dep.state.ma.us/SearchableSites/Site_Info.asp?RTN=3-0001847", "REGION": 3.0, "RTN": "3-0001847", "RAO_CLASS": "A3", "ADDRESS": "34 MOORE AND CUMMINGS STS"}},{"geometry": {"type": "Point", "coordinates": [-71.065075222778063, 42.399719081300802]}, "type": "Feature", "id": 92, "properties": {"TOWN": "EVERETT", "STATUS": "RAO", "NAME": "NE BOLT", "AUL_DATE": "2005-06-09", "SITE_INFO": "http://public.dep.state.ma.us/SearchableSites/Site_Info.asp?RTN=3-0001850", "REGION": 3.0, "RTN": "3-0001850", "RAO_CLASS": "A3", "ADDRESS": "9 CHARLTON ST"}},{"geometry": {"type": "Point", "coordinates": [-71.068045158959876, 42.329686944050373]}, "type": "Feature", "id": 93, "properties": {"TOWN": "BOSTON-ROXBURY", "STATUS": "RAO", "NAME": "MERCHANT CAR LEASING", "AUL_DATE": "1997-03-17", "SITE_INFO": "http://public.dep.state.ma.us/SearchableSites/Site_Info.asp?RTN=3-0001861", "REGION": 3.0, "RTN": "3-0001861", "ADDRESS": "100 NEWMARKET SQ"}},{"geometry": {"type": "Point", "coordinates": [-71.397604380460379, 42.298344831199934]}, "type": "Feature", "id": 94, "properties": {"TOWN": "FRAMINGHAM", "STATUS": "RAO", "NAME": "AUTO REPAIR STATION FMR", "AUL_DATE": "2002-12-02", "SITE_INFO": "http://public.dep.state.ma.us/SearchableSites/Site_Info.asp?RTN=3-0001868", "REGION": 3.0, "RTN": "3-0001868", "RAO_CLASS": "A3", "ADDRESS": "100 WORCESTER RD"}},{"geometry": {"type": "Point", "coordinates": [-70.97591033582313, 42.453930105643181]}, "type": "Feature", "id": 95, "properties": {"TOWN": "LYNN", "STATUS": "RAO", "NAME": "MBTA PARKING LOT PARCEL 300-018-001", "AUL_DATE": "2004-01-08", "SITE_INFO": "http://public.dep.state.ma.us/SearchableSites/Site_Info.asp?RTN=3-0001883", "REGION": 3.0, "RTN": "3-0001883", "RAO_CLASS": "A3", "ADDRESS": "WESTERN AVE RTE 107 AT COOPER ST"}},{"geometry": {"type": "Point", "coordinates": [-71.069585300263896, 42.497318179631421]}, "type": "Feature", "id": 96, "properties": {"TOWN": "WAKEFIELD", "STATUS": "RAO", "NAME": "TEXACO", "AUL_DATE": "2004-02-05", "SITE_INFO": "http://public.dep.state.ma.us/SearchableSites/Site_Info.asp?RTN=3-0001889", "REGION": 3.0, "RTN": "3-0001889", "RAO_CLASS": "A3", "ADDRESS": "611 MAIN ST"}},{"geometry": {"type": "Point", "coordinates": [-71.148641354473355, 42.365619442398859]}, "type": "Feature", "id": 97, "properties": {"TOWN": "WATERTOWN", "STATUS": "RAO", "NAME": "HYERION INDUSTRIES", "AUL_DATE": "2000-10-13", "SITE_INFO": "http://public.dep.state.ma.us/SearchableSites/Site_Info.asp?RTN=3-0001910", "REGION": 3.0, "RTN": "3-0001910", "RAO_CLASS": "A3", "ADDRESS": "134 COOLIDGE AVE"}},{"geometry": {"type": "Point", "coordinates": [-71.052731939084836, 42.343696348515415]}, "type": "Feature", "id": 98, "properties": {"TOWN": "BOSTON-SOUTH BOSTON", "STATUS": "RAO", "NAME": "SOUTH POSTAL ANNEX", "AUL_DATE": "2009-06-21", "SITE_INFO": "http://public.dep.state.ma.us/SearchableSites/Site_Info.asp?RTN=3-0001918", "REGION": 3.0, "RTN": "3-0001918", "RAO_CLASS": "A3", "ADDRESS": "135 A ST"}},{"geometry": {"type": "Point", "coordinates": [-70.884649224480853, 42.54814903812629]}, "type": "Feature", "id": 99, "properties": {"TOWN": "BEVERLY", "STATUS": "RAO", "NAME": "PREVIOUS BUILDING", "AUL_DATE": "2004-11-29", "SITE_INFO": "http://public.dep.state.ma.us/SearchableSites/Site_Info.asp?RTN=3-0001938", "REGION": 3.0, "RTN": "3-0001938", "ADDRESS": "190-200 RANTOUL 31-33 PARK"}},{"geometry": {"type": "Point", "coordinates": [-71.08571682863078, 42.340380253842582]}, "type": "Feature", "id": 100, "properties": {"TOWN": "BOSTON-BOSTON", "STATUS": "RAO", "NAME": "UPTOWN GARAGE", "AUL_DATE": "2000-10-27", "SITE_INFO": "http://public.dep.state.ma.us/SearchableSites/Site_Info.asp?RTN=3-0001939", "REGION": 3.0, "RTN": "3-0001939", "RAO_CLASS": "A3", "ADDRESS": "10 GAINSBOROUGH ST"}},{"geometry": {"type": "Point", "coordinates": [-70.989360464762328, 42.53624655826912]}, "type": "Feature", "id": 101, "properties": {"TOWN": "PEABODY", "STATUS": "INVSUB", "NAME": "SERVICE STATION", "AUL_DATE": "1997-08-04", "SITE_INFO": "http://public.dep.state.ma.us/SearchableSites/Site_Info.asp?RTN=3-0001952", "REGION": 3.0, "RTN": "3-0001952", "ADDRESS": "136 NEWBURY ST"}},{"geometry": {"type": "Point", "coordinates": [-71.230432417121122, 42.348579302009846]}, "type": "Feature", "id": 102, "properties": {"TOWN": "NEWTON", "STATUS": "RAO", "NAME": "CAPELLO BROTHERS CONST CO", "AUL_DATE": "2005-03-08", "SITE_INFO": "http://public.dep.state.ma.us/SearchableSites/Site_Info.asp?RTN=3-0001955", "REGION": 3.0, "RTN": "3-0001955", "RAO_CLASS": "A3", "ADDRESS": "30-36 BORDER ST"}},{"geometry": {"type": "Point", "coordinates": [-71.134051934254686, 42.491596201990426]}, "type": "Feature", "id": 103, "properties": {"TOWN": "WOBURN", "STATUS": "RAO", "NAME": "INDUSTRIAL PROPERTY", "AUL_DATE": "1996-08-14", "SITE_INFO": "http://public.dep.state.ma.us/SearchableSites/Site_Info.asp?RTN=3-0001966", "REGION": 3.0, "RTN": "3-0001966", "RAO_CLASS": "B2", "ADDRESS": "225 WILDWOOD AVE"}},{"geometry": {"type": "Point", "coordinates": [-71.057936101363154, 42.367892065201062]}, "type": "Feature", "id": 104, "properties": {"TOWN": "BOSTON-BOSTON", "STATUS": "RAO", "NAME": "PROPERTY", "AUL_DATE": "2005-11-21", "SITE_INFO": "http://public.dep.state.ma.us/SearchableSites/Site_Info.asp?RTN=3-0001974", "REGION": 3.0, "RTN": "3-0001974", "RAO_CLASS": "B1", "ADDRESS": "585 COMMERCIAL AVE"}},{"geometry": {"type": "Point", "coordinates": [-71.067101114482924, 42.334519716367609]}, "type": "Feature", "id": 105, "properties": {"TOWN": "BOSTON-ROXBURY", "STATUS": "RAO", "NAME": "COMMERCIAL PROPERTY FMR", "AUL_DATE": "2004-08-25", "SITE_INFO": "http://public.dep.state.ma.us/SearchableSites/Site_Info.asp?RTN=3-0001977", "REGION": 3.0, "RTN": "3-0001977", "RAO_CLASS": "A3", "ADDRESS": "70 SOUTH BAY AND BRADSTON"}},{"geometry": {"type": "Point", "coordinates": [-71.130435077572201, 42.362928431382294]}, "type": "Feature", "id": 106, "properties": {"TOWN": "BOSTON-ALLSTON", "STATUS": "RAO", "NAME": "EXXON STATION", "AUL_DATE": "1995-07-26", "SITE_INFO": "http://public.dep.state.ma.us/SearchableSites/Site_Info.asp?RTN=3-0001978", "REGION": 3.0, "RTN": "3-0001978", "ADDRESS": "198 WESTERN AVE"}},{"geometry": {"type": "Point", "coordinates": [-71.067217751704021, 42.423706094077801]}, "type": "Feature", "id": 107, "properties": {"TOWN": "MALDEN", "STATUS": "RAO", "NAME": "PERFORMANCE AUTO", "AUL_DATE": "2001-09-20", "SITE_INFO": "http://public.dep.state.ma.us/SearchableSites/Site_Info.asp?RTN=3-0001981", "REGION": 3.0, "RTN": "3-0001981", "RAO_CLASS": "A3", "ADDRESS": "259 MAIN ST"}},{"geometry": {"type": "Point", "coordinates": [-71.056461495831499, 42.335274420017605]}, "type": "Feature", "id": 108, "properties": {"TOWN": "BOSTON-SOUTH BOSTON", "STATUS": "RAO", "NAME": "ADAMS & SWETT", "AUL_DATE": "1997-04-03", "SITE_INFO": "http://public.dep.state.ma.us/SearchableSites/Site_Info.asp?RTN=3-0001986", "REGION": 3.0, "RTN": "3-0001986", "RAO_CLASS": "A3", "ADDRESS": "376-384 DORCHESTER AVE"}},{"geometry": {"type": "Point", "coordinates": [-71.086916650690824, 42.364949623886233]}, "type": "Feature", "id": 109, "properties": {"TOWN": "CAMBRIDGE", "STATUS": "RAO", "NAME": "POTTER PARCEL", "AUL_DATE": "2009-05-15", "SITE_INFO": "http://public.dep.state.ma.us/SearchableSites/Site_Info.asp?RTN=3-0001988", "REGION": 3.0, "RTN": "3-0001988", "RAO_CLASS": "A3", "ADDRESS": "12 CAMBRIDGE CTR"}},{"geometry": {"type": "Point", "coordinates": [-71.074012588499457, 42.328762506197272]}, "type": "Feature", "id": 110, "properties": {"TOWN": "BOSTON-ROXBURY", "STATUS": "RAO", "NAME": "INDUSTRIAL PROPERTY", "AUL_DATE": "2011-11-09", "SITE_INFO": "http://public.dep.state.ma.us/SearchableSites/Site_Info.asp?RTN=3-0001996", "REGION": 3.0, "RTN": "3-0001996", "RAO_CLASS": "A3", "ADDRESS": "20-56 31-47 KEMBLE ST"}},{"geometry": {"type": "Point", "coordinates": [-71.027980901118639, 42.253569656199687]}, "type": "Feature", "id": 111, "properties": {"TOWN": "QUINCY", "STATUS": "RAO", "NAME": "PROPERTY", "AUL_DATE": "1996-12-31", "SITE_INFO": "http://public.dep.state.ma.us/SearchableSites/Site_Info.asp?RTN=3-0002001", "REGION": 3.0, "RTN": "3-0002001", "RAO_CLASS": "A3", "ADDRESS": "550 ADAMS ST"}},{"geometry": {"type": "Point", "coordinates": [-71.261603613487054, 42.485839908387689]}, "type": "Feature", "id": 112, "properties": {"TOWN": "BEDFORD", "STATUS": "RAO", "NAME": "JIFFY LUBE NO 1210/FORMER GULF STATION", "AUL_DATE": "2008-10-30", "SITE_INFO": "http://public.dep.state.ma.us/SearchableSites/Site_Info.asp?RTN=3-0002012", "REGION": 3.0, "RTN": "3-0002012", "RAO_CLASS": "A3", "ADDRESS": "331 GREAT RD"}},{"geometry": {"type": "Point", "coordinates": [-71.075025215595417, 42.330021042048976]}, "type": "Feature", "id": 113, "properties": {"TOWN": "BOSTON-ROXBURY", "STATUS": "RAO", "NAME": "BAY STATE AUTO SPRING MFG", "AUL_DATE": "2010-07-08", "SITE_INFO": "http://public.dep.state.ma.us/SearchableSites/Site_Info.asp?RTN=3-0002034", "REGION": 3.0, "RTN": "3-0002034", "RAO_CLASS": "A3", "ADDRESS": "83 HAMPDEN ST"}},{"geometry": {"type": "Point", "coordinates": [-71.105274195549271, 42.312143240090222]}, "type": "Feature", "id": 114, "properties": {"TOWN": "BOSTON-JAMAICA PLAIN", "STATUS": "RAO", "NAME": "A WILSON INC", "AUL_DATE": "2009-01-22", "SITE_INFO": "http://public.dep.state.ma.us/SearchableSites/Site_Info.asp?RTN=3-0002036", "REGION": 3.0, "RTN": "3-0002036", "RAO_CLASS": "A3", "ADDRESS": "364 AMORY ST"}},{"geometry": {"type": "Point", "coordinates": [-71.010753792734008, 42.411266024214633]}, "type": "Feature", "id": 115, "properties": {"TOWN": "REVERE", "STATUS": "RAO", "NAME": "OLD CITY YARD", "AUL_DATE": "2002-11-14", "SITE_INFO": "http://public.dep.state.ma.us/SearchableSites/Site_Info.asp?RTN=3-0002037", "REGION": 3.0, "RTN": "3-0002037", "RAO_CLASS": "A3", "ADDRESS": "453 BROADWAY"}},{"geometry": {"type": "Point", "coordinates": [-71.043861094033062, 42.429893830599603]}, "type": "Feature", "id": 116, "properties": {"TOWN": "MALDEN", "STATUS": "RAO", "NAME": "MALDEN TRANSPORTATION CO", "AUL_DATE": "2005-11-25", "SITE_INFO": "http://public.dep.state.ma.us/SearchableSites/Site_Info.asp?RTN=3-0002050", "REGION": 3.0, "RTN": "3-0002050", "RAO_CLASS": "A3", "ADDRESS": "900 EASTERN AVE"}},{"geometry": {"type": "Point", "coordinates": [-71.078230633431247, 42.413439340085169]}, "type": "Feature", "id": 117, "properties": {"TOWN": "MEDFORD", "STATUS": "RAO", "NAME": "PROPERTY", "AUL_DATE": "2002-10-10", "SITE_INFO": "http://public.dep.state.ma.us/SearchableSites/Site_Info.asp?RTN=3-0002051", "REGION": 3.0, "RTN": "3-0002051", "RAO_CLASS": "B2", "ADDRESS": "291 MIDDLESEX AVE"}},{"geometry": {"type": "Point", "coordinates": [-71.078381813118952, 42.415425946573741]}, "type": "Feature", "id": 118, "properties": {"TOWN": "MALDEN", "STATUS": "RAO", "NAME": "PROPERTY", "AUL_DATE": "2002-10-10", "SITE_INFO": "http://public.dep.state.ma.us/SearchableSites/Site_Info.asp?RTN=3-0002052", "REGION": 3.0, "RTN": "3-0002052", "RAO_CLASS": "B2", "ADDRESS": "1-13 HIGHLAND AVE"}},{"geometry": {"type": "Point", "coordinates": [-71.282626395326261, 42.631425368283708]}, "type": "Feature", "id": 119, "properties": {"TOWN": "LOWELL", "STATUS": "RAO", "NAME": "GASOLINE STATION FMR", "AUL_DATE": "2010-04-28", "SITE_INFO": "http://public.dep.state.ma.us/SearchableSites/Site_Info.asp?RTN=3-0002076", "REGION": 3.0, "RTN": "3-0002076", "RAO_CLASS": "A3", "ADDRESS": "626 ROGERS ST"}},{"geometry": {"type": "Point", "coordinates": [-71.153403302027499, 42.342669826428732]}, "type": "Feature", "id": 120, "properties": {"TOWN": "BOSTON-BRIGHTON", "STATUS": "RAO", "NAME": "ENGINE 29", "AUL_DATE": "2006-10-30", "SITE_INFO": "http://public.dep.state.ma.us/SearchableSites/Site_Info.asp?RTN=3-0018307", "REGION": 3.0, "RTN": "3-0018307", "RAO_CLASS": "A3", "ADDRESS": "138 CHESTNUT AVE"}},{"geometry": {"type": "Point", "coordinates": [-71.092521863021275, 42.37878218421703]}, "type": "Feature", "id": 121, "properties": {"TOWN": "SOMERVILLE", "STATUS": "RAO", "NAME": "MERRIAM ST FMR UST NEXT TO SOMERVILLE AV", "AUL_DATE": "2007-05-22", "SITE_INFO": "http://public.dep.state.ma.us/SearchableSites/Site_Info.asp?RTN=3-0018323", "REGION": 3.0, "RTN": "3-0018323", "RAO_CLASS": "B2", "ADDRESS": "220 WASHINGTON ST"}},{"geometry": {"type": "Point", "coordinates": [-70.883516553826482, 42.560304170322816]}, "type": "Feature", "id": 122, "properties": {"TOWN": "BEVERLY", "STATUS": "RAO", "NAME": "NO LOCATION AID", "AUL_DATE": "2012-11-29", "SITE_INFO": "http://public.dep.state.ma.us/SearchableSites/Site_Info.asp?RTN=3-0018351", "REGION": 3.0, "RTN": "3-0018351", "RAO_CLASS": "A3", "ADDRESS": "418 CABOT ST"}},{"geometry": {"type": "Point", "coordinates": [-71.090441021482192, 42.476656992395753]}, "type": "Feature", "id": 123, "properties": {"TOWN": "STONEHAM", "STATUS": "RAO", "NAME": "STEVENS STREET INTERSECTION", "AUL_DATE": "2007-11-28", "SITE_INFO": "http://public.dep.state.ma.us/SearchableSites/Site_Info.asp?RTN=3-0018354", "REGION": 3.0, "RTN": "3-0018354", "RAO_CLASS": "A3", "ADDRESS": "128 FRANKLIN ST"}},{"geometry": {"type": "Point", "coordinates": [-70.995858359691354, 42.243341677794668]}, "type": "Feature", "id": 124, "properties": {"TOWN": "QUINCY", "STATUS": "RAO", "NAME": "SHAWS SUPERMARKET", "AUL_DATE": "2000-06-07", "SITE_INFO": "http://public.dep.state.ma.us/SearchableSites/Site_Info.asp?RTN=3-0018358", "REGION": 3.0, "RTN": "3-0018358", "RAO_CLASS": "B2", "ADDRESS": "100 QUINCY AVE"}},{"geometry": {"type": "Point", "coordinates": [-71.109012816319364, 42.262296651027647]}, "type": "Feature", "id": 125, "properties": {"TOWN": "BOSTON-HYDE PARK", "STATUS": "RAO", "NAME": "NO LOCATION AID", "AUL_DATE": "2004-12-15", "SITE_INFO": "http://public.dep.state.ma.us/SearchableSites/Site_Info.asp?RTN=3-0018374", "REGION": 3.0, "RTN": "3-0018374", "RAO_CLASS": "A3", "ADDRESS": "867 TO 869 RIVER ST"}},{"geometry": {"type": "Point", "coordinates": [-71.076719953371352, 42.329446040850577]}, "type": "Feature", "id": 126, "properties": {"TOWN": "BOSTON-ROXBURY", "STATUS": "RAO", "NAME": "NO LOCATION AID", "AUL_DATE": "2006-10-19", "SITE_INFO": "http://public.dep.state.ma.us/SearchableSites/Site_Info.asp?RTN=3-0018408", "REGION": 3.0, "RTN": "3-0018408", "ADDRESS": "DUDLEY ST"}},{"geometry": {"type": "Point", "coordinates": [-71.245509499615224, 42.370880308804217]}, "type": "Feature", "id": 127, "properties": {"TOWN": "WALTHAM", "STATUS": "RAO", "NAME": "NO LOCATION AID", "AUL_DATE": "2000-01-18", "SITE_INFO": "http://public.dep.state.ma.us/SearchableSites/Site_Info.asp?RTN=3-0018416", "REGION": 3.0, "RTN": "3-0018416", "ADDRESS": "43 SUN ST"}},{"geometry": {"type": "Point", "coordinates": [-71.245536408040422, 42.370945454079326]}, "type": "Feature", "id": 128, "properties": {"TOWN": "WALTHAM", "STATUS": "RAO", "NAME": "NO LOCATION AID", "AUL_DATE": "2000-01-18", "SITE_INFO": "http://public.dep.state.ma.us/SearchableSites/Site_Info.asp?RTN=3-0018417", "REGION": 3.0, "RTN": "3-0018417", "ADDRESS": "43 SUN ST"}},{"geometry": {"type": "Point", "coordinates": [-71.085565131684362, 42.340004396661975]}, "type": "Feature", "id": 129, "properties": {"TOWN": "BOSTON-BOSTON", "STATUS": "RAO", "NAME": "BEHIND CHECKER TAXI", "AUL_DATE": "2000-12-06", "SITE_INFO": "http://public.dep.state.ma.us/SearchableSites/Site_Info.asp?RTN=3-0018418", "REGION": 3.0, "RTN": "3-0018418", "RAO_CLASS": "A3", "ADDRESS": "284 ST BOTOLPH ST"}},{"geometry": {"type": "Point", "coordinates": [-71.071457542759944, 42.33173452588747]}, "type": "Feature", "id": 130, "properties": {"TOWN": "BOSTON-ROXBURY", "STATUS": "RTN CLOSED", "NAME": "AT MASS AVE", "AUL_DATE": "1999-09-21", "SITE_INFO": "http://public.dep.state.ma.us/SearchableSites/Site_Info.asp?RTN=3-0018421", "REGION": 3.0, "RTN": "3-0018421", "ADDRESS": "8 GERARD ST"}},{"geometry": {"type": "Point", "coordinates": [-71.065275960097054, 42.345201099823875]}, "type": "Feature", "id": 131, "properties": {"TOWN": "BOSTON-BOSTON", "STATUS": "RTN CLOSED", "NAME": "1025 WASHINGTON ST", "AUL_DATE": "2000-02-29", "SITE_INFO": "http://public.dep.state.ma.us/SearchableSites/Site_Info.asp?RTN=3-0018427", "REGION": 3.0, "RTN": "3-0018427", "ADDRESS": "170 SHAWMUT AVE"}},{"geometry": {"type": "Point", "coordinates": [-71.069859633726182, 42.338828675431785]}, "type": "Feature", "id": 132, "properties": {"TOWN": "BOSTON-BOSTON", "STATUS": "RAO", "NAME": "ENGINE 3", "AUL_DATE": "2004-02-17", "SITE_INFO": "http://public.dep.state.ma.us/SearchableSites/Site_Info.asp?RTN=3-0018428", "REGION": 3.0, "RTN": "3-0018428", "RAO_CLASS": "A3", "ADDRESS": "618 HARRISON AVE"}},{"geometry": {"type": "Point", "coordinates": [-71.006341426763598, 42.398907626058985]}, "type": "Feature", "id": 133, "properties": {"TOWN": "REVERE", "STATUS": "RAO", "NAME": "TANK FARM  TANK 11", "AUL_DATE": "2002-07-17", "SITE_INFO": "http://public.dep.state.ma.us/SearchableSites/Site_Info.asp?RTN=3-0018442", "REGION": 3.0, "RTN": "3-0018442", "RAO_CLASS": "A3", "ADDRESS": "222 LEE BURBANK HWY"}},{"geometry": {"type": "Point", "coordinates": [-71.08877004240216, 42.295095085139678]}, "type": "Feature", "id": 134, "properties": {"TOWN": "BOSTON-DORCHESTER", "STATUS": "RTN CLOSED", "NAME": "NO LOCATION AID", "AUL_DATE": "2003-11-28", "SITE_INFO": "http://public.dep.state.ma.us/SearchableSites/Site_Info.asp?RTN=3-0018449", "REGION": 3.0, "RTN": "3-0018449", "ADDRESS": "31 SHANDON RD"}},{"geometry": {"type": "Point", "coordinates": [-71.053013473485422, 42.394754817782854]}, "type": "Feature", "id": 135, "properties": {"TOWN": "EVERETT", "STATUS": "RAO", "NAME": "CHELSEA FMR ISLAND END RIVER OXBOW", "AUL_DATE": "2010-12-17", "SITE_INFO": "http://public.dep.state.ma.us/SearchableSites/Site_Info.asp?RTN=3-0018459", "REGION": 3.0, "RTN": "3-0018459", "RAO_CLASS": "C2", "ADDRESS": "BEACHAM ST"}},{"geometry": {"type": "Point", "coordinates": [-71.070738313738943, 42.270321968357464]}, "type": "Feature", "id": 136, "properties": {"TOWN": "BOSTON-DORCHESTER", "STATUS": "RAO", "NAME": "NO LOCATION AID", "AUL_DATE": "2002-04-24", "SITE_INFO": "http://public.dep.state.ma.us/SearchableSites/Site_Info.asp?RTN=3-0018465", "REGION": 3.0, "RTN": "3-0018465", "RAO_CLASS": "A2", "ADDRESS": "NEPONSET RIVER TRL"}},{"geometry": {"type": "Point", "coordinates": [-70.926365820378848, 42.255816445231375]}, "type": "Feature", "id": 137, "properties": {"TOWN": "WEYMOUTH", "STATUS": "RAO", "NAME": "TERN HARBOR MARINA", "AUL_DATE": "2010-08-09", "SITE_INFO": "http://public.dep.state.ma.us/SearchableSites/Site_Info.asp?RTN=4-3021629", "REGION": 4.0, "RTN": "4-3021629", "RAO_CLASS": "A3", "ADDRESS": "275 RIVER ST"}},{"geometry": {"type": "Point", "coordinates": [-70.925942081112851, 42.256838512977872]}, "type": "Feature", "id": 138, "properties": {"TOWN": "WEYMOUTH", "STATUS": "RAO", "NAME": "CONDO PROPERTY", "AUL_DATE": "2009-08-07", "SITE_INFO": "http://public.dep.state.ma.us/SearchableSites/Site_Info.asp?RTN=4-3021630", "REGION": 4.0, "RTN": "4-3021630", "RAO_CLASS": "A3", "ADDRESS": "300 RIVER ST"}},{"geometry": {"type": "Point", "coordinates": [-70.925881321259936, 42.256371323179742]}, "type": "Feature", "id": 139, "properties": {"TOWN": "WEYMOUTH", "STATUS": "RAO", "NAME": "NO LOCATION AID", "AUL_DATE": "2007-10-22", "SITE_INFO": "http://public.dep.state.ma.us/SearchableSites/Site_Info.asp?RTN=4-3022662", "REGION": 4.0, "RTN": "4-3022662", "RAO_CLASS": "A3", "ADDRESS": "285 RIVER ST"}},{"geometry": {"type": "Point", "coordinates": [-70.922509391288614, 42.251811473488935]}, "type": "Feature", "id": 140, "properties": {"TOWN": "HINGHAM", "STATUS": "RAO", "NAME": "HEWITTS COVE MARINA", "AUL_DATE": "2008-08-16", "SITE_INFO": "http://public.dep.state.ma.us/SearchableSites/Site_Info.asp?RTN=4-3023722", "REGION": 4.0, "RTN": "4-3023722", "RAO_CLASS": "A3", "ADDRESS": "349 LINCOLN ST"}},{"geometry": {"type": "Point", "coordinates": [-71.254283542374068, 42.147829428323853]}, "type": "Feature", "id": 141, "properties": {"TOWN": "WALPOLE", "STATUS": "RAO", "NAME": "BEACH PROPERTY  KENDALL COMPANY", "AUL_DATE": "2005-09-01", "SITE_INFO": "http://public.dep.state.ma.us/SearchableSites/Site_Info.asp?RTN=4-3023787", "REGION": 4.0, "RTN": "4-3023787", "RAO_CLASS": "A3", "ADDRESS": "ELM ST"}},{"geometry": {"type": "Point", "coordinates": [-71.05033660580915, 42.205826862593931]}, "type": "Feature", "id": 142, "properties": {"TOWN": "RANDOLPH", "STATUS": "RAO", "NAME": "LOT 37", "AUL_DATE": "2004-06-23", "SITE_INFO": "http://public.dep.state.ma.us/SearchableSites/Site_Info.asp?RTN=4-3023897", "REGION": 4.0, "RTN": "4-3023897", "RAO_CLASS": "B2", "ADDRESS": "PACELLA PARK DR"}},{"geometry": {"type": "Point", "coordinates": [-70.846927610605107, 42.265463632459308]}, "type": "Feature", "id": 143, "properties": {"TOWN": "HULL", "STATUS": "RAO", "NAME": "NO LOCATION AID", "AUL_DATE": "2012-05-14", "SITE_INFO": "http://public.dep.state.ma.us/SearchableSites/Site_Info.asp?RTN=4-3024268", "REGION": 4.0, "RTN": "4-3024268", "RAO_CLASS": "A3", "ADDRESS": "25 ATLANTIC HOUSE RD"}},{"geometry": {"type": "Point", "coordinates": [-70.959950738737803, 42.212338820879388]}, "type": "Feature", "id": 144, "properties": {"TOWN": "WEYMOUTH", "STATUS": "RAO", "NAME": "NO LOCATION AID", "AUL_DATE": "2007-01-04", "SITE_INFO": "http://public.dep.state.ma.us/SearchableSites/Site_Info.asp?RTN=4-3025523", "REGION": 4.0, "RTN": "4-3025523", "RAO_CLASS": "B2", "ADDRESS": "340 WASHINGTON ST"}},{"geometry": {"type": "Point", "coordinates": [-71.218544215720186, 42.176369192724145]}, "type": "Feature", "id": 145, "properties": {"TOWN": "NORWOOD", "STATUS": "RAO", "NAME": "NO LOCATION AID", "AUL_DATE": "2009-03-26", "SITE_INFO": "http://public.dep.state.ma.us/SearchableSites/Site_Info.asp?RTN=4-3025762", "REGION": 4.0, "RTN": "4-3025762", "RAO_CLASS": "B2", "ADDRESS": "77 DAVIS AVE"}},{"geometry": {"type": "Point", "coordinates": [-70.885630179266116, 42.560197658497479]}, "type": "Feature", "id": 146, "properties": {"TOWN": "BEVERLY", "STATUS": "RAO", "NAME": "USM MACHINERY", "AUL_DATE": "2008-10-17", "SITE_INFO": "http://public.dep.state.ma.us/SearchableSites/Site_Info.asp?RTN=3-0000610", "REGION": 3.0, "RTN": "3-0000610", "RAO_CLASS": "B1", "ADDRESS": "181 ELLIOT ST"}},{"geometry": {"type": "Point", "coordinates": [-71.08324439507831, 42.366321905926249]}, "type": "Feature", "id": 147, "properties": {"TOWN": "CAMBRIDGE", "STATUS": "RAO", "NAME": "TRW FASTENERS", "AUL_DATE": "1997-02-14", "SITE_INFO": "http://public.dep.state.ma.us/SearchableSites/Site_Info.asp?RTN=3-0000624", "REGION": 3.0, "RTN": "3-0000624", "RAO_CLASS": "A3", "ADDRESS": "265 THIRD ST"}},{"geometry": {"type": "Point", "coordinates": [-71.037171104222267, 42.283597607747517]}, "type": "Feature", "id": 148, "properties": {"TOWN": "QUINCY", "STATUS": "TIER 2", "NAME": "MATHEWSON CORPORATION", "AUL_DATE": "2009-04-17", "SITE_INFO": "http://public.dep.state.ma.us/SearchableSites/Site_Info.asp?RTN=3-0000646", "REGION": 3.0, "RTN": "3-0000646", "ADDRESS": "2 HANCOCK ST"}},{"geometry": {"type": "Point", "coordinates": [-71.079992492882894, 42.394882555897894]}, "type": "Feature", "id": 149, "properties": {"TOWN": "SOMERVILLE", "STATUS": "RAO", "NAME": "HK PORTER", "AUL_DATE": "2012-06-12", "SITE_INFO": "http://public.dep.state.ma.us/SearchableSites/Site_Info.asp?RTN=3-0000649", "REGION": 3.0, "RTN": "3-0000649", "RAO_CLASS": "A3", "ADDRESS": "74 FOLEY ST"}},{"geometry": {"type": "Point", "coordinates": [-71.084370450317365, 42.390979773884524]}, "type": "Feature", "id": 150, "properties": {"TOWN": "SOMERVILLE", "STATUS": "RAO", "NAME": "SOMERVILLE LUMBER", "AUL_DATE": "2005-04-28", "SITE_INFO": "http://public.dep.state.ma.us/SearchableSites/Site_Info.asp?RTN=3-0000658", "REGION": 3.0, "RTN": "3-0000658", "RAO_CLASS": "A3", "ADDRESS": "260 MYSTIC AVE AKA 70 CROSS ST"}},{"geometry": {"type": "Point", "coordinates": [-71.41023330196262, 42.270850477212257]}, "type": "Feature", "id": 151, "properties": {"TOWN": "FRAMINGHAM", "STATUS": "RAO", "NAME": "PROPERTY", "AUL_DATE": "2003-04-21", "SITE_INFO": "http://public.dep.state.ma.us/SearchableSites/Site_Info.asp?RTN=3-0000691", "REGION": 3.0, "RTN": "3-0000691", "RAO_CLASS": "A2", "ADDRESS": "25 LORING DR"}},{"geometry": {"type": "Point", "coordinates": [-71.05812651746011, 42.383403226541638]}, "type": "Feature", "id": 152, "properties": {"TOWN": "BOSTON-CHARLESTOWN", "STATUS": "RAO", "NAME": "MASSPORT SCHIAVONE PROP FMR", "AUL_DATE": "1997-08-08", "SITE_INFO": "http://public.dep.state.ma.us/SearchableSites/Site_Info.asp?RTN=3-0000694", "REGION": 3.0, "RTN": "3-0000694", "RAO_CLASS": "A3", "ADDRESS": "100 TERMINAL ST"}},{"geometry": {"type": "Point", "coordinates": [-71.1536221924015, 42.644493293604285]}, "type": "Feature", "id": 153, "properties": {"TOWN": "ANDOVER", "STATUS": "INVSUB", "NAME": "AMERICAN POWER DEVICES", "AUL_DATE": "1998-08-06", "SITE_INFO": "http://public.dep.state.ma.us/SearchableSites/Site_Info.asp?RTN=3-0000695", "REGION": 3.0, "RTN": "3-0000695", "ADDRESS": "28 ANDOVER ST"}},{"geometry": {"type": "Point", "coordinates": [-71.039709010275431, 42.382876827687198]}, "type": "Feature", "id": 154, "properties": {"TOWN": "BOSTON-EAST BOSTON", "STATUS": "RAO", "NAME": "AMOCO STATION FMR 2106", "AUL_DATE": "2004-08-31", "SITE_INFO": "http://public.dep.state.ma.us/SearchableSites/Site_Info.asp?RTN=3-0000700", "REGION": 3.0, "RTN": "3-0000700", "RAO_CLASS": "A3", "ADDRESS": "470 MERIDIAN ST"}},{"geometry": {"type": "Point", "coordinates": [-71.295039612722178, 42.62316775343519]}, "type": "Feature", "id": 155, "properties": {"TOWN": "LOWELL", "STATUS": "RAO", "NAME": "COSTA S DUMP FMR", "AUL_DATE": "2011-07-19", "SITE_INFO": "http://public.dep.state.ma.us/SearchableSites/Site_Info.asp?RTN=3-0000713", "REGION": 3.0, "RTN": "3-0000713", "RAO_CLASS": "A3", "ADDRESS": "89-103 BILLERICA ST"}},{"geometry": {"type": "Point", "coordinates": [-71.128517862698146, 42.25148371047775]}, "type": "Feature", "id": 156, "properties": {"TOWN": "BOSTON-HYDE PARK", "STATUS": "RAO", "NAME": "LE MASON", "AUL_DATE": "2011-11-23", "SITE_INFO": "http://public.dep.state.ma.us/SearchableSites/Site_Info.asp?RTN=3-0000730", "REGION": 3.0, "RTN": "3-0000730", "RAO_CLASS": "A3", "ADDRESS": "98 BUSINESS ST"}},{"geometry": {"type": "Point", "coordinates": [-71.148526128503022, 42.475180076563682]}, "type": "Feature", "id": 157, "properties": {"TOWN": "WOBURN", "STATUS": "RAO", "NAME": "PROPERTY", "AUL_DATE": "1997-05-13", "SITE_INFO": "http://public.dep.state.ma.us/SearchableSites/Site_Info.asp?RTN=3-0000731", "REGION": 3.0, "RTN": "3-0000731", "RAO_CLASS": "B2", "ADDRESS": "8-10 GREEN ST"}},{"geometry": {"type": "Point", "coordinates": [-71.089210250840836, 42.335153583476753]}, "type": "Feature", "id": 158, "properties": {"TOWN": "BOSTON-ROXBURY", "STATUS": "RAO", "NAME": "SOUTHWEST CORRIDOR PARCEL 18", "AUL_DATE": "2003-09-26", "SITE_INFO": "http://public.dep.state.ma.us/SearchableSites/Site_Info.asp?RTN=3-0000739", "REGION": 3.0, "RTN": "3-0000739", "RAO_CLASS": "B1", "ADDRESS": "TREMONT ST RUGGLES ST"}},{"geometry": {"type": "Point", "coordinates": [-71.083971231916308, 42.313944088936616]}, "type": "Feature", "id": 159, "properties": {"TOWN": "BOSTON-ROXBURY", "STATUS": "RAO", "NAME": "EXXON SERVICE STA FMR 3 5941", "AUL_DATE": "1995-07-26", "SITE_INFO": "http://public.dep.state.ma.us/SearchableSites/Site_Info.asp?RTN=3-0000741", "REGION": 3.0, "RTN": "3-0000741", "RAO_CLASS": "A3", "ADDRESS": "507 WARREN ST"}},{"geometry": {"type": "Point", "coordinates": [-71.032887677872523, 42.271032251838754]}, "type": "Feature", "id": 160, "properties": {"TOWN": "QUINCY", "STATUS": "RAO", "NAME": "MORSE RADIATOR", "AUL_DATE": "1998-07-07", "SITE_INFO": "http://public.dep.state.ma.us/SearchableSites/Site_Info.asp?RTN=3-0000769", "REGION": 3.0, "RTN": "3-0000769", "RAO_CLASS": "A2", "ADDRESS": "179 WEST SQUANTUM ST"}},{"geometry": {"type": "Point", "coordinates": [-71.024302806213143, 42.370495340230555]}, "type": "Feature", "id": 161, "properties": {"TOWN": "BOSTON-EAST BOSTON", "STATUS": "RAO", "NAME": "AMERICAN AIRLINES", "AUL_DATE": "2002-09-20", "SITE_INFO": "http://public.dep.state.ma.us/SearchableSites/Site_Info.asp?RTN=3-0000777", "REGION": 3.0, "RTN": "3-0000777", "RAO_CLASS": "A3", "ADDRESS": "LOGAN AIRPORT"}},{"geometry": {"type": "Point", "coordinates": [-71.149233235348717, 42.399486573928655]}, "type": "Feature", "id": 162, "properties": {"TOWN": "CAMBRIDGE", "STATUS": "RAO", "NAME": "PROPERTY", "AUL_DATE": "1997-05-15", "SITE_INFO": "http://public.dep.state.ma.us/SearchableSites/Site_Info.asp?RTN=3-0000783", "REGION": 3.0, "RTN": "3-0000783", "RAO_CLASS": "A3", "ADDRESS": "203 CONCORD TPKE"}},{"geometry": {"type": "Point", "coordinates": [-71.200926286237973, 42.511253787870686]}, "type": "Feature", "id": 163, "properties": {"TOWN": "BURLINGTON", "STATUS": "RAO", "NAME": "SHELL STATION", "AUL_DATE": "2009-01-13", "SITE_INFO": "http://public.dep.state.ma.us/SearchableSites/Site_Info.asp?RTN=3-0000784", "REGION": 3.0, "RTN": "3-0000784", "RAO_CLASS": "A3", "ADDRESS": "198 CAMBRIDGE ST"}},{"geometry": {"type": "Point", "coordinates": [-71.230222054623567, 42.377431806911297]}, "type": "Feature", "id": 164, "properties": {"TOWN": "WALTHAM", "STATUS": "RAO", "NAME": "ARCO STATION 11337", "AUL_DATE": "2004-09-10", "SITE_INFO": "http://public.dep.state.ma.us/SearchableSites/Site_Info.asp?RTN=3-0000791", "REGION": 3.0, "RTN": "3-0000791", "RAO_CLASS": "A3", "ADDRESS": "487 MAIN ST LYMAN STS"}},{"geometry": {"type": "Point", "coordinates": [-71.180405848845083, 42.719311018214441]}, "type": "Feature", "id": 165, "properties": {"TOWN": "METHUEN", "STATUS": "RAO", "NAME": "JIM S AMERICAN GASOLINE STA", "AUL_DATE": "2006-02-18", "SITE_INFO": "http://public.dep.state.ma.us/SearchableSites/Site_Info.asp?RTN=3-0000803", "REGION": 3.0, "RTN": "3-0000803", "RAO_CLASS": "A3", "ADDRESS": "62 BROADWAY"}},{"geometry": {"type": "Point", "coordinates": [-70.885435504093152, 42.544677902802796]}, "type": "Feature", "id": 166, "properties": {"TOWN": "BEVERLY", "STATUS": "RAO", "NAME": "GATEWAY TOWERS", "AUL_DATE": "2011-03-10", "SITE_INFO": "http://public.dep.state.ma.us/SearchableSites/Site_Info.asp?RTN=3-0000808", "REGION": 3.0, "RTN": "3-0000808", "RAO_CLASS": "C1", "ADDRESS": "58-60 RANTOUL ST"}},{"geometry": {"type": "Point", "coordinates": [-71.15836887932366, 42.418217718231261]}, "type": "Feature", "id": 167, "properties": {"TOWN": "ARLINGTON", "STATUS": "RAO", "NAME": "BRIGHAMS INC", "AUL_DATE": "2012-04-04", "SITE_INFO": "http://public.dep.state.ma.us/SearchableSites/Site_Info.asp?RTN=3-0000814", "REGION": 3.0, "RTN": "3-0000814", "RAO_CLASS": "A2", "ADDRESS": "30 MILL ST"}},{"geometry": {"type": "Point", "coordinates": [-71.049737328701383, 42.413630279873502]}, "type": "Feature", "id": 168, "properties": {"TOWN": "EVERETT", "STATUS": "RAO", "NAME": "EXXON SERVICE STA 3 5393", "AUL_DATE": "2002-09-30", "SITE_INFO": "http://public.dep.state.ma.us/SearchableSites/Site_Info.asp?RTN=3-0000817", "REGION": 3.0, "RTN": "3-0000817", "RAO_CLASS": "A3", "ADDRESS": "670 BROADWAY"}},{"geometry": {"type": "Point", "coordinates": [-71.025424026879833, 42.385818435087671]}, "type": "Feature", "id": 169, "properties": {"TOWN": "CHELSEA", "STATUS": "RAO", "NAME": "NORTHEAST PETROLEUM", "AUL_DATE": "2006-07-19", "SITE_INFO": "http://public.dep.state.ma.us/SearchableSites/Site_Info.asp?RTN=3-0000821", "REGION": 3.0, "RTN": "3-0000821", "RAO_CLASS": "A3", "ADDRESS": "257-324 MARGINAL ST"}},{"geometry": {"type": "Point", "coordinates": [-71.112772751981126, 42.402991483957713]}, "type": "Feature", "id": 170, "properties": {"TOWN": "MEDFORD", "STATUS": "RAO", "NAME": "COMMERCIAL PROPERTY", "AUL_DATE": "2011-01-18", "SITE_INFO": "http://public.dep.state.ma.us/SearchableSites/Site_Info.asp?RTN=3-0000833", "REGION": 3.0, "RTN": "3-0000833", "RAO_CLASS": "A3", "ADDRESS": "294 HARVARD ST"}},{"geometry": {"type": "Point", "coordinates": [-71.270075351663124, 42.483102340263301]}, "type": "Feature", "id": 171, "properties": {"TOWN": "BEDFORD", "STATUS": "RAO", "NAME": "MILLIPORE CORP", "AUL_DATE": "1999-01-04", "SITE_INFO": "http://public.dep.state.ma.us/SearchableSites/Site_Info.asp?RTN=3-0000858", "REGION": 3.0, "RTN": "3-0000858", "RAO_CLASS": "A3", "ADDRESS": "80 ASHBY RD"}},{"geometry": {"type": "Point", "coordinates": [-71.06969079054231, 42.404318864382994]}, "type": "Feature", "id": 172, "properties": {"TOWN": "EVERETT", "STATUS": "RAO", "NAME": "AVCO FMR", "AUL_DATE": "2011-08-15", "SITE_INFO": "http://public.dep.state.ma.us/SearchableSites/Site_Info.asp?RTN=3-0000880", "REGION": 3.0, "RTN": "3-0000880", "RAO_CLASS": "A3", "ADDRESS": "2385 REVERE BEACH PKWY"}},{"geometry": {"type": "Point", "coordinates": [-71.198620146567535, 42.369625720114954]}, "type": "Feature", "id": 173, "properties": {"TOWN": "WATERTOWN", "STATUS": "RAO", "NAME": "METCUT INC", "AUL_DATE": "2009-02-26", "SITE_INFO": "http://public.dep.state.ma.us/SearchableSites/Site_Info.asp?RTN=3-0000884", "REGION": 3.0, "RTN": "3-0000884", "RAO_CLASS": "A3", "ADDRESS": "74 ACTON ST"}},{"geometry": {"type": "Point", "coordinates": [-71.093408689665509, 42.408780450437952]}, "type": "Feature", "id": 174, "properties": {"TOWN": "MEDFORD", "STATUS": "RAO", "NAME": "WEBSTER TRUCKING FMR", "AUL_DATE": "2010-10-14", "SITE_INFO": "http://public.dep.state.ma.us/SearchableSites/Site_Info.asp?RTN=3-0000889", "REGION": 3.0, "RTN": "3-0000889", "RAO_CLASS": "B2", "ADDRESS": "49-87 LOCUST ST"}},{"geometry": {"type": "Point", "coordinates": [-71.256623842033804, 42.361492660659458]}, "type": "Feature", "id": 175, "properties": {"TOWN": "WALTHAM", "STATUS": "RAO", "NAME": "PROPERTY", "AUL_DATE": "2002-02-27", "SITE_INFO": "http://public.dep.state.ma.us/SearchableSites/Site_Info.asp?RTN=3-0000895", "REGION": 3.0, "RTN": "3-0000895", "RAO_CLASS": "A3", "ADDRESS": "SAWYER RD"}},{"geometry": {"type": "Point", "coordinates": [-71.316212339131468, 42.632964504560896]}, "type": "Feature", "id": 176, "properties": {"TOWN": "LOWELL", "STATUS": "RAO", "NAME": "ASTRO CIRCUITS", "AUL_DATE": "1997-01-07", "SITE_INFO": "http://public.dep.state.ma.us/SearchableSites/Site_Info.asp?RTN=3-0000905", "REGION": 3.0, "RTN": "3-0000905", "RAO_CLASS": "C1", "ADDRESS": "100 HALE ST"}},{"geometry": {"type": "Point", "coordinates": [-70.979589707170717, 42.251800921939079]}, "type": "Feature", "id": 177, "properties": {"TOWN": "QUINCY", "STATUS": "RAO", "NAME": "CAPTAINS COVE", "AUL_DATE": "1998-04-14", "SITE_INFO": "http://public.dep.state.ma.us/SearchableSites/Site_Info.asp?RTN=3-0000915", "REGION": 3.0, "RTN": "3-0000915", "RAO_CLASS": "A3", "ADDRESS": "COVE WAY"}},{"geometry": {"type": "Point", "coordinates": [-70.881154416957415, 42.817445447298283]}, "type": "Feature", "id": 178, "properties": {"TOWN": "NEWBURYPORT", "STATUS": "RAO", "NAME": "TOWLE SILVER CO", "AUL_DATE": "2006-07-03", "SITE_INFO": "http://public.dep.state.ma.us/SearchableSites/Site_Info.asp?RTN=3-0000919", "REGION": 3.0, "RTN": "3-0000919", "RAO_CLASS": "A3", "ADDRESS": "260 MERRIMAC ST"}},{"geometry": {"type": "Point", "coordinates": [-71.067250444001033, 42.390817861913085]}, "type": "Feature", "id": 179, "properties": {"TOWN": "BOSTON-CHARLESTOWN", "STATUS": "RAO", "NAME": "BOSTON EDISON MYSTIC STATION", "AUL_DATE": "2005-08-12", "SITE_INFO": "http://public.dep.state.ma.us/SearchableSites/Site_Info.asp?RTN=3-0000923", "REGION": 3.0, "RTN": "3-0000923", "RAO_CLASS": "A3", "ADDRESS": "176 ALFORD ST"}},{"geometry": {"type": "Point", "coordinates": [-71.162554601081595, 42.313721164504919]}, "type": "Feature", "id": 180, "properties": {"TOWN": "BROOKLINE", "STATUS": "RAO", "NAME": "ASH LANDFILL FMR", "AUL_DATE": "2002-10-07", "SITE_INFO": "http://public.dep.state.ma.us/SearchableSites/Site_Info.asp?RTN=3-0000939", "REGION": 3.0, "RTN": "3-0000939", "RAO_CLASS": "A3", "ADDRESS": "HAMMOND ST"}},{"geometry": {"type": "Point", "coordinates": [-71.150220011064064, 42.392535369691558]}, "type": "Feature", "id": 181, "properties": {"TOWN": "CAMBRIDGE", "STATUS": "RAO", "NAME": "ADLEY EXPRESS SITE FMR", "AUL_DATE": "2012-12-05", "SITE_INFO": "http://public.dep.state.ma.us/SearchableSites/Site_Info.asp?RTN=3-0000940", "REGION": 3.0, "RTN": "3-0000940", "RAO_CLASS": "A3", "ADDRESS": "54 SMITH ST"}},{"geometry": {"type": "Point", "coordinates": [-71.06564433391253, 42.334152153436982]}, "type": "Feature", "id": 182, "properties": {"TOWN": "BOSTON-ROXBURY", "STATUS": "RAO", "NAME": "SOUTH BAY INCINERATOR FMR", "AUL_DATE": "2002-06-27", "SITE_INFO": "http://public.dep.state.ma.us/SearchableSites/Site_Info.asp?RTN=3-0000952", "REGION": 3.0, "RTN": "3-0000952", "RAO_CLASS": "A3", "ADDRESS": "SOUTH BAY AVE"}},{"geometry": {"type": "Point", "coordinates": [-71.066639455196551, 42.332444729717245]}, "type": "Feature", "id": 183, "properties": {"TOWN": "BOSTON-ROXBURY", "STATUS": "RAO", "NAME": "BOSTON PLANNING PARTNERS", "AUL_DATE": "2009-08-14", "SITE_INFO": "http://public.dep.state.ma.us/SearchableSites/Site_Info.asp?RTN=3-0000953", "REGION": 3.0, "RTN": "3-0000953", "RAO_CLASS": "A3", "ADDRESS": "160 CUMMINGS ST"}},{"geometry": {"type": "Point", "coordinates": [-71.030114305012404, 42.369689188496494]}, "type": "Feature", "id": 184, "properties": {"TOWN": "BOSTON-EAST BOSTON", "STATUS": "RAO", "NAME": "HERTZ RENT A CAR", "AUL_DATE": "2007-03-07", "SITE_INFO": "http://public.dep.state.ma.us/SearchableSites/Site_Info.asp?RTN=3-0000956", "REGION": 3.0, "RTN": "3-0000956", "RAO_CLASS": "A3", "ADDRESS": "207A PORTER ST"}},{"geometry": {"type": "Point", "coordinates": [-71.080346234008857, 42.375454374689745]}, "type": "Feature", "id": 185, "properties": {"TOWN": "SOMERVILLE", "STATUS": "RAO", "NAME": "RAILROAD YARD FMR", "AUL_DATE": "2003-02-06", "SITE_INFO": "http://public.dep.state.ma.us/SearchableSites/Site_Info.asp?RTN=3-0000974", "REGION": 3.0, "RTN": "3-0000974", "RAO_CLASS": "B2", "ADDRESS": "100 INNER BELT RD"}},{"geometry": {"type": "Point", "coordinates": [-71.135703495292432, 42.49080101236973]}, "type": "Feature", "id": 186, "properties": {"TOWN": "WOBURN", "STATUS": "RAO", "NAME": "DOWD ENTERPRISES", "AUL_DATE": "1997-10-15", "SITE_INFO": "http://public.dep.state.ma.us/SearchableSites/Site_Info.asp?RTN=3-0001063", "REGION": 3.0, "RTN": "3-0001063", "RAO_CLASS": "B2", "ADDRESS": "205 WILDWOOD ST"}},{"geometry": {"type": "Point", "coordinates": [-71.362817987577245, 42.624664437349701]}, "type": "Feature", "id": 187, "properties": {"TOWN": "CHELMSFORD", "STATUS": "RAO", "NAME": "DRUM HILL SERVICE STATION", "AUL_DATE": "1994-06-20", "SITE_INFO": "http://public.dep.state.ma.us/SearchableSites/Site_Info.asp?RTN=3-0001071", "REGION": 3.0, "RTN": "3-0001071", "RAO_CLASS": "A3", "ADDRESS": "91-99 DRUM HILL RD"}},{"geometry": {"type": "Point", "coordinates": [-71.193789999982144, 42.499200374099807]}, "type": "Feature", "id": 188, "properties": {"TOWN": "BURLINGTON", "STATUS": "RAO", "NAME": "EXXON SERVICE STATION 35620", "AUL_DATE": "2010-12-13", "SITE_INFO": "http://public.dep.state.ma.us/SearchableSites/Site_Info.asp?RTN=3-0001081", "REGION": 3.0, "RTN": "3-0001081", "RAO_CLASS": "C1", "ADDRESS": "118 CAMBRIDGE ST"}},{"geometry": {"type": "Point", "coordinates": [-70.925944421065239, 42.52760108102018]}, "type": "Feature", "id": 189, "properties": {"TOWN": "PEABODY", "STATUS": "TIER 2", "NAME": "41 HARDY STREET / MASINO LEATHER", "AUL_DATE": "2005-09-20", "SITE_INFO": "http://public.dep.state.ma.us/SearchableSites/Site_Info.asp?RTN=3-0001089", "REGION": 3.0, "RTN": "3-0001089", "ADDRESS": "8 WALNUT ST"}},{"geometry": {"type": "Point", "coordinates": [-70.624978557466235, 42.677890089857719]}, "type": "Feature", "id": 190, "properties": {"TOWN": "ROCKPORT", "STATUS": "RAO", "NAME": "CAPE ANN TOOL COMPANYFMR", "AUL_DATE": "1996-11-01", "SITE_INFO": "http://public.dep.state.ma.us/SearchableSites/Site_Info.asp?RTN=3-0001090", "REGION": 3.0, "RTN": "3-0001090", "RAO_CLASS": "B2", "ADDRESS": "146 GRANITE ST"}},{"geometry": {"type": "Point", "coordinates": [-71.023501341315594, 42.249746466869553]}, "type": "Feature", "id": 191, "properties": {"TOWN": "QUINCY", "STATUS": "RAO", "NAME": "MONTANI GASOLINE STATION", "AUL_DATE": "2002-12-20", "SITE_INFO": "http://public.dep.state.ma.us/SearchableSites/Site_Info.asp?RTN=3-0002829", "REGION": 3.0, "RTN": "3-0002829", "RAO_CLASS": "A3", "ADDRESS": "333 QUARRY ST"}},{"geometry": {"type": "Point", "coordinates": [-71.102423957244369, 42.358013476379178]}, "type": "Feature", "id": 192, "properties": {"TOWN": "CAMBRIDGE", "STATUS": "RAO", "NAME": "MIT  LOTS 32 33 & 55", "AUL_DATE": "2009-05-21", "SITE_INFO": "http://public.dep.state.ma.us/SearchableSites/Site_Info.asp?RTN=3-0002834", "REGION": 3.0, "RTN": "3-0002834", "ADDRESS": "281 ALBANY ST"}},{"geometry": {"type": "Point", "coordinates": [-71.017100654172339, 42.339122349991868]}, "type": "Feature", "id": 193, "properties": {"TOWN": "BOSTON-SOUTH BOSTON", "STATUS": "RAO", "NAME": "TOYOTA TERMINAL", "AUL_DATE": "1996-07-24", "SITE_INFO": "http://public.dep.state.ma.us/SearchableSites/Site_Info.asp?RTN=3-0002835", "REGION": 3.0, "RTN": "3-0002835", "RAO_CLASS": "B2", "ADDRESS": "CASTLE IS"}},{"geometry": {"type": "Point", "coordinates": [-71.031048525859916, 42.278785735584478]}, "type": "Feature", "id": 194, "properties": {"TOWN": "QUINCY", "STATUS": "RAO", "NAME": "PROPERTY", "AUL_DATE": "2007-12-06", "SITE_INFO": "http://public.dep.state.ma.us/SearchableSites/Site_Info.asp?RTN=3-0002907", "REGION": 3.0, "RTN": "3-0002907", "RAO_CLASS": "A3", "ADDRESS": "200 HANCOCK ST"}},{"geometry": {"type": "Point", "coordinates": [-71.071628659997046, 42.387051069065365]}, "type": "Feature", "id": 195, "properties": {"TOWN": "BOSTON-CHARLESTOWN", "STATUS": "RAO", "NAME": "RYAN FIELD", "AUL_DATE": "2007-02-28", "SITE_INFO": "http://public.dep.state.ma.us/SearchableSites/Site_Info.asp?RTN=3-0002910", "REGION": 3.0, "RTN": "3-0002910", "RAO_CLASS": "A3", "ADDRESS": "ALFORD ST"}},{"geometry": {"type": "Point", "coordinates": [-71.210535950353332, 42.381703202046538]}, "type": "Feature", "id": 196, "properties": {"TOWN": "WALTHAM", "STATUS": "RAO", "NAME": "GEORGE MORE FACILITY FMR", "AUL_DATE": "1999-10-27", "SITE_INFO": "http://public.dep.state.ma.us/SearchableSites/Site_Info.asp?RTN=3-0002923", "REGION": 3.0, "RTN": "3-0002923", "RAO_CLASS": "A3", "ADDRESS": "110 BEAVER ST"}},{"geometry": {"type": "Point", "coordinates": [-71.040433774134243, 42.316846100870713]}, "type": "Feature", "id": 197, "properties": {"TOWN": "BOSTON-DORCHESTER", "STATUS": "RAO", "NAME": "STANDARD UNIFORM CO", "AUL_DATE": "2008-05-30", "SITE_INFO": "http://public.dep.state.ma.us/SearchableSites/Site_Info.asp?RTN=3-0002930", "REGION": 3.0, "RTN": "3-0002930", "RAO_CLASS": "A3", "ADDRESS": "401 MOUNT VERNON ST"}},{"geometry": {"type": "Point", "coordinates": [-71.093586312713498, 42.767297072470384]}, "type": "Feature", "id": 198, "properties": {"TOWN": "HAVERHILL", "STATUS": "RAO", "NAME": "POPE MACHINE FACILITY", "AUL_DATE": "1996-08-15", "SITE_INFO": "http://public.dep.state.ma.us/SearchableSites/Site_Info.asp?RTN=3-0002940", "REGION": 3.0, "RTN": "3-0002940", "RAO_CLASS": "B2", "ADDRESS": "262 RIVER ST"}},{"geometry": {"type": "Point", "coordinates": [-71.066956736896216, 42.423227401536927]}, "type": "Feature", "id": 199, "properties": {"TOWN": "MALDEN", "STATUS": "RAO", "NAME": "GAS STATION", "AUL_DATE": "2010-06-11", "SITE_INFO": "http://public.dep.state.ma.us/SearchableSites/Site_Info.asp?RTN=3-0002948", "REGION": 3.0, "RTN": "3-0002948", "RAO_CLASS": "A3", "ADDRESS": "245 MAIN ST EASTERN AVE"}},{"geometry": {"type": "Point", "coordinates": [-70.854374893630421, 42.619680721849782]}, "type": "Feature", "id": 200, "properties": {"TOWN": "HAMILTON", "STATUS": "RAO", "NAME": "PROPERTY", "AUL_DATE": "2002-08-26", "SITE_INFO": "http://public.dep.state.ma.us/SearchableSites/Site_Info.asp?RTN=3-0002951", "REGION": 3.0, "RTN": "3-0002951", "RAO_CLASS": "A3", "ADDRESS": "577 BAY RD"}},{"geometry": {"type": "Point", "coordinates": [-71.080487435950502, 42.402475449196899]}, "type": "Feature", "id": 201, "properties": {"TOWN": "MEDFORD", "STATUS": "RAO", "NAME": "MYSTIC CENTER DEVELOPMENT", "AUL_DATE": "2009-11-25", "SITE_INFO": "http://public.dep.state.ma.us/SearchableSites/Site_Info.asp?RTN=3-0002955", "REGION": 3.0, "RTN": "3-0002955", "RAO_CLASS": "A3", "ADDRESS": "451 461 495 FELLSWAY"}},{"geometry": {"type": "Point", "coordinates": [-71.100101635458287, 42.336733236198612]}, "type": "Feature", "id": 202, "properties": {"TOWN": "BOSTON-BOSTON", "STATUS": "RTN CLOSED", "NAME": "MASS COLLEGE OF ARTS", "AUL_DATE": "2002-03-06", "SITE_INFO": "http://public.dep.state.ma.us/SearchableSites/Site_Info.asp?RTN=3-0002962", "REGION": 3.0, "RTN": "3-0002962", "ADDRESS": "621 HUNTINGTON AVE"}},{"geometry": {"type": "Point", "coordinates": [-71.024061328969537, 42.456093487807088]}, "type": "Feature", "id": 203, "properties": {"TOWN": "SAUGUS", "STATUS": "RAO", "NAME": "RTE 1", "AUL_DATE": "2004-01-26", "SITE_INFO": "http://public.dep.state.ma.us/SearchableSites/Site_Info.asp?RTN=3-0020113", "REGION": 3.0, "RTN": "3-0020113", "RAO_CLASS": "A3", "ADDRESS": "1481 BROADWAY"}}]}