{"type":"FeatureCollection","features":[{"geometry": {"type": "Point", "coordinates": [-71.121614293218897, 42.72628489716525]}, "type": "Feature", "id": 1, "properties": {"TOWN": "NORTH ANDOVER", "SITE_NAME": "WHEELABRATOR NORTH ANDOVER INC", "ROOT_ID": 132771.0, "REGION": 3, "FAC_ID": 132771.0, "RO_ACCT": 172782, "ADDRESS": "285 HOLT RD"}},{"geometry": {"type": "Point", "coordinates": [-73.194143060866764, 42.468401307709492]}, "type": "Feature", "id": 2, "properties": {"TOWN": "PITTSFIELD", "SITE_NAME": "PITTSFIELD RESOURCE RECOVERY FACILITY", "ROOT_ID": 161191.0, "REGION": 1, "FAC_ID": 50772.0, "RO_ACCT": 173135, "ADDRESS": "500 HUBBARD AVE"}},{"geometry": {"type": "Point", "coordinates": [-70.980620571471363, 42.446704037965276]}, "type": "Feature", "id": 3, "properties": {"TOWN": "SAUGUS", "SITE_NAME": "WHEELABRATOR SAUGUS INC", "ROOT_ID": 172914.0, "REGION": 3, "FAC_ID": 39704.0, "RO_ACCT": 178456, "ADDRESS": "100 SALEM TPKE"}},{"geometry": {"type": "Point", "coordinates": [-71.124024802989467, 42.76539977246815]}, "type": "Feature", "id": 4, "properties": {"TOWN": "HAVERHILL", "SITE_NAME": "COVANTA HAVERHILL WASTE TO ENERGY FAC", "ROOT_ID": 132291.0, "REGION": 3, "FAC_ID": 132291.0, "RO_ACCT": 173133, "ADDRESS": "100 RECOVERY WAY"}},{"geometry": {"type": "Point", "coordinates": [-70.789764063260506, 41.803200419378996]}, "type": "Feature", "id": 5, "properties": {"TOWN": "ROCHESTER", "SITE_NAME": "SEMASS RESOURCE RECOVERY FACILITY", "ROOT_ID": 131580.0, "REGION": 4, "FAC_ID": 131580.0, "RO_ACCT": 207711, "ADDRESS": "141 CRANBERRY HWY"}},{"geometry": {"type": "Point", "coordinates": [-71.767222954874768, 42.220836261250582]}, "type": "Feature", "id": 6, "properties": {"TOWN": "MILLBURY", "SITE_NAME": "WHEELABRATOR MILLBURY INC", "ROOT_ID": 132293.0, "REGION": 2, "FAC_ID": 132293.0, "RO_ACCT": 178454, "ADDRESS": "331 SOUTHWEST CUTOFF RD"}},{"geometry": {"type": "Point", "coordinates": [-72.590270074711981, 42.09083730936031]}, "type": "Feature", "id": 7, "properties": {"TOWN": "AGAWAM", "SITE_NAME": "COVANTA SPRINGFIELD RESOURCE RECOVERY", "ROOT_ID": 160790.0, "REGION": 1, "FAC_ID": 50005.0, "RO_ACCT": 173185, "ADDRESS": "188 M ST"}}]}