{"type":"FeatureCollection","features":[{"geometry": {"type": "Point", "coordinates": [-71.351565308143336, 42.018741151904237]}, "type": "Feature", "id": 1, "properties": {"TOWN": "PLAINVILLE", "STATUS": "TIER1C", "NAME": "LEWICKI BROTHERS TMR", "SITE_INFO": "http://public.dep.state.ma.us/SearchableSites/Site_Info.asp?RTN=4-0001227", "REGION": 4.0, "RTN": "4-0001227", "ADDRESS": "26 CROSS ST"}},{"geometry": {"type": "Point", "coordinates": [-70.410629278300135, 41.630767497501772]}, "type": "Feature", "id": 2, "properties": {"TOWN": "BARNSTABLE", "STATUS": "TIER1A", "NAME": "CAMP CANDOIT FMR", "SITE_INFO": "http://public.dep.state.ma.us/SearchableSites/Site_Info.asp?RTN=4-0001230", "REGION": 4.0, "RTN": "4-0001230", "ADDRESS": "PT ISABELLE RD"}},{"geometry": {"type": "Point", "coordinates": [-70.259195176396091, 41.701698111934846]}, "type": "Feature", "id": 3, "properties": {"TOWN": "YARMOUTH", "STATUS": "TIERII", "NAME": "USHERS STORE FMR", "SITE_INFO": "http://public.dep.state.ma.us/SearchableSites/Site_Info.asp?RTN=4-0001271", "REGION": 4.0, "RTN": "4-0001271", "ADDRESS": "16 MAIN ST"}},{"geometry": {"type": "Point", "coordinates": [-71.096612229352232, 41.903241933561326]}, "type": "Feature", "id": 4, "properties": {"TOWN": "TAUNTON", "STATUS": "TIERII", "NAME": "CITY CITGO SERVICE STATION & LAUNDROMAT", "SITE_INFO": "http://public.dep.state.ma.us/SearchableSites/Site_Info.asp?RTN=4-0001309", "REGION": 4.0, "RTN": "4-0001309", "ADDRESS": "51 COURT ST"}},{"geometry": {"type": "Point", "coordinates": [-71.172272297323644, 41.87811514855084]}, "type": "Feature", "id": 5, "properties": {"TOWN": "TAUNTON", "STATUS": "TIER1D", "NAME": "INDIAN RIDGE CONDOMINIUMS", "SITE_INFO": "http://public.dep.state.ma.us/SearchableSites/Site_Info.asp?RTN=4-0001317", "REGION": 4.0, "RTN": "4-0001317", "ADDRESS": "701 WINTHROP ST RTE 44"}},{"geometry": {"type": "Point", "coordinates": [-70.641349540704965, 41.756020376867269]}, "type": "Feature", "id": 6, "properties": {"TOWN": "WAREHAM", "STATUS": "TIER1B", "NAME": "SUNOCO SERVICE STATION FMR", "SITE_INFO": "http://public.dep.state.ma.us/SearchableSites/Site_Info.asp?RTN=4-0001326", "REGION": 4.0, "RTN": "4-0001326", "ADDRESS": "3106 CRANBERRY HWY"}},{"geometry": {"type": "Point", "coordinates": [-70.602955811346732, 41.749527491357838]}, "type": "Feature", "id": 7, "properties": {"TOWN": "BOURNE", "STATUS": "TIERII", "NAME": "BUZZARDS BAY BP STATION", "SITE_INFO": "http://public.dep.state.ma.us/SearchableSites/Site_Info.asp?RTN=4-0001334", "REGION": 4.0, "RTN": "4-0001334", "ADDRESS": "246 MAIN ST"}},{"geometry": {"type": "Point", "coordinates": [-70.95720568604456, 41.726542741416758]}, "type": "Feature", "id": 8, "properties": {"TOWN": "NEW BEDFORD", "STATUS": "TIERII", "NAME": "POLYMERINE INC", "SITE_INFO": "http://public.dep.state.ma.us/SearchableSites/Site_Info.asp?RTN=4-0001347", "REGION": 4.0, "RTN": "4-0001347", "ADDRESS": "241 DUCHAINE BLVD"}},{"geometry": {"type": "Point", "coordinates": [-70.934187743449641, 41.652609790855166]}, "type": "Feature", "id": 9, "properties": {"TOWN": "NEW BEDFORD", "STATUS": "TIER1D", "NAME": "PROPERTY", "SITE_INFO": "http://public.dep.state.ma.us/SearchableSites/Site_Info.asp?RTN=4-0006052", "REGION": 4.0, "RTN": "4-0006052", "ADDRESS": "100 PENNIMAN ST"}},{"geometry": {"type": "Point", "coordinates": [-71.054951414758321, 41.626585181538367]}, "type": "Feature", "id": 10, "properties": {"TOWN": "WESTPORT", "STATUS": "TIER1D", "NAME": "ROBERT MANCHESTER", "SITE_INFO": "http://public.dep.state.ma.us/SearchableSites/Site_Info.asp?RTN=4-0006054", "REGION": 4.0, "RTN": "4-0006054", "ADDRESS": "143 REED ST"}},{"geometry": {"type": "Point", "coordinates": [-70.184737551416688, 41.672325859584099]}, "type": "Feature", "id": 11, "properties": {"TOWN": "YARMOUTH", "STATUS": "TIER1D", "NAME": "RESIDENCE", "SITE_INFO": "http://public.dep.state.ma.us/SearchableSites/Site_Info.asp?RTN=4-0006065", "REGION": 4.0, "RTN": "4-0006065", "ADDRESS": "105 NORTH MAIN ST"}},{"geometry": {"type": "Point", "coordinates": [-71.142684874791087, 41.699742348668636]}, "type": "Feature", "id": 12, "properties": {"TOWN": "FALL RIVER", "STATUS": "TIER1D", "NAME": "PROPERTY", "SITE_INFO": "http://public.dep.state.ma.us/SearchableSites/Site_Info.asp?RTN=4-0006070", "REGION": 4.0, "RTN": "4-0006070", "ADDRESS": "673 BEDFORD ST"}},{"geometry": {"type": "Point", "coordinates": [-71.20740921687073, 41.731710289790712]}, "type": "Feature", "id": 13, "properties": {"TOWN": "SWANSEA", "STATUS": "TIER1D", "NAME": "NO LOCATION AID", "SITE_INFO": "http://public.dep.state.ma.us/SearchableSites/Site_Info.asp?RTN=4-0006071", "REGION": 4.0, "RTN": "4-0006071", "ADDRESS": "396 WILBUR AVE"}},{"geometry": {"type": "Point", "coordinates": [-70.925564554460351, 41.627595216273193]}, "type": "Feature", "id": 14, "properties": {"TOWN": "NEW BEDFORD", "STATUS": "TIER1D", "NAME": "MORSE TOOL", "SITE_INFO": "http://public.dep.state.ma.us/SearchableSites/Site_Info.asp?RTN=4-0010151", "REGION": 4.0, "RTN": "4-0010151", "ADDRESS": "PLEASANT ST"}},{"geometry": {"type": "Point", "coordinates": [-70.971301242578306, 42.138621457742552]}, "type": "Feature", "id": 15, "properties": {"TOWN": "ABINGTON", "STATUS": "TIER1D", "NAME": "NO LOCATION AID", "SITE_INFO": "http://public.dep.state.ma.us/SearchableSites/Site_Info.asp?RTN=4-0010268", "REGION": 4.0, "RTN": "4-0010268", "ADDRESS": "118 THICKET ST"}},{"geometry": {"type": "Point", "coordinates": [-70.612493832194133, 41.744907756209656]}, "type": "Feature", "id": 16, "properties": {"TOWN": "BOURNE", "STATUS": "TIERII", "NAME": "GROSSMANS FMR", "SITE_INFO": "http://public.dep.state.ma.us/SearchableSites/Site_Info.asp?RTN=4-0010373", "REGION": 4.0, "RTN": "4-0010373", "ADDRESS": "120 MAIN ST"}},{"geometry": {"type": "Point", "coordinates": [-71.315019517560629, 41.90370910955113]}, "type": "Feature", "id": 17, "properties": {"TOWN": "ATTLEBORO", "STATUS": "TIER1C", "NAME": "TEKNOR APEX", "SITE_INFO": "http://public.dep.state.ma.us/SearchableSites/Site_Info.asp?RTN=4-0010455", "REGION": 4.0, "RTN": "4-0010455", "ADDRESS": "330 OAK HILL AVE"}},{"geometry": {"type": "Point", "coordinates": [-70.19840408151903, 41.651576697097248]}, "type": "Feature", "id": 18, "properties": {"TOWN": "YARMOUTH", "STATUS": "TIER1D", "NAME": "NO LOCATION AID", "SITE_INFO": "http://public.dep.state.ma.us/SearchableSites/Site_Info.asp?RTN=4-0010583", "REGION": 4.0, "RTN": "4-0010583", "ADDRESS": "149 RIVER ST"}},{"geometry": {"type": "Point", "coordinates": [-71.111268304429075, 41.510902852902099]}, "type": "Feature", "id": 19, "properties": {"TOWN": "WESTPORT", "STATUS": "TIER1D", "NAME": "NO LOCATION AID", "SITE_INFO": "http://public.dep.state.ma.us/SearchableSites/Site_Info.asp?RTN=4-0010589", "REGION": 4.0, "RTN": "4-0010589", "ADDRESS": "47 HOWLAND RD"}},{"geometry": {"type": "Point", "coordinates": [-70.558597922277215, 41.452898195229217]}, "type": "Feature", "id": 20, "properties": {"TOWN": "OAK BLUFFS", "STATUS": "TIER1D", "NAME": "NO LOCATION AID", "SITE_INFO": "http://public.dep.state.ma.us/SearchableSites/Site_Info.asp?RTN=4-0010653", "REGION": 4.0, "RTN": "4-0010653", "ADDRESS": "81 PENNACOOK"}},{"geometry": {"type": "Point", "coordinates": [-71.025274704309183, 42.076780270746767]}, "type": "Feature", "id": 21, "properties": {"TOWN": "BROCKTON", "STATUS": "TIER1D", "NAME": "WEST PARK ST", "SITE_INFO": "http://public.dep.state.ma.us/SearchableSites/Site_Info.asp?RTN=4-0010843", "REGION": 4.0, "RTN": "4-0010843", "ADDRESS": "77 FULLER ST"}},{"geometry": {"type": "Point", "coordinates": [-71.312370089988775, 41.904056714588691]}, "type": "Feature", "id": 22, "properties": {"TOWN": "ATTLEBORO", "STATUS": "TIER1C", "NAME": "INTERSECTION OF OAK HILL AVE & RR", "SITE_INFO": "http://public.dep.state.ma.us/SearchableSites/Site_Info.asp?RTN=4-0010908", "REGION": 4.0, "RTN": "4-0010908", "ADDRESS": "OAK HILL AVE"}},{"geometry": {"type": "Point", "coordinates": [-71.012600308212498, 42.095692064922325]}, "type": "Feature", "id": 23, "properties": {"TOWN": "BROCKTON", "STATUS": "TIER1D", "NAME": "S SPIEGAL PAPERMILL ACROSS STREET", "SITE_INFO": "http://public.dep.state.ma.us/SearchableSites/Site_Info.asp?RTN=4-0010915", "REGION": 4.0, "RTN": "4-0010915", "ADDRESS": "EAST ASHLAND ST"}},{"geometry": {"type": "Point", "coordinates": [-71.458415843168368, 42.425707698716607]}, "type": "Feature", "id": 24, "properties": {"TOWN": "MAYNARD", "STATUS": "TIER1C", "NAME": "NO LOCATION AID", "SITE_INFO": "http://public.dep.state.ma.us/SearchableSites/Site_Info.asp?RTN=2-0017681", "REGION": 2.0, "RTN": "2-0017681", "ADDRESS": "145 GREAT RD"}},{"geometry": {"type": "Point", "coordinates": [-72.14017473124089, 42.232947321132741]}, "type": "Feature", "id": 25, "properties": {"TOWN": "WEST BROOKFIELD", "STATUS": "TIERII", "NAME": "FORMER MILL PROPERTY", "SITE_INFO": "http://public.dep.state.ma.us/SearchableSites/Site_Info.asp?RTN=2-0017686", "REGION": 2.0, "RTN": "2-0017686", "ADDRESS": "34 PLEASANT ST"}},{"geometry": {"type": "Point", "coordinates": [-71.604172583218215, 42.486716797893543]}, "type": "Feature", "id": 26, "properties": {"TOWN": "HARVARD", "STATUS": "TIER1D", "NAME": "RESIDENCE", "SITE_INFO": "http://public.dep.state.ma.us/SearchableSites/Site_Info.asp?RTN=2-0017697", "REGION": 2.0, "RTN": "2-0017697", "ADDRESS": "7 HIGHLAND AVE"}},{"geometry": {"type": "Point", "coordinates": [-71.828660501004464, 42.200272866747397]}, "type": "Feature", "id": 27, "properties": {"TOWN": "AUBURN", "STATUS": "TIER1C", "NAME": "LIQUI-BOX CORPORATION", "SITE_INFO": "http://public.dep.state.ma.us/SearchableSites/Site_Info.asp?RTN=2-0017710", "REGION": 2.0, "RTN": "2-0017710", "ADDRESS": "10 MILLBURY ST"}},{"geometry": {"type": "Point", "coordinates": [-72.151728754789616, 42.404226158945022]}, "type": "Feature", "id": 28, "properties": {"TOWN": "BARRE", "STATUS": "TIERII", "NAME": "RESIDENCE", "SITE_INFO": "http://public.dep.state.ma.us/SearchableSites/Site_Info.asp?RTN=2-0017734", "REGION": 2.0, "RTN": "2-0017734", "ADDRESS": "1020 OLD HARDWICK RD"}},{"geometry": {"type": "Point", "coordinates": [-71.578174605231041, 42.590820622004742]}, "type": "Feature", "id": 29, "properties": {"TOWN": "GROTON", "STATUS": "TIER1C", "NAME": "FORMER CAMPUS DISPOSAL AREA", "SITE_INFO": "http://public.dep.state.ma.us/SearchableSites/Site_Info.asp?RTN=2-0017736", "REGION": 2.0, "RTN": "2-0017736", "ADDRESS": "FARMERS ROW-EAST SIDE"}},{"geometry": {"type": "Point", "coordinates": [-71.772934078278766, 42.557349385961217]}, "type": "Feature", "id": 30, "properties": {"TOWN": "LEOMINSTER", "STATUS": "TIERII", "NAME": "MART FACILITY", "SITE_INFO": "http://public.dep.state.ma.us/SearchableSites/Site_Info.asp?RTN=2-0017759", "REGION": 2.0, "RTN": "2-0017759", "ADDRESS": "840 NORTH MAIN ST"}},{"geometry": {"type": "Point", "coordinates": [-71.811314837680854, 42.247549820131688]}, "type": "Feature", "id": 31, "properties": {"TOWN": "WORCESTER", "STATUS": "TIER1D", "NAME": "NEAR FRANKENSTEINS RECYCLING", "SITE_INFO": "http://public.dep.state.ma.us/SearchableSites/Site_Info.asp?RTN=2-0017773", "REGION": 2.0, "RTN": "2-0017773", "ADDRESS": "1 CONGDON ST"}},{"geometry": {"type": "Point", "coordinates": [-71.575042549976871, 42.508327343402577]}, "type": "Feature", "id": 32, "properties": {"TOWN": "HARVARD", "STATUS": "TIERII", "NAME": "RESIDENTIAL PROPERTY", "SITE_INFO": "http://public.dep.state.ma.us/SearchableSites/Site_Info.asp?RTN=2-0017776", "REGION": 2.0, "RTN": "2-0017776", "ADDRESS": "68 LITTLETON RD"}},{"geometry": {"type": "Point", "coordinates": [-71.776572798626887, 42.261078295753315]}, "type": "Feature", "id": 33, "properties": {"TOWN": "WORCESTER", "STATUS": "TIERII", "NAME": "CROW HILL", "SITE_INFO": "http://public.dep.state.ma.us/SearchableSites/Site_Info.asp?RTN=2-0017790", "REGION": 2.0, "RTN": "2-0017790", "ADDRESS": "45 CLARENDON ST"}},{"geometry": {"type": "Point", "coordinates": [-71.466436785692323, 42.429560135525605]}, "type": "Feature", "id": 34, "properties": {"TOWN": "MAYNARD", "STATUS": "TIERII", "NAME": "C.J. SUTHERLAND HEATING CO", "SITE_INFO": "http://public.dep.state.ma.us/SearchableSites/Site_Info.asp?RTN=2-0017804", "REGION": 2.0, "RTN": "2-0017804", "ADDRESS": "241 REAR MAIN ST"}},{"geometry": {"type": "Point", "coordinates": [-71.685945070812181, 42.423279975826254]}, "type": "Feature", "id": 35, "properties": {"TOWN": "CLINTON", "STATUS": "TIER1D", "NAME": "RESIDENCE", "SITE_INFO": "http://public.dep.state.ma.us/SearchableSites/Site_Info.asp?RTN=2-0017811", "REGION": 2.0, "RTN": "2-0017811", "ADDRESS": "8 FULLER CT"}},{"geometry": {"type": "Point", "coordinates": [-71.620282941242294, 42.285100563241393]}, "type": "Feature", "id": 36, "properties": {"TOWN": "WESTBOROUGH", "STATUS": "TIERII", "NAME": "FORMER GREEN THUMB NURSERY GREENHOUSES", "SITE_INFO": "http://public.dep.state.ma.us/SearchableSites/Site_Info.asp?RTN=2-0017834", "REGION": 2.0, "RTN": "2-0017834", "ADDRESS": "183 185 TURNPIKE RD"}},{"geometry": {"type": "Point", "coordinates": [-71.686175165779431, 42.526484249716177]}, "type": "Feature", "id": 37, "properties": {"TOWN": "LANCASTER", "STATUS": "TIERII", "NAME": "RESIDENCE", "SITE_INFO": "http://public.dep.state.ma.us/SearchableSites/Site_Info.asp?RTN=2-0017838", "REGION": 2.0, "RTN": "2-0017838", "ADDRESS": "225 KALEVA RD"}},{"geometry": {"type": "Point", "coordinates": [-71.994528477735884, 42.576956383896245]}, "type": "Feature", "id": 38, "properties": {"TOWN": "GARDNER", "STATUS": "TIERII", "NAME": "FORMER HORRIGAN CLEANERS", "SITE_INFO": "http://public.dep.state.ma.us/SearchableSites/Site_Info.asp?RTN=2-0017845", "REGION": 2.0, "RTN": "2-0017845", "ADDRESS": "263-264 CENTRAL ST"}},{"geometry": {"type": "Point", "coordinates": [-71.716597820839368, 42.295108409906227]}, "type": "Feature", "id": 39, "properties": {"TOWN": "SHREWSBURY", "STATUS": "TIER1D", "NAME": "EMPIRE CLEANERS ABUTTING APARTMENTS", "SITE_INFO": "http://public.dep.state.ma.us/SearchableSites/Site_Info.asp?RTN=2-0017850", "REGION": 2.0, "RTN": "2-0017850", "ADDRESS": "15 MAPLE ST"}},{"geometry": {"type": "Point", "coordinates": [-71.542396990254176, 42.347979417449807]}, "type": "Feature", "id": 40, "properties": {"TOWN": "MARLBOROUGH", "STATUS": "TIERII", "NAME": "UST RELEASE", "SITE_INFO": "http://public.dep.state.ma.us/SearchableSites/Site_Info.asp?RTN=2-0017854", "REGION": 2.0, "RTN": "2-0017854", "ADDRESS": "25 EAST MAIN ST"}},{"geometry": {"type": "Point", "coordinates": [-71.456571901420816, 42.425204874641395]}, "type": "Feature", "id": 41, "properties": {"TOWN": "MAYNARD", "STATUS": "TIER1C", "NAME": "NEAR INTERSECTION GREAT RD & SHERMAN ST", "SITE_INFO": "http://public.dep.state.ma.us/SearchableSites/Site_Info.asp?RTN=2-0017869", "REGION": 2.0, "RTN": "2-0017869", "ADDRESS": "146 GREAT RD"}},{"geometry": {"type": "Point", "coordinates": [-71.993304538072621, 42.14534476701747]}, "type": "Feature", "id": 42, "properties": {"TOWN": "CHARLTON", "STATUS": "TIER1D", "NAME": "FORMER CHARLTON WOOLEN MILL", "SITE_INFO": "http://public.dep.state.ma.us/SearchableSites/Site_Info.asp?RTN=2-0017878", "REGION": 2.0, "RTN": "2-0017878", "ADDRESS": "SOUTH STURBRIDGE RD"}},{"geometry": {"type": "Point", "coordinates": [-71.998916640332553, 42.146030293650284]}, "type": "Feature", "id": 43, "properties": {"TOWN": "CHARLTON", "STATUS": "TIERII", "NAME": "CADY BROOK TRIBUTARY DIESEL RELEASE", "SITE_INFO": "http://public.dep.state.ma.us/SearchableSites/Site_Info.asp?RTN=2-0017902", "REGION": 2.0, "RTN": "2-0017902", "ADDRESS": "11 GRIFFIN RD"}},{"geometry": {"type": "Point", "coordinates": [-71.810686026612245, 42.292401244278672]}, "type": "Feature", "id": 44, "properties": {"TOWN": "WORCESTER", "STATUS": "TIERII", "NAME": "RESIDENCE", "SITE_INFO": "http://public.dep.state.ma.us/SearchableSites/Site_Info.asp?RTN=2-0017906", "REGION": 2.0, "RTN": "2-0017906", "ADDRESS": "47 INDIAN LAKE PARKWAY"}},{"geometry": {"type": "Point", "coordinates": [-71.687666733568406, 42.422508109125836]}, "type": "Feature", "id": 45, "properties": {"TOWN": "CLINTON", "STATUS": "TIER1D", "NAME": "JEMS OF NEW ENGLAND", "SITE_INFO": "http://public.dep.state.ma.us/SearchableSites/Site_Info.asp?RTN=2-0017934", "REGION": 2.0, "RTN": "2-0017934", "ADDRESS": "682 MAIN ST"}},{"geometry": {"type": "Point", "coordinates": [-71.68971390624607, 42.178204229436744]}, "type": "Feature", "id": 46, "properties": {"TOWN": "GRAFTON", "STATUS": "TIER1D", "NAME": "FORMER FISHERVILLE MILL", "SITE_INFO": "http://public.dep.state.ma.us/SearchableSites/Site_Info.asp?RTN=2-0017946", "REGION": 2.0, "RTN": "2-0017946", "ADDRESS": "60 MAIN"}},{"geometry": {"type": "Point", "coordinates": [-71.993986597427835, 42.575112531157963]}, "type": "Feature", "id": 47, "properties": {"TOWN": "GARDNER", "STATUS": "TIERII", "NAME": "RHO PROPERTY/REAR MAIN STREET", "SITE_INFO": "http://public.dep.state.ma.us/SearchableSites/Site_Info.asp?RTN=2-0017964", "REGION": 2.0, "RTN": "2-0017964", "ADDRESS": "58 REAR MAIN STREET"}},{"geometry": {"type": "Point", "coordinates": [-72.000709705493875, 42.241668364853616]}, "type": "Feature", "id": 48, "properties": {"TOWN": "SPENCER", "STATUS": "TIERII", "NAME": "FMR PLANTE AUTO BODY", "SITE_INFO": "http://public.dep.state.ma.us/SearchableSites/Site_Info.asp?RTN=2-0017991", "REGION": 2.0, "RTN": "2-0017991", "ADDRESS": "37 MAIN ST"}},{"geometry": {"type": "Point", "coordinates": [-71.787255818900022, 42.256486421167622]}, "type": "Feature", "id": 49, "properties": {"TOWN": "WORCESTER", "STATUS": "TIER1D", "NAME": "GRAFTON STREET ELEMENTARY", "SITE_INFO": "http://public.dep.state.ma.us/SearchableSites/Site_Info.asp?RTN=2-0017997", "REGION": 2.0, "RTN": "2-0017997", "ADDRESS": "62 SUFFOLK ST"}},{"geometry": {"type": "Point", "coordinates": [-72.122453562302098, 42.042881175869638]}, "type": "Feature", "id": 50, "properties": {"TOWN": "STURBRIDGE", "STATUS": "TIER1D", "NAME": "RTE 84 EAST REST AREA", "SITE_INFO": "http://public.dep.state.ma.us/SearchableSites/Site_Info.asp?RTN=2-0017999", "REGION": 2.0, "RTN": "2-0017999", "ADDRESS": "RTE 84 EAST MM1"}},{"geometry": {"type": "Point", "coordinates": [-71.67682791955886, 42.410129848845642]}, "type": "Feature", "id": 51, "properties": {"TOWN": "CLINTON", "STATUS": "TIERII", "NAME": "RESIDENCE", "SITE_INFO": "http://public.dep.state.ma.us/SearchableSites/Site_Info.asp?RTN=2-0018001", "REGION": 2.0, "RTN": "2-0018001", "ADDRESS": "201 OAK STREET"}},{"geometry": {"type": "Point", "coordinates": [-71.790359676503016, 42.22755650460978]}, "type": "Feature", "id": 52, "properties": {"TOWN": "WORCESTER", "STATUS": "TIER1C", "NAME": "LIBERTY PROPERY", "SITE_INFO": "http://public.dep.state.ma.us/SearchableSites/Site_Info.asp?RTN=2-0018026", "REGION": 2.0, "RTN": "2-0018026", "ADDRESS": "150 BLACKSTONE RIVER ROAD"}},{"geometry": {"type": "Point", "coordinates": [-71.569067882723203, 42.382460509629347]}, "type": "Feature", "id": 53, "properties": {"TOWN": "HUDSON", "STATUS": "TIERII", "NAME": "COMMERCIAL PROPERTY", "SITE_INFO": "http://public.dep.state.ma.us/SearchableSites/Site_Info.asp?RTN=2-0018043", "REGION": 2.0, "RTN": "2-0018043", "ADDRESS": "173 WASHINGTON STREET"}},{"geometry": {"type": "Point", "coordinates": [-71.778395928394147, 42.568480293276735]}, "type": "Feature", "id": 54, "properties": {"TOWN": "FITCHBURG", "STATUS": "TIER1D", "NAME": "FORMER GARAGE", "SITE_INFO": "http://public.dep.state.ma.us/SearchableSites/Site_Info.asp?RTN=2-0018060", "REGION": 2.0, "RTN": "2-0018060", "ADDRESS": "173 BEMIS RD"}},{"geometry": {"type": "Point", "coordinates": [-71.794883513509049, 42.579397788870104]}, "type": "Feature", "id": 55, "properties": {"TOWN": "FITCHBURG", "STATUS": "TIERII", "NAME": "FORMER PELLETIER BUILDING SUPPLY", "SITE_INFO": "http://public.dep.state.ma.us/SearchableSites/Site_Info.asp?RTN=2-0018123", "REGION": 2.0, "RTN": "2-0018123", "ADDRESS": "133 WATER STREET"}},{"geometry": {"type": "Point", "coordinates": [-71.824355827941261, 42.215662753389481]}, "type": "Feature", "id": 56, "properties": {"TOWN": "AUBURN", "STATUS": "TIERII", "NAME": "RESIDENCE", "SITE_INFO": "http://public.dep.state.ma.us/SearchableSites/Site_Info.asp?RTN=2-0018353", "REGION": 2.0, "RTN": "2-0018353", "ADDRESS": "12 CLARENDON ROAD"}},{"geometry": {"type": "Point", "coordinates": [-71.910982360294653, 42.041178364858197]}, "type": "Feature", "id": 57, "properties": {"TOWN": "DUDLEY", "STATUS": "TIERII", "NAME": "CUMBERLAND FARMS STATION", "SITE_INFO": "http://public.dep.state.ma.us/SearchableSites/Site_Info.asp?RTN=2-0018362", "REGION": 2.0, "RTN": "2-0018362", "ADDRESS": "186 W. MAIN ST"}},{"geometry": {"type": "Point", "coordinates": [-71.832950104924905, 42.247688032680408]}, "type": "Feature", "id": 58, "properties": {"TOWN": "WORCESTER", "STATUS": "TIERII", "NAME": "BP STATION", "SITE_INFO": "http://public.dep.state.ma.us/SearchableSites/Site_Info.asp?RTN=2-0018364", "REGION": 2.0, "RTN": "2-0018364", "ADDRESS": "609 PARK AVE"}},{"geometry": {"type": "Point", "coordinates": [-71.816858893028808, 42.248454905482227]}, "type": "Feature", "id": 59, "properties": {"TOWN": "WORCESTER", "STATUS": "TIER1D", "NAME": "FORMER MILL PROPERTY", "SITE_INFO": "http://public.dep.state.ma.us/SearchableSites/Site_Info.asp?RTN=2-0018366", "REGION": 2.0, "RTN": "2-0018366", "ADDRESS": "95 GRAND STREET"}},{"geometry": {"type": "Point", "coordinates": [-71.80899113658289, 42.271779920309584]}, "type": "Feature", "id": 60, "properties": {"TOWN": "WORCESTER", "STATUS": "TIERII", "NAME": "RESIDENCE", "SITE_INFO": "http://public.dep.state.ma.us/SearchableSites/Site_Info.asp?RTN=2-0018379", "REGION": 2.0, "RTN": "2-0018379", "ADDRESS": "12 SCHUSSLER RD."}},{"geometry": {"type": "Point", "coordinates": [-71.907102560680002, 42.63248917347893]}, "type": "Feature", "id": 61, "properties": {"TOWN": "ASHBURNHAM", "STATUS": "TIERII", "NAME": "FLO CHEMICAL CORPORATION", "SITE_INFO": "http://public.dep.state.ma.us/SearchableSites/Site_Info.asp?RTN=2-0018383", "REGION": 2.0, "RTN": "2-0018383", "ADDRESS": "20 PUFFER STREET"}},{"geometry": {"type": "Point", "coordinates": [-71.816801063221845, 42.248431247504328]}, "type": "Feature", "id": 62, "properties": {"TOWN": "WORCESTER", "STATUS": "TIER1D", "NAME": "FORMER CROMPTON & KNOWLES", "SITE_INFO": "http://public.dep.state.ma.us/SearchableSites/Site_Info.asp?RTN=2-0018384", "REGION": 2.0, "RTN": "2-0018384", "ADDRESS": "95 GRAND STREET"}},{"geometry": {"type": "Point", "coordinates": [-71.815852176079758, 42.236777671214242]}, "type": "Feature", "id": 63, "properties": {"TOWN": "WORCESTER", "STATUS": "TIERII", "NAME": "NATIONAL GRID FACILITY", "SITE_INFO": "http://public.dep.state.ma.us/SearchableSites/Site_Info.asp?RTN=2-0018389", "REGION": 2.0, "RTN": "2-0018389", "ADDRESS": "939 SOUTHBRIDGE STREET"}},{"geometry": {"type": "Point", "coordinates": [-72.072148420631507, 42.24361692996937]}, "type": "Feature", "id": 64, "properties": {"TOWN": "NORTH BROOKFIELD", "STATUS": "TIERII", "NAME": "FORMER CHASE PRECAST", "SITE_INFO": "http://public.dep.state.ma.us/SearchableSites/Site_Info.asp?RTN=2-0018398", "REGION": 2.0, "RTN": "2-0018398", "ADDRESS": "70 EAST BROOKFIELD ROAD"}},{"geometry": {"type": "Point", "coordinates": [-71.393179656441845, 42.180359893712861]}, "type": "Feature", "id": 65, "properties": {"TOWN": "MILLIS", "STATUS": "TIERII", "NAME": "PROPERTIES", "SITE_INFO": "http://public.dep.state.ma.us/SearchableSites/Site_Info.asp?RTN=2-3000379", "REGION": 2.0, "RTN": "2-3000379", "ADDRESS": "63 GROVE ST"}},{"geometry": {"type": "Point", "coordinates": [-71.323044401604506, 42.145840026369896]}, "type": "Feature", "id": 66, "properties": {"TOWN": "NORFOLK", "STATUS": "TIER1D", "NAME": "PRIVATE WELLS PROPERTY", "SITE_INFO": "http://public.dep.state.ma.us/SearchableSites/Site_Info.asp?RTN=2-3003522", "REGION": 2.0, "RTN": "2-3003522", "ADDRESS": "FRUIT ST"}},{"geometry": {"type": "Point", "coordinates": [-71.306973458695481, 42.183962824811324]}, "type": "Feature", "id": 67, "properties": {"TOWN": "MEDFIELD", "STATUS": "TIER1C", "NAME": "INTERSECTION WITH MAIN ST", "SITE_INFO": "http://public.dep.state.ma.us/SearchableSites/Site_Info.asp?RTN=2-3012164", "REGION": 2.0, "RTN": "2-3012164", "ADDRESS": "26 SPRING ST"}},{"geometry": {"type": "Point", "coordinates": [-71.307084697800065, 42.184207623972036]}, "type": "Feature", "id": 68, "properties": {"TOWN": "MEDFIELD", "STATUS": "TIER1C", "NAME": "STAR ENTERPRISE", "SITE_INFO": "http://public.dep.state.ma.us/SearchableSites/Site_Info.asp?RTN=2-3015711", "REGION": 2.0, "RTN": "2-3015711", "ADDRESS": "26 SPRING ST"}},{"geometry": {"type": "Point", "coordinates": [-71.338694079394259, 42.213397746258892]}, "type": "Feature", "id": 69, "properties": {"TOWN": "MEDFIELD", "STATUS": "TIER1B", "NAME": "MEDFIELD STATE HOSPITAL POWER PLANT", "SITE_INFO": "http://public.dep.state.ma.us/SearchableSites/Site_Info.asp?RTN=2-3020799", "REGION": 2.0, "RTN": "2-3020799", "ADDRESS": "45 HOSPITAL RD"}},{"geometry": {"type": "Point", "coordinates": [-71.30697288387158, 42.183964357975036]}, "type": "Feature", "id": 70, "properties": {"TOWN": "MEDFIELD", "STATUS": "TIER1C", "NAME": "PINE GROVE RD", "SITE_INFO": "http://public.dep.state.ma.us/SearchableSites/Site_Info.asp?RTN=2-3021743", "REGION": 2.0, "RTN": "2-3021743", "ADDRESS": "26 SPRING ST"}},{"geometry": {"type": "Point", "coordinates": [-71.339918636616218, 42.21347758894467]}, "type": "Feature", "id": 71, "properties": {"TOWN": "MEDFIELD", "STATUS": "TIER1B", "NAME": "MEDFIELD STATE HOSPITAL", "SITE_INFO": "http://public.dep.state.ma.us/SearchableSites/Site_Info.asp?RTN=2-3025651", "REGION": 2.0, "RTN": "2-3025651", "ADDRESS": "45 HOSPITAL RD"}},{"geometry": {"type": "Point", "coordinates": [-71.434263880302126, 42.054873855996931]}, "type": "Feature", "id": 72, "properties": {"TOWN": "FRANKLIN", "STATUS": "TIER1D", "NAME": "IN FRONT OF NURSERY", "SITE_INFO": "http://public.dep.state.ma.us/SearchableSites/Site_Info.asp?RTN=2-4015426", "REGION": 2.0, "RTN": "2-4015426", "ADDRESS": "825 WASHINGTON ST"}},{"geometry": {"type": "Point", "coordinates": [-71.293496097695296, 42.610848865890432]}, "type": "Feature", "id": 73, "properties": {"TOWN": "LOWELL", "STATUS": "TIER1A", "NAME": "FMR LOWELL ORDNANCE PLANT/RAYTHEON FAC", "SITE_INFO": "http://public.dep.state.ma.us/SearchableSites/Site_Info.asp?RTN=3-0000035", "REGION": 3.0, "RTN": "3-0000035", "ADDRESS": "350 WOBURN ST"}},{"geometry": {"type": "Point", "coordinates": [-70.990120763834483, 42.43613334958193]}, "type": "Feature", "id": 74, "properties": {"TOWN": "SAUGUS", "STATUS": "TIER1A", "NAME": "DEWEY DAGGETT LANDFILL", "SITE_INFO": "http://public.dep.state.ma.us/SearchableSites/Site_Info.asp?RTN=3-0000044", "REGION": 3.0, "RTN": "3-0000044", "ADDRESS": "SALEM TPKE RTE 107"}},{"geometry": {"type": "Point", "coordinates": [-71.150408524739504, 42.701331435265942]}, "type": "Feature", "id": 75, "properties": {"TOWN": "LAWRENCE", "STATUS": "TIERII", "NAME": "BOLTON EMERSON INC", "SITE_INFO": "http://public.dep.state.ma.us/SearchableSites/Site_Info.asp?RTN=3-0000054", "REGION": 3.0, "RTN": "3-0000054", "ADDRESS": "9 OSGOOD ST"}},{"geometry": {"type": "Point", "coordinates": [-71.02244180852594, 42.242747677563045]}, "type": "Feature", "id": 76, "properties": {"TOWN": "QUINCY", "STATUS": "TIERII", "NAME": "TEXACO STATION", "SITE_INFO": "http://public.dep.state.ma.us/SearchableSites/Site_Info.asp?RTN=3-0000102", "REGION": 3.0, "RTN": "3-0000102", "ADDRESS": "15 CENTER ST"}},{"geometry": {"type": "Point", "coordinates": [-71.074494983655029, 42.369408524091725]}, "type": "Feature", "id": 77, "properties": {"TOWN": "CAMBRIDGE", "STATUS": "TIER1D", "NAME": "GRAVES LANDING LECHMERE", "SITE_INFO": "http://public.dep.state.ma.us/SearchableSites/Site_Info.asp?RTN=3-0000162", "REGION": 3.0, "RTN": "3-0000162", "ADDRESS": "COMMERCIAL AVE"}},{"geometry": {"type": "Point", "coordinates": [-71.09549042686352, 42.421574532854883]}, "type": "Feature", "id": 78, "properties": {"TOWN": "MEDFORD", "STATUS": "TIERII", "NAME": "AMOCO SERVICE STATION FMR", "SITE_INFO": "http://public.dep.state.ma.us/SearchableSites/Site_Info.asp?RTN=3-0000164", "REGION": 3.0, "RTN": "3-0000164", "ADDRESS": "353 SALEM ST"}},{"geometry": {"type": "Point", "coordinates": [-71.024475696809887, 42.613756606691929]}, "type": "Feature", "id": 79, "properties": {"TOWN": "MIDDLETON", "STATUS": "TIER1D", "NAME": "ADHESIVES MANUFACTURER", "SITE_INFO": "http://public.dep.state.ma.us/SearchableSites/Site_Info.asp?RTN=3-0000168", "REGION": 3.0, "RTN": "3-0000168", "ADDRESS": "SCHOOL ST"}},{"geometry": {"type": "Point", "coordinates": [-70.929519631062263, 42.522464829046569]}, "type": "Feature", "id": 80, "properties": {"TOWN": "PEABODY", "STATUS": "TIERII", "NAME": "COMMERCIAL PROPERTY", "SITE_INFO": "http://public.dep.state.ma.us/SearchableSites/Site_Info.asp?RTN=3-0000196", "REGION": 3.0, "RTN": "3-0000196", "ADDRESS": "3 MASON ST"}},{"geometry": {"type": "Point", "coordinates": [-70.959283225815597, 42.842728401591579]}, "type": "Feature", "id": 81, "properties": {"TOWN": "AMESBURY", "STATUS": "TIER1A", "NAME": "MICROFAB INC FMR", "SITE_INFO": "http://public.dep.state.ma.us/SearchableSites/Site_Info.asp?RTN=3-0000201", "REGION": 3.0, "RTN": "3-0000201", "ADDRESS": "106 HAVERHILL RD RTE 110"}},{"geometry": {"type": "Point", "coordinates": [-70.929547809383962, 42.836504096246209]}, "type": "Feature", "id": 82, "properties": {"TOWN": "AMESBURY", "STATUS": "TIERII", "NAME": "BAILEY POND PARCEL", "SITE_INFO": "http://public.dep.state.ma.us/SearchableSites/Site_Info.asp?RTN=3-0000204", "REGION": 3.0, "RTN": "3-0000204", "ADDRESS": "77 MERRIMAC ST"}},{"geometry": {"type": "Point", "coordinates": [-71.421894199627829, 42.241310658801581]}, "type": "Feature", "id": 83, "properties": {"TOWN": "ASHLAND", "STATUS": "TIER1A", "NAME": "CADILLAC PAINT COLONIAL FMR", "SITE_INFO": "http://public.dep.state.ma.us/SearchableSites/Site_Info.asp?RTN=3-0000221", "REGION": 3.0, "RTN": "3-0000221", "ADDRESS": "409 ELLIOT ST"}},{"geometry": {"type": "Point", "coordinates": [-71.272815987210393, 42.48921431227685]}, "type": "Feature", "id": 84, "properties": {"TOWN": "BEDFORD", "STATUS": "TIER1B", "NAME": "SERVICE STATION FMR", "SITE_INFO": "http://public.dep.state.ma.us/SearchableSites/Site_Info.asp?RTN=3-0000222", "REGION": 3.0, "RTN": "3-0000222", "ADDRESS": "185 GREAT RD"}},{"geometry": {"type": "Point", "coordinates": [-71.28947757995374, 42.470861624531587]}, "type": "Feature", "id": 85, "properties": {"TOWN": "BEDFORD", "STATUS": "TIER1A", "NAME": "HANSCOM AIR FORCE BASE", "SITE_INFO": "http://public.dep.state.ma.us/SearchableSites/Site_Info.asp?RTN=3-0000223", "REGION": 3.0, "RTN": "3-0000223", "ADDRESS": "HARTWELL RD"}},{"geometry": {"type": "Point", "coordinates": [-71.159431696446319, 42.396399880400139]}, "type": "Feature", "id": 86, "properties": {"TOWN": "BELMONT", "STATUS": "TIERII", "NAME": "GULF STATION", "SITE_INFO": "http://public.dep.state.ma.us/SearchableSites/Site_Info.asp?RTN=3-0000229", "REGION": 3.0, "RTN": "3-0000229", "ADDRESS": "50 BRIGHTON ST"}},{"geometry": {"type": "Point", "coordinates": [-71.236525976394844, 42.536976058412385]}, "type": "Feature", "id": 87, "properties": {"TOWN": "BILLERICA", "STATUS": "TIERII", "NAME": "ROY BROS HAULERS", "SITE_INFO": "http://public.dep.state.ma.us/SearchableSites/Site_Info.asp?RTN=3-0000236", "REGION": 3.0, "RTN": "3-0000236", "ADDRESS": "764 BOSTON RD"}},{"geometry": {"type": "Point", "coordinates": [-71.251386806589068, 42.585571925431537]}, "type": "Feature", "id": 88, "properties": {"TOWN": "BILLERICA", "STATUS": "TIER1A", "NAME": "IRON HORSE PARK", "SITE_INFO": "http://public.dep.state.ma.us/SearchableSites/Site_Info.asp?RTN=3-0000240", "REGION": 3.0, "RTN": "3-0000240", "ADDRESS": "HIGH ST AKA IRON HORSE ST"}},{"geometry": {"type": "Point", "coordinates": [-71.11341917235444, 42.317396586867488]}, "type": "Feature", "id": 89, "properties": {"TOWN": "BOSTON", "STATUS": "TIER1A", "NAME": "TEXACO SERVICE STATION", "SITE_INFO": "http://public.dep.state.ma.us/SearchableSites/Site_Info.asp?RTN=3-0000249", "REGION": 3.0, "RTN": "3-0000249", "ADDRESS": "525 CENTER ST"}},{"geometry": {"type": "Point", "coordinates": [-71.218032737600723, 42.491891966593286]}, "type": "Feature", "id": 90, "properties": {"TOWN": "BURLINGTON", "STATUS": "TIER1A", "NAME": "VINE BROOK AQUIFER", "SITE_INFO": "http://public.dep.state.ma.us/SearchableSites/Site_Info.asp?RTN=3-0000268", "REGION": 3.0, "RTN": "3-0000268", "ADDRESS": "MIDDLESEX TPKE"}},{"geometry": {"type": "Point", "coordinates": [-70.930371807370136, 42.553843034542354]}, "type": "Feature", "id": 91, "properties": {"TOWN": "DANVERS", "STATUS": "TIER1B", "NAME": "CREESE AND COOK TANNERY FMR", "SITE_INFO": "http://public.dep.state.ma.us/SearchableSites/Site_Info.asp?RTN=3-0000303", "REGION": 3.0, "RTN": "3-0000303", "ADDRESS": "25 CLINTON AVE"}},{"geometry": {"type": "Point", "coordinates": [-71.058731238152163, 42.393162820068213]}, "type": "Feature", "id": 92, "properties": {"TOWN": "EVERETT", "STATUS": "TIERII", "NAME": "BOSTON GAS PLANT FMR", "SITE_INFO": "http://public.dep.state.ma.us/SearchableSites/Site_Info.asp?RTN=3-0000308", "REGION": 3.0, "RTN": "3-0000308", "ADDRESS": "ROVER ST"}},{"geometry": {"type": "Point", "coordinates": [-71.052140658387856, 42.393236387149379]}, "type": "Feature", "id": 93, "properties": {"TOWN": "EVERETT", "STATUS": "TIER1A", "NAME": "COAL GAS FACILITY FMR", "SITE_INFO": "http://public.dep.state.ma.us/SearchableSites/Site_Info.asp?RTN=3-0000309", "REGION": 3.0, "RTN": "3-0000309", "ADDRESS": "MARKET ST BEHEN ST"}},{"geometry": {"type": "Point", "coordinates": [-71.428825236954452, 42.293586466280836]}, "type": "Feature", "id": 94, "properties": {"TOWN": "FRAMINGHAM", "STATUS": "TIER1C", "NAME": "ZIP COPY QUALITY CLEANERS", "SITE_INFO": "http://public.dep.state.ma.us/SearchableSites/Site_Info.asp?RTN=3-0000318", "REGION": 3.0, "RTN": "3-0000318", "ADDRESS": "530-532 UNION AVE"}},{"geometry": {"type": "Point", "coordinates": [-71.151796795449073, 42.708194584559486]}, "type": "Feature", "id": 95, "properties": {"TOWN": "LAWRENCE", "STATUS": "TIER1B", "NAME": "GENCORP INC", "SITE_INFO": "http://public.dep.state.ma.us/SearchableSites/Site_Info.asp?RTN=3-0000340", "REGION": 3.0, "RTN": "3-0000340", "ADDRESS": "70 GENERAL ST"}},{"geometry": {"type": "Point", "coordinates": [-71.179748497632374, 42.697998460892748]}, "type": "Feature", "id": 96, "properties": {"TOWN": "LAWRENCE", "STATUS": "TIER1A", "NAME": "TOWER HILL", "SITE_INFO": "http://public.dep.state.ma.us/SearchableSites/Site_Info.asp?RTN=3-0000342", "REGION": 3.0, "RTN": "3-0000342", "ADDRESS": "HUDSON OREGON AVE LAWRENCE AVE"}},{"geometry": {"type": "Point", "coordinates": [-71.306856522955414, 42.626719785263667]}, "type": "Feature", "id": 97, "properties": {"TOWN": "LOWELL", "STATUS": "TIER1D", "NAME": "COMMONWEALTH CHEMICAL CORP", "SITE_INFO": "http://public.dep.state.ma.us/SearchableSites/Site_Info.asp?RTN=3-0000349", "REGION": 3.0, "RTN": "3-0000349", "ADDRESS": "1052 GORHAM ST"}},{"geometry": {"type": "Point", "coordinates": [-71.074393132464138, 42.423448131897132]}, "type": "Feature", "id": 98, "properties": {"TOWN": "MALDEN", "STATUS": "TIER1B", "NAME": "BOSTON GAS COMPANY MALDEN PLANT", "SITE_INFO": "http://public.dep.state.ma.us/SearchableSites/Site_Info.asp?RTN=3-0000362", "REGION": 3.0, "RTN": "3-0000362", "ADDRESS": "100 COMMERCIAL ST"}},{"geometry": {"type": "Point", "coordinates": [-71.238722690849031, 42.297024451051598]}, "type": "Feature", "id": 99, "properties": {"TOWN": "NEEDHAM", "STATUS": "TIER1A", "NAME": "MICROWAVE DEVELOPMENT LABS", "SITE_INFO": "http://public.dep.state.ma.us/SearchableSites/Site_Info.asp?RTN=3-0000386", "REGION": 3.0, "RTN": "3-0000386", "ADDRESS": "101-145 CRESCENT RD"}},{"geometry": {"type": "Point", "coordinates": [-70.875237053058882, 42.797601187168539]}, "type": "Feature", "id": 100, "properties": {"TOWN": "NEWBURYPORT", "STATUS": "TIER1B", "NAME": "CIRCLE FINISHING", "SITE_INFO": "http://public.dep.state.ma.us/SearchableSites/Site_Info.asp?RTN=3-0000392", "REGION": 3.0, "RTN": "3-0000392", "ADDRESS": "ROUTE ONE TRAFFIC CIR"}},{"geometry": {"type": "Point", "coordinates": [-71.039383345968801, 42.242515867825929]}, "type": "Feature", "id": 101, "properties": {"TOWN": "QUINCY", "STATUS": "TIER1D", "NAME": "YANKEE HEIGHTS DEVELOPMENT", "SITE_INFO": "http://public.dep.state.ma.us/SearchableSites/Site_Info.asp?RTN=3-0000416", "REGION": 3.0, "RTN": "3-0000416", "ADDRESS": "RICCIUTI DR"}},{"geometry": {"type": "Point", "coordinates": [-70.897679030998106, 42.526683810559753]}, "type": "Feature", "id": 102, "properties": {"TOWN": "SALEM", "STATUS": "TIER1D", "NAME": "NORTH RIVER", "SITE_INFO": "http://public.dep.state.ma.us/SearchableSites/Site_Info.asp?RTN=3-0000428", "REGION": 3.0, "RTN": "3-0000428", "ADDRESS": "NORTH ST SALEM HBR"}},{"geometry": {"type": "Point", "coordinates": [-71.392126326100083, 42.420526967515414]}, "type": "Feature", "id": 103, "properties": {"TOWN": "SUDBURY", "STATUS": "TIER1A", "NAME": "SPERRY RESEARCH CENTER FMR", "SITE_INFO": "http://public.dep.state.ma.us/SearchableSites/Site_Info.asp?RTN=3-0000435", "REGION": 3.0, "RTN": "3-0000435", "ADDRESS": "100 NORTH RD"}},{"geometry": {"type": "Point", "coordinates": [-71.214635503149935, 42.370068973689186]}, "type": "Feature", "id": 104, "properties": {"TOWN": "WALTHAM", "STATUS": "TIER1B", "NAME": "RAYTHEON CO  EQUIP DIV MFG", "SITE_INFO": "http://public.dep.state.ma.us/SearchableSites/Site_Info.asp?RTN=3-0000449", "REGION": 3.0, "RTN": "3-0000449", "ADDRESS": "20 SEYON ST"}},{"geometry": {"type": "Point", "coordinates": [-71.168553945860225, 42.363019336684019]}, "type": "Feature", "id": 105, "properties": {"TOWN": "WATERTOWN", "STATUS": "TIER1A", "NAME": "ARMY MATS AND TECH RES", "SITE_INFO": "http://public.dep.state.ma.us/SearchableSites/Site_Info.asp?RTN=3-0000455", "REGION": 3.0, "RTN": "3-0000455", "ADDRESS": "ARSENAL ST"}},{"geometry": {"type": "Point", "coordinates": [-71.315893060800349, 42.293556538801937]}, "type": "Feature", "id": 106, "properties": {"TOWN": "WELLESLEY", "STATUS": "TIER1A", "NAME": "PAINTSHOP POND", "SITE_INFO": "http://public.dep.state.ma.us/SearchableSites/Site_Info.asp?RTN=3-0000462", "REGION": 3.0, "RTN": "3-0000462", "ADDRESS": "CENTRAL ST RTE 135"}},{"geometry": {"type": "Point", "coordinates": [-71.014496990550626, 42.234798892770328]}, "type": "Feature", "id": 107, "properties": {"TOWN": "QUINCY", "STATUS": "TIER1D", "NAME": "CROWN COLONY PLACE", "SITE_INFO": "http://public.dep.state.ma.us/SearchableSites/Site_Info.asp?RTN=3-0000495", "REGION": 3.0, "RTN": "3-0000495", "ADDRESS": "CENTER ST"}},{"geometry": {"type": "Point", "coordinates": [-71.093046470445159, 42.337238527318604]}, "type": "Feature", "id": 108, "properties": {"TOWN": "BOSTON", "STATUS": "TIER1C", "NAME": "SUNSHINE LAUNDRY", "SITE_INFO": "http://public.dep.state.ma.us/SearchableSites/Site_Info.asp?RTN=3-0000506", "REGION": 3.0, "RTN": "3-0000506", "ADDRESS": "40 RUGG RD"}},{"geometry": {"type": "Point", "coordinates": [-71.180525280482925, 41.677461830443164]}, "type": "Feature", "id": 109, "properties": {"TOWN": "FALL RIVER", "STATUS": "TIERII", "NAME": "GETTY SERVICE STATION", "SITE_INFO": "http://public.dep.state.ma.us/SearchableSites/Site_Info.asp?RTN=4-0000786", "REGION": 4.0, "RTN": "4-0000786", "ADDRESS": "2291 SOUTH MAIN ST"}},{"geometry": {"type": "Point", "coordinates": [-71.217806080403264, 42.055496469528123]}, "type": "Feature", "id": 110, "properties": {"TOWN": "FOXBOROUGH", "STATUS": "TIER1A", "NAME": "EVELYN PORTER ESTATE", "SITE_INFO": "http://public.dep.state.ma.us/SearchableSites/Site_Info.asp?RTN=4-0000792", "REGION": 4.0, "RTN": "4-0000792", "ADDRESS": "COCASSET ST"}},{"geometry": {"type": "Point", "coordinates": [-70.932908029391527, 41.666137696027455]}, "type": "Feature", "id": 111, "properties": {"TOWN": "NEW BEDFORD", "STATUS": "TIERII", "NAME": "WEIGEL & SON", "SITE_INFO": "http://public.dep.state.ma.us/SearchableSites/Site_Info.asp?RTN=4-0000817", "REGION": 4.0, "RTN": "4-0000817", "ADDRESS": "282 NASH RD"}},{"geometry": {"type": "Point", "coordinates": [-71.331068682967299, 41.980522769641688]}, "type": "Feature", "id": 112, "properties": {"TOWN": "NORTH ATTLEBOROUGH", "STATUS": "TIERII", "NAME": "LG BALFOUR CO FMR", "SITE_INFO": "http://public.dep.state.ma.us/SearchableSites/Site_Info.asp?RTN=4-0000821", "REGION": 4.0, "RTN": "4-0000821", "ADDRESS": "21 EAST ST"}},{"geometry": {"type": "Point", "coordinates": [-70.281284869425633, 41.667738519577057]}, "type": "Feature", "id": 113, "properties": {"TOWN": "BARNSTABLE", "STATUS": "TIER1B", "NAME": "BARNSTABLE AIRPORT", "SITE_INFO": "http://public.dep.state.ma.us/SearchableSites/Site_Info.asp?RTN=4-0000823", "REGION": 4.0, "RTN": "4-0000823", "ADDRESS": "BOARDMAN-POLANDO FLD"}},{"geometry": {"type": "Point", "coordinates": [-71.011159918081532, 42.084149792149852]}, "type": "Feature", "id": 114, "properties": {"TOWN": "BROCKTON", "STATUS": "TIERII", "NAME": "GOODYS AUTO SALES", "SITE_INFO": "http://public.dep.state.ma.us/SearchableSites/Site_Info.asp?RTN=4-0000831", "REGION": 4.0, "RTN": "4-0000831", "ADDRESS": "234 CENTER ST"}},{"geometry": {"type": "Point", "coordinates": [-71.329741681682535, 41.976454654567213]}, "type": "Feature", "id": 115, "properties": {"TOWN": "NORTH ATTLEBOROUGH", "STATUS": "TIERII", "NAME": "LUBRX PRODUCTS INC FMR", "SITE_INFO": "http://public.dep.state.ma.us/SearchableSites/Site_Info.asp?RTN=4-0000838", "REGION": 4.0, "RTN": "4-0000838", "ADDRESS": "342 EAST WASHINGTON ST"}},{"geometry": {"type": "Point", "coordinates": [-70.802969584125435, 41.636010320817526]}, "type": "Feature", "id": 116, "properties": {"TOWN": "MATTAPOISETT", "STATUS": "TIER1B", "NAME": "PROPERTY", "SITE_INFO": "http://public.dep.state.ma.us/SearchableSites/Site_Info.asp?RTN=4-0000849", "REGION": 4.0, "RTN": "4-0000849", "ADDRESS": "56 OCEAN DR"}},{"geometry": {"type": "Point", "coordinates": [-71.338442609924456, 42.004019802836339]}, "type": "Feature", "id": 117, "properties": {"TOWN": "PLAINVILLE", "STATUS": "TIER1A", "NAME": "WHITING & DAVIS TMR", "SITE_INFO": "http://public.dep.state.ma.us/SearchableSites/Site_Info.asp?RTN=4-0000874", "REGION": 4.0, "RTN": "4-0000874", "ADDRESS": "23 WEST BACON ST"}},{"geometry": {"type": "Point", "coordinates": [-70.529549428430911, 41.773058307321939]}, "type": "Feature", "id": 118, "properties": {"TOWN": "BOURNE", "STATUS": "TIER1D", "NAME": "THE COAL MAN OF CC FMR", "SITE_INFO": "http://public.dep.state.ma.us/SearchableSites/Site_Info.asp?RTN=4-0000896", "REGION": 4.0, "RTN": "4-0000896", "ADDRESS": "OLD FREIGHT HOUSE RD"}},{"geometry": {"type": "Point", "coordinates": [-70.557699722401622, 41.917413786201834]}, "type": "Feature", "id": 119, "properties": {"TOWN": "PLYMOUTH", "STATUS": "TIER1D", "NAME": "PROPERTY", "SITE_INFO": "http://public.dep.state.ma.us/SearchableSites/Site_Info.asp?RTN=4-0000916", "REGION": 4.0, "RTN": "4-0000916", "ADDRESS": "STATE ROAD BROOK RD RTE 3A"}},{"geometry": {"type": "Point", "coordinates": [-71.338167704629811, 41.893183663338036]}, "type": "Feature", "id": 120, "properties": {"TOWN": "SEEKONK", "STATUS": "TIERII", "NAME": "SEEKONK MFG CO", "SITE_INFO": "http://public.dep.state.ma.us/SearchableSites/Site_Info.asp?RTN=4-0000957", "REGION": 4.0, "RTN": "4-0000957", "ADDRESS": "PERRIN AVE"}},{"geometry": {"type": "Point", "coordinates": [-70.921397035042858, 42.123454453014475]}, "type": "Feature", "id": 121, "properties": {"TOWN": "ROCKLAND", "STATUS": "TIER1D", "NAME": "ESTES AUTO SUPPLY", "SITE_INFO": "http://public.dep.state.ma.us/SearchableSites/Site_Info.asp?RTN=4-0000988", "REGION": 4.0, "RTN": "4-0000988", "ADDRESS": "225 WEST WATER ST"}},{"geometry": {"type": "Point", "coordinates": [-70.96983192380614, 42.092623228918413]}, "type": "Feature", "id": 122, "properties": {"TOWN": "ABINGTON", "STATUS": "TIERII", "NAME": "HOPPYS SERVICE STATION", "SITE_INFO": "http://public.dep.state.ma.us/SearchableSites/Site_Info.asp?RTN=4-0001016", "REGION": 4.0, "RTN": "4-0001016", "ADDRESS": "810 BROCKTON AVE"}},{"geometry": {"type": "Point", "coordinates": [-70.926921512119293, 41.618211254355209]}, "type": "Feature", "id": 123, "properties": {"TOWN": "NEW BEDFORD", "STATUS": "TIERII", "NAME": "PROPERTY", "SITE_INFO": "http://public.dep.state.ma.us/SearchableSites/Site_Info.asp?RTN=4-0001031", "REGION": 4.0, "RTN": "4-0001031", "ADDRESS": "104 WINDSOR ST"}},{"geometry": {"type": "Point", "coordinates": [-71.069864303612732, 41.801261089586184]}, "type": "Feature", "id": 124, "properties": {"TOWN": "FREETOWN", "STATUS": "TIERII", "NAME": "REZENDES", "SITE_INFO": "http://public.dep.state.ma.us/SearchableSites/Site_Info.asp?RTN=4-0001039", "REGION": 4.0, "RTN": "4-0001039", "ADDRESS": "SAMMYS LN"}},{"geometry": {"type": "Point", "coordinates": [-70.95457777723351, 42.130168284576889]}, "type": "Feature", "id": 125, "properties": {"TOWN": "ABINGTON", "STATUS": "TIERII", "NAME": "PERX PRODUCTS INC II", "SITE_INFO": "http://public.dep.state.ma.us/SearchableSites/Site_Info.asp?RTN=4-0001045", "REGION": 4.0, "RTN": "4-0001045", "ADDRESS": "121 RANDOLPH ST"}},{"geometry": {"type": "Point", "coordinates": [-70.926007594322186, 41.624981381715507]}, "type": "Feature", "id": 126, "properties": {"TOWN": "NEW BEDFORD", "STATUS": "TIERII", "NAME": "STANDARD TAXI", "SITE_INFO": "http://public.dep.state.ma.us/SearchableSites/Site_Info.asp?RTN=4-0001052", "REGION": 4.0, "RTN": "4-0001052", "ADDRESS": "241 COUNTY ST"}},{"geometry": {"type": "Point", "coordinates": [-71.009120213921207, 42.04402751412605]}, "type": "Feature", "id": 127, "properties": {"TOWN": "BROCKTON", "STATUS": "TIERII", "NAME": "SILKO MOTOR SALES INC", "SITE_INFO": "http://public.dep.state.ma.us/SearchableSites/Site_Info.asp?RTN=4-0001070", "REGION": 4.0, "RTN": "4-0001070", "ADDRESS": "2074 SOUTH MAIN ST"}},{"geometry": {"type": "Point", "coordinates": [-70.926410295700833, 42.081896271867997]}, "type": "Feature", "id": 128, "properties": {"TOWN": "WHITMAN", "STATUS": "TIER1B", "NAME": "MOBIL STATION 01 728", "SITE_INFO": "http://public.dep.state.ma.us/SearchableSites/Site_Info.asp?RTN=4-0001074", "REGION": 4.0, "RTN": "4-0001074", "ADDRESS": "311 SOUTH AVE"}},{"geometry": {"type": "Point", "coordinates": [-70.517877839810524, 41.615577148269395]}, "type": "Feature", "id": 129, "properties": {"TOWN": "MASHPEE", "STATUS": "TIER1C", "NAME": "MASHPEE SHELL STATION", "SITE_INFO": "http://public.dep.state.ma.us/SearchableSites/Site_Info.asp?RTN=4-0001076", "REGION": 4.0, "RTN": "4-0001076", "ADDRESS": "RTE 151"}},{"geometry": {"type": "Point", "coordinates": [-70.728098981170533, 42.000180438327575]}, "type": "Feature", "id": 130, "properties": {"TOWN": "KINGSTON", "STATUS": "TIERII", "NAME": "HERGIT OIL COMPANY", "SITE_INFO": "http://public.dep.state.ma.us/SearchableSites/Site_Info.asp?RTN=4-0001085", "REGION": 4.0, "RTN": "4-0001085", "ADDRESS": "8 MAPLE ST"}},{"geometry": {"type": "Point", "coordinates": [-71.319047878646728, 41.971517319012946]}, "type": "Feature", "id": 131, "properties": {"TOWN": "NORTH ATTLEBOROUGH", "STATUS": "TIER1C", "NAME": "C RAY RANDALL CORP", "SITE_INFO": "http://public.dep.state.ma.us/SearchableSites/Site_Info.asp?RTN=4-0001089", "REGION": 4.0, "RTN": "4-0001089", "ADDRESS": "426 MT HOPE ST"}},{"geometry": {"type": "Point", "coordinates": [-71.141572369482716, 41.696984314189606]}, "type": "Feature", "id": 132, "properties": {"TOWN": "FALL RIVER", "STATUS": "TIERII", "NAME": "INDEPENDENT LAUNDRY", "SITE_INFO": "http://public.dep.state.ma.us/SearchableSites/Site_Info.asp?RTN=4-0001109", "REGION": 4.0, "RTN": "4-0001109", "ADDRESS": "192 18TH ST"}},{"geometry": {"type": "Point", "coordinates": [-70.933480015083973, 41.610903848109402]}, "type": "Feature", "id": 133, "properties": {"TOWN": "NEW BEDFORD", "STATUS": "TIERII", "NAME": "GETTY SERVICE STATION", "SITE_INFO": "http://public.dep.state.ma.us/SearchableSites/Site_Info.asp?RTN=4-0001119", "REGION": 4.0, "RTN": "4-0001119", "ADDRESS": "1615 COVE RD"}},{"geometry": {"type": "Point", "coordinates": [-70.938051457502823, 41.67037640054064]}, "type": "Feature", "id": 134, "properties": {"TOWN": "NEW BEDFORD", "STATUS": "TIER1C", "NAME": "CHAMBERLAIN MANUFACTURING CO", "SITE_INFO": "http://public.dep.state.ma.us/SearchableSites/Site_Info.asp?RTN=4-0001127", "REGION": 4.0, "RTN": "4-0001127", "ADDRESS": "117 KING ST"}},{"geometry": {"type": "Point", "coordinates": [-71.099929963423492, 42.113817025927297]}, "type": "Feature", "id": 135, "properties": {"TOWN": "STOUGHTON", "STATUS": "TIER1C", "NAME": "CENTRAL AUTO SALVAGE", "SITE_INFO": "http://public.dep.state.ma.us/SearchableSites/Site_Info.asp?RTN=4-0001154", "REGION": 4.0, "RTN": "4-0001154", "ADDRESS": "1152 WASHINGTON ST"}},{"geometry": {"type": "Point", "coordinates": [-70.737877074994714, 42.107902964079642]}, "type": "Feature", "id": 136, "properties": {"TOWN": "MARSHFIELD", "STATUS": "TIER1B", "NAME": "MARSHFIELD HIGH SCHOOL", "SITE_INFO": "http://public.dep.state.ma.us/SearchableSites/Site_Info.asp?RTN=4-0001172", "REGION": 4.0, "RTN": "4-0001172", "ADDRESS": "89 FOREST ST"}},{"geometry": {"type": "Point", "coordinates": [-70.709836218845126, 41.986090361948435]}, "type": "Feature", "id": 137, "properties": {"TOWN": "KINGSTON", "STATUS": "TIER1D", "NAME": "COBB & DREW", "SITE_INFO": "http://public.dep.state.ma.us/SearchableSites/Site_Info.asp?RTN=4-0001195", "REGION": 4.0, "RTN": "4-0001195", "ADDRESS": "6 PROSPECT ST"}},{"geometry": {"type": "Point", "coordinates": [-70.925701814366903, 41.627589792633557]}, "type": "Feature", "id": 138, "properties": {"TOWN": "NEW BEDFORD", "STATUS": "TIER1B", "NAME": "MORSE CUTTING TOOLS", "SITE_INFO": "http://public.dep.state.ma.us/SearchableSites/Site_Info.asp?RTN=4-0001203", "REGION": 4.0, "RTN": "4-0001203", "ADDRESS": "163 PLEASANT ST"}},{"geometry": {"type": "Point", "coordinates": [-70.52809479033786, 41.769649684767963]}, "type": "Feature", "id": 139, "properties": {"TOWN": "BOURNE", "STATUS": "TIER1B", "NAME": "KNOWLTONS SALVAGE YARD", "SITE_INFO": "http://public.dep.state.ma.us/SearchableSites/Site_Info.asp?RTN=4-0001214", "REGION": 4.0, "RTN": "4-0001214", "ADDRESS": "1050 SANDWICH RD"}},{"geometry": {"type": "Point", "coordinates": [-71.62884233721897, 42.385999141299372]}, "type": "Feature", "id": 140, "properties": {"TOWN": "BERLIN", "STATUS": "TIER1D", "NAME": "TOLMAN GREENHOUSE", "SITE_INFO": "http://public.dep.state.ma.us/SearchableSites/Site_Info.asp?RTN=2-0018128", "REGION": 2.0, "RTN": "2-0018128", "ADDRESS": "62 WALNUT STREET"}},{"geometry": {"type": "Point", "coordinates": [-71.656418103261188, 42.099589786761399]}, "type": "Feature", "id": 141, "properties": {"TOWN": "NORTHBRIDGE", "STATUS": "TIERII", "NAME": "RESIDENCE", "SITE_INFO": "http://public.dep.state.ma.us/SearchableSites/Site_Info.asp?RTN=2-0018136", "REGION": 2.0, "RTN": "2-0018136", "ADDRESS": "64 COUNTRY CLUB DRIVE"}},{"geometry": {"type": "Point", "coordinates": [-71.451924097240891, 42.475853710694757]}, "type": "Feature", "id": 142, "properties": {"TOWN": "ACTON", "STATUS": "TIERII", "NAME": "GAS STATION", "SITE_INFO": "http://public.dep.state.ma.us/SearchableSites/Site_Info.asp?RTN=2-0018146", "REGION": 2.0, "RTN": "2-0018146", "ADDRESS": "289 MAIN ST."}},{"geometry": {"type": "Point", "coordinates": [-71.700435273630646, 42.425235093032505]}, "type": "Feature", "id": 143, "properties": {"TOWN": "CLINTON", "STATUS": "TIER1D", "NAME": "RESIDENTIAL FUEL OIL RELEASE", "SITE_INFO": "http://public.dep.state.ma.us/SearchableSites/Site_Info.asp?RTN=2-0018180", "REGION": 2.0, "RTN": "2-0018180", "ADDRESS": "11 WILLOW STREET"}},{"geometry": {"type": "Point", "coordinates": [-71.844473471245237, 42.269025220474255]}, "type": "Feature", "id": 144, "properties": {"TOWN": "WORCESTER", "STATUS": "TIERII", "NAME": "WORCESTER STATE UNIVERSITY", "SITE_INFO": "http://public.dep.state.ma.us/SearchableSites/Site_Info.asp?RTN=2-0018194", "REGION": 2.0, "RTN": "2-0018194", "ADDRESS": "486 CHANDLER ST."}},{"geometry": {"type": "Point", "coordinates": [-71.411006968817418, 42.207482581028799]}, "type": "Feature", "id": 145, "properties": {"TOWN": "HOLLISTON", "STATUS": "TIERII", "NAME": "HISTORICAL RELEASE", "SITE_INFO": "http://public.dep.state.ma.us/SearchableSites/Site_Info.asp?RTN=2-0018209", "REGION": 2.0, "RTN": "2-0018209", "ADDRESS": "157 - 165 LOWLAND STREET"}},{"geometry": {"type": "Point", "coordinates": [-71.572649503828671, 42.556100301894006]}, "type": "Feature", "id": 146, "properties": {"TOWN": "AYER", "STATUS": "TIERII", "NAME": "123 CENTRAL AVE REALTY CORP", "SITE_INFO": "http://public.dep.state.ma.us/SearchableSites/Site_Info.asp?RTN=2-0018212", "REGION": 2.0, "RTN": "2-0018212", "ADDRESS": "123 CENTRAL AVE"}},{"geometry": {"type": "Point", "coordinates": [-71.832411283401953, 42.26535505534514]}, "type": "Feature", "id": 147, "properties": {"TOWN": "WORCESTER", "STATUS": "TIERII", "NAME": "RESIDENCE", "SITE_INFO": "http://public.dep.state.ma.us/SearchableSites/Site_Info.asp?RTN=2-0018220", "REGION": 2.0, "RTN": "2-0018220", "ADDRESS": "99 JUNE STREET"}},{"geometry": {"type": "Point", "coordinates": [-71.868774897797081, 42.057653847725888]}, "type": "Feature", "id": 148, "properties": {"TOWN": "WEBSTER", "STATUS": "TIERII", "NAME": "BP STATION 30458", "SITE_INFO": "http://public.dep.state.ma.us/SearchableSites/Site_Info.asp?RTN=2-0018228", "REGION": 2.0, "RTN": "2-0018228", "ADDRESS": "88 EAST MAIN ST"}},{"geometry": {"type": "Point", "coordinates": [-72.025422932398442, 42.068635559897132]}, "type": "Feature", "id": 149, "properties": {"TOWN": "SOUTHBRIDGE", "STATUS": "TIERII", "NAME": "RESIDENTIAL APARTMENT 3-DECKER", "SITE_INFO": "http://public.dep.state.ma.us/SearchableSites/Site_Info.asp?RTN=2-0018242", "REGION": 2.0, "RTN": "2-0018242", "ADDRESS": "161 MORRIS ST."}},{"geometry": {"type": "Point", "coordinates": [-72.099877227088783, 42.249702583527437]}, "type": "Feature", "id": 150, "properties": {"TOWN": "NORTH BROOKFIELD", "STATUS": "TIERII", "NAME": "UST REMOVAL", "SITE_INFO": "http://public.dep.state.ma.us/SearchableSites/Site_Info.asp?RTN=2-0018244", "REGION": 2.0, "RTN": "2-0018244", "ADDRESS": "10 CIDER MILL ROAD"}},{"geometry": {"type": "Point", "coordinates": [-71.840646371254252, 42.214225283819054]}, "type": "Feature", "id": 151, "properties": {"TOWN": "AUBURN", "STATUS": "TIERII", "NAME": "RESIDENTIAL FUEL OIL RELEASE", "SITE_INFO": "http://public.dep.state.ma.us/SearchableSites/Site_Info.asp?RTN=2-0018259", "REGION": 2.0, "RTN": "2-0018259", "ADDRESS": "8 RENAUD"}},{"geometry": {"type": "Point", "coordinates": [-71.451131262934197, 42.475944760970286]}, "type": "Feature", "id": 152, "properties": {"TOWN": "ACTON", "STATUS": "TIERII", "NAME": "DUDS CLEANERS", "SITE_INFO": "http://public.dep.state.ma.us/SearchableSites/Site_Info.asp?RTN=2-0018260", "REGION": 2.0, "RTN": "2-0018260", "ADDRESS": "295 MAIN ST"}},{"geometry": {"type": "Point", "coordinates": [-72.042996095936758, 42.559292148083962]}, "type": "Feature", "id": 153, "properties": {"TOWN": "TEMPLETON", "STATUS": "TIER1C", "NAME": "GASOLINE RELEASE", "SITE_INFO": "http://public.dep.state.ma.us/SearchableSites/Site_Info.asp?RTN=2-0018266", "REGION": 2.0, "RTN": "2-0018266", "ADDRESS": "198 PATRIOTS ROAD"}},{"geometry": {"type": "Point", "coordinates": [-71.799370833115049, 42.27002282328629]}, "type": "Feature", "id": 154, "properties": {"TOWN": "WORCESTER", "STATUS": "TIERII", "NAME": "MAIN/BELMONT/SCHOOL STREETS", "SITE_INFO": "http://public.dep.state.ma.us/SearchableSites/Site_Info.asp?RTN=2-0018323", "REGION": 2.0, "RTN": "2-0018323", "ADDRESS": "TEN LINCOLN SQUARE"}},{"geometry": {"type": "Point", "coordinates": [-72.067107861603517, 42.091788144431426]}, "type": "Feature", "id": 155, "properties": {"TOWN": "STURBRIDGE", "STATUS": "TIERII", "NAME": "STURBRIDGE XTRAMART", "SITE_INFO": "http://public.dep.state.ma.us/SearchableSites/Site_Info.asp?RTN=2-0018325", "REGION": 2.0, "RTN": "2-0018325", "ADDRESS": "122-130 MAIN STREET"}},{"geometry": {"type": "Point", "coordinates": [-71.742032527833089, 42.184926231821308]}, "type": "Feature", "id": 156, "properties": {"TOWN": "MILLBURY", "STATUS": "TIERII", "NAME": "BARRDAY/LEWCOTT", "SITE_INFO": "http://public.dep.state.ma.us/SearchableSites/Site_Info.asp?RTN=2-0018327", "REGION": 2.0, "RTN": "2-0018327", "ADDRESS": "86 PROVIDENCE ST"}},{"geometry": {"type": "Point", "coordinates": [-71.857420048048539, 42.183804208663602]}, "type": "Feature", "id": 157, "properties": {"TOWN": "AUBURN", "STATUS": "TIER1D", "NAME": "BENJAMIN MOORE/ECONOMY PAINT", "SITE_INFO": "http://public.dep.state.ma.us/SearchableSites/Site_Info.asp?RTN=2-0018330", "REGION": 2.0, "RTN": "2-0018330", "ADDRESS": "689 SOUTHBRIDGE STREET"}},{"geometry": {"type": "Point", "coordinates": [-71.430144986676098, 42.199595118342927]}, "type": "Feature", "id": 158, "properties": {"TOWN": "HOLLISTON", "STATUS": "TIERII", "NAME": "CUMBERLAND FARMS STATION", "SITE_INFO": "http://public.dep.state.ma.us/SearchableSites/Site_Info.asp?RTN=2-0018332", "REGION": 2.0, "RTN": "2-0018332", "ADDRESS": "799 WASHINGTON ST"}},{"geometry": {"type": "Point", "coordinates": [-71.803253312545294, 42.584932207724883]}, "type": "Feature", "id": 159, "properties": {"TOWN": "FITCHBURG", "STATUS": "TIER1D", "NAME": "UST RELEASE", "SITE_INFO": "http://public.dep.state.ma.us/SearchableSites/Site_Info.asp?RTN=2-0018346", "REGION": 2.0, "RTN": "2-0018346", "ADDRESS": "15 CENTRAL STREET"}},{"geometry": {"type": "Point", "coordinates": [-71.477716578290071, 42.222455601680899]}, "type": "Feature", "id": 160, "properties": {"TOWN": "HOPKINTON", "STATUS": "TIER1C", "NAME": "DIESEL FUEL RELEASE", "SITE_INFO": "http://public.dep.state.ma.us/SearchableSites/Site_Info.asp?RTN=2-0018347", "REGION": 2.0, "RTN": "2-0018347", "ADDRESS": "37 EAST STREET"}},{"geometry": {"type": "Point", "coordinates": [-70.749115659407821, 42.177897831976757]}, "type": "Feature", "id": 161, "properties": {"TOWN": "SCITUATE", "STATUS": "TIERII", "NAME": "NO LOCATION AID", "SITE_INFO": "http://public.dep.state.ma.us/SearchableSites/Site_Info.asp?RTN=4-0010940", "REGION": 4.0, "RTN": "4-0010940", "ADDRESS": "20 COUNTRY WAY"}},{"geometry": {"type": "Point", "coordinates": [-71.140773494870743, 41.763791215397681]}, "type": "Feature", "id": 162, "properties": {"TOWN": "SOMERSET", "STATUS": "TIERII", "NAME": "NO LOCATION AID", "SITE_INFO": "http://public.dep.state.ma.us/SearchableSites/Site_Info.asp?RTN=4-0010945", "REGION": 4.0, "RTN": "4-0010945", "ADDRESS": "COUNTY ST RTE 138"}},{"geometry": {"type": "Point", "coordinates": [-71.341227096473688, 41.82383264238446]}, "type": "Feature", "id": 163, "properties": {"TOWN": "SEEKONK", "STATUS": "TIER1D", "NAME": "NO LOCATION AID", "SITE_INFO": "http://public.dep.state.ma.us/SearchableSites/Site_Info.asp?RTN=4-0010985", "REGION": 4.0, "RTN": "4-0010985", "ADDRESS": "1894 FALL RIVER AVE"}},{"geometry": {"type": "Point", "coordinates": [-71.013674250845142, 42.075887512769121]}, "type": "Feature", "id": 164, "properties": {"TOWN": "BROCKTON", "STATUS": "TIER1C", "NAME": "RH AUSTIN CO", "SITE_INFO": "http://public.dep.state.ma.us/SearchableSites/Site_Info.asp?RTN=4-0011001", "REGION": 4.0, "RTN": "4-0011001", "ADDRESS": "60 SOUTH SKINNER ST"}},{"geometry": {"type": "Point", "coordinates": [-71.091263083052823, 41.919484596315776]}, "type": "Feature", "id": 165, "properties": {"TOWN": "TAUNTON", "STATUS": "TIERII", "NAME": "POPS SERVICE STATION", "SITE_INFO": "http://public.dep.state.ma.us/SearchableSites/Site_Info.asp?RTN=4-0011168", "REGION": 4.0, "RTN": "4-0011168", "ADDRESS": "212 BROADWAY ST"}},{"geometry": {"type": "Point", "coordinates": [-70.951919409418039, 41.98857076758329]}, "type": "Feature", "id": 166, "properties": {"TOWN": "BRIDGEWATER", "STATUS": "TIERII", "NAME": "WOODS AUTO PARTS", "SITE_INFO": "http://public.dep.state.ma.us/SearchableSites/Site_Info.asp?RTN=4-0011208", "REGION": 4.0, "RTN": "4-0011208", "ADDRESS": "95 WATER ST"}},{"geometry": {"type": "Point", "coordinates": [-70.834857495913226, 41.915206354544772]}, "type": "Feature", "id": 167, "properties": {"TOWN": "MIDDLEBOROUGH", "STATUS": "TIERII", "NAME": "NO LOCATION AID", "SITE_INFO": "http://public.dep.state.ma.us/SearchableSites/Site_Info.asp?RTN=4-0011235", "REGION": 4.0, "RTN": "4-0011235", "ADDRESS": "841 PLYMOUTH ST"}},{"geometry": {"type": "Point", "coordinates": [-71.10654831144285, 41.909471628761857]}, "type": "Feature", "id": 168, "properties": {"TOWN": "TAUNTON", "STATUS": "TIERII", "NAME": "NO LOCATION AID", "SITE_INFO": "http://public.dep.state.ma.us/SearchableSites/Site_Info.asp?RTN=4-0011241", "REGION": 4.0, "RTN": "4-0011241", "ADDRESS": "DANA AND DANFORTH ST"}},{"geometry": {"type": "Point", "coordinates": [-71.188994436510711, 41.684087170454951]}, "type": "Feature", "id": 169, "properties": {"TOWN": "FALL RIVER", "STATUS": "TIERII", "NAME": "GOLD MEDAL BAKER", "SITE_INFO": "http://public.dep.state.ma.us/SearchableSites/Site_Info.asp?RTN=4-0011245", "REGION": 4.0, "RTN": "4-0011245", "ADDRESS": "1397 BAY ST"}},{"geometry": {"type": "Point", "coordinates": [-71.081479703807432, 41.854736032676115]}, "type": "Feature", "id": 170, "properties": {"TOWN": "BERKLEY", "STATUS": "TIERII", "NAME": "BOGS LANDING", "SITE_INFO": "http://public.dep.state.ma.us/SearchableSites/Site_Info.asp?RTN=4-0011247", "REGION": 4.0, "RTN": "4-0011247", "ADDRESS": "OFF NORTH MAIN ST"}},{"geometry": {"type": "Point", "coordinates": [-70.763980975109959, 41.695865907427816]}, "type": "Feature", "id": 171, "properties": {"TOWN": "MARION", "STATUS": "TIER1D", "NAME": "NO LOCATION AID", "SITE_INFO": "http://public.dep.state.ma.us/SearchableSites/Site_Info.asp?RTN=4-0011255", "REGION": 4.0, "RTN": "4-0011255", "ADDRESS": "1 CRAPO ST"}},{"geometry": {"type": "Point", "coordinates": [-71.312482067955273, 41.904759665404505]}, "type": "Feature", "id": 172, "properties": {"TOWN": "ATTLEBORO", "STATUS": "TIER1C", "NAME": "TEKNOR APEX", "SITE_INFO": "http://public.dep.state.ma.us/SearchableSites/Site_Info.asp?RTN=4-0011347", "REGION": 4.0, "RTN": "4-0011347", "ADDRESS": "330 OAK HILL AVE"}},{"geometry": {"type": "Point", "coordinates": [-71.244030769420988, 42.085216649169908]}, "type": "Feature", "id": 173, "properties": {"TOWN": "FOXBOROUGH", "STATUS": "TIER1A", "NAME": "NEPONSET RESERVOIR", "SITE_INFO": "http://public.dep.state.ma.us/SearchableSites/Site_Info.asp?RTN=4-0011387", "REGION": 4.0, "RTN": "4-0011387", "ADDRESS": "NEPONSET RESERVOIR"}},{"geometry": {"type": "Point", "coordinates": [-71.328668172335185, 41.826940359425556]}, "type": "Feature", "id": 174, "properties": {"TOWN": "SEEKONK", "STATUS": "TIERII", "NAME": "SHELL STATION #137841", "SITE_INFO": "http://public.dep.state.ma.us/SearchableSites/Site_Info.asp?RTN=4-0011492", "REGION": 4.0, "RTN": "4-0011492", "ADDRESS": "430 TAUNTON AVE"}},{"geometry": {"type": "Point", "coordinates": [-70.968740099272878, 41.779203923527831]}, "type": "Feature", "id": 175, "properties": {"TOWN": "FREETOWN", "STATUS": "TIERII", "NAME": "LAIDLAW TRANS", "SITE_INFO": "http://public.dep.state.ma.us/SearchableSites/Site_Info.asp?RTN=4-0011513", "REGION": 4.0, "RTN": "4-0011513", "ADDRESS": "14 EAST HOWLAND DR"}},{"geometry": {"type": "Point", "coordinates": [-70.817312550665122, 42.057832281180623]}, "type": "Feature", "id": 176, "properties": {"TOWN": "PEMBROKE", "STATUS": "TIER1D", "NAME": "WRIGHT RESIDENCE", "SITE_INFO": "http://public.dep.state.ma.us/SearchableSites/Site_Info.asp?RTN=4-0011554", "REGION": 4.0, "RTN": "4-0011554", "ADDRESS": "38 LIANE LN"}},{"geometry": {"type": "Point", "coordinates": [-70.927578775747605, 41.66953185731689]}, "type": "Feature", "id": 177, "properties": {"TOWN": "NEW BEDFORD", "STATUS": "TIERII", "NAME": "HESS STATION 21516 FMR MERIT OIL", "SITE_INFO": "http://public.dep.state.ma.us/SearchableSites/Site_Info.asp?RTN=4-0011555", "REGION": 4.0, "RTN": "4-0011555", "ADDRESS": "1793 ACUSHNET AVE"}},{"geometry": {"type": "Point", "coordinates": [-70.925740564708136, 41.66052843379407]}, "type": "Feature", "id": 178, "properties": {"TOWN": "NEW BEDFORD", "STATUS": "TIER1D", "NAME": "CORNER OF N FRONT ST", "SITE_INFO": "http://public.dep.state.ma.us/SearchableSites/Site_Info.asp?RTN=4-0011580", "REGION": 4.0, "RTN": "4-0011580", "ADDRESS": "40 BULLARD ST"}},{"geometry": {"type": "Point", "coordinates": [-70.549430777689565, 41.400583699375474]}, "type": "Feature", "id": 179, "properties": {"TOWN": "EDGARTOWN", "STATUS": "TIERII", "NAME": "OCEAN HEIGHTS", "SITE_INFO": "http://public.dep.state.ma.us/SearchableSites/Site_Info.asp?RTN=4-0011610", "REGION": 4.0, "RTN": "4-0011610", "ADDRESS": "19TH ST VINEYARD HAVEN RD"}},{"geometry": {"type": "Point", "coordinates": [-70.557071683210211, 41.457882186182616]}, "type": "Feature", "id": 180, "properties": {"TOWN": "OAK BLUFFS", "STATUS": "TIER1B", "NAME": "DREAMLAND", "SITE_INFO": "http://public.dep.state.ma.us/SearchableSites/Site_Info.asp?RTN=4-0011659", "REGION": 4.0, "RTN": "4-0011659", "ADDRESS": "OAK BLUFFS AVE"}},{"geometry": {"type": "Point", "coordinates": [-70.558011609625439, 41.457602994784693]}, "type": "Feature", "id": 181, "properties": {"TOWN": "OAK BLUFFS", "STATUS": "TIER1B", "NAME": "BEN DAVID MOTORS", "SITE_INFO": "http://public.dep.state.ma.us/SearchableSites/Site_Info.asp?RTN=4-0011660", "REGION": 4.0, "RTN": "4-0011660", "ADDRESS": "LAKE AVE"}},{"geometry": {"type": "Point", "coordinates": [-70.570018977164125, 41.924547412213464]}, "type": "Feature", "id": 182, "properties": {"TOWN": "PLYMOUTH", "STATUS": "TIERII", "NAME": "GELLARS INC", "SITE_INFO": "http://public.dep.state.ma.us/SearchableSites/Site_Info.asp?RTN=4-0011713", "REGION": 4.0, "RTN": "4-0011713", "ADDRESS": "506 STATE RD"}},{"geometry": {"type": "Point", "coordinates": [-70.072364819872291, 41.691056200358474]}, "type": "Feature", "id": 183, "properties": {"TOWN": "HARWICH", "STATUS": "TIERII", "NAME": "CANTO RESIDENCE", "SITE_INFO": "http://public.dep.state.ma.us/SearchableSites/Site_Info.asp?RTN=4-0011728", "REGION": 4.0, "RTN": "4-0011728", "ADDRESS": "21 PLEASANT PARK RD"}},{"geometry": {"type": "Point", "coordinates": [-71.028568278993831, 42.114064398665896]}, "type": "Feature", "id": 184, "properties": {"TOWN": "BROCKTON", "STATUS": "TIER1C", "NAME": "ALS MOTOR SALES", "SITE_INFO": "http://public.dep.state.ma.us/SearchableSites/Site_Info.asp?RTN=4-0011748", "REGION": 4.0, "RTN": "4-0011748", "ADDRESS": "1126 NORTH MONTELLO ST"}},{"geometry": {"type": "Point", "coordinates": [-71.095087987672997, 42.094032123862462]}, "type": "Feature", "id": 185, "properties": {"TOWN": "STOUGHTON", "STATUS": "TIERII", "NAME": "NO LOCATION AID", "SITE_INFO": "http://public.dep.state.ma.us/SearchableSites/Site_Info.asp?RTN=4-0011898", "REGION": 4.0, "RTN": "4-0011898", "ADDRESS": "1873 WASHINGTON ST"}},{"geometry": {"type": "Point", "coordinates": [-70.46348289758312, 41.631935262418089]}, "type": "Feature", "id": 186, "properties": {"TOWN": "MASHPEE", "STATUS": "TIERII", "NAME": "AUGAT INC", "SITE_INFO": "http://public.dep.state.ma.us/SearchableSites/Site_Info.asp?RTN=4-0011904", "REGION": 4.0, "RTN": "4-0011904", "ADDRESS": "106 FALMOUTH RD"}},{"geometry": {"type": "Point", "coordinates": [-70.575395699627464, 41.437982857343378]}, "type": "Feature", "id": 187, "properties": {"TOWN": "OAK BLUFFS", "STATUS": "TIERII", "NAME": "JWL TRANSPORT/MV AUTO SALVAGE", "SITE_INFO": "http://public.dep.state.ma.us/SearchableSites/Site_Info.asp?RTN=4-0011917", "REGION": 4.0, "RTN": "4-0011917", "ADDRESS": "COUNTY RD"}},{"geometry": {"type": "Point", "coordinates": [-70.932313780853846, 41.60801627598179]}, "type": "Feature", "id": 188, "properties": {"TOWN": "DARTMOUTH", "STATUS": "TIERII", "NAME": "ST JOHN AND ROGERS ST", "SITE_INFO": "http://public.dep.state.ma.us/SearchableSites/Site_Info.asp?RTN=4-0011962", "REGION": 4.0, "RTN": "4-0011962", "ADDRESS": "ROGERS ST"}},{"geometry": {"type": "Point", "coordinates": [-70.093066031329158, 41.754805865231774]}, "type": "Feature", "id": 189, "properties": {"TOWN": "BREWSTER", "STATUS": "TIER1D", "NAME": "RESIDENCE", "SITE_INFO": "http://public.dep.state.ma.us/SearchableSites/Site_Info.asp?RTN=4-0012034", "REGION": 4.0, "RTN": "4-0012034", "ADDRESS": "1574 MAIN ST RTE 6A"}},{"geometry": {"type": "Point", "coordinates": [-71.09086607748614, 41.546977263940917]}, "type": "Feature", "id": 190, "properties": {"TOWN": "WESTPORT", "STATUS": "TIER1D", "NAME": "NONE", "SITE_INFO": "http://public.dep.state.ma.us/SearchableSites/Site_Info.asp?RTN=4-0012042", "REGION": 4.0, "RTN": "4-0012042", "ADDRESS": "1435 MAIN ST"}},{"geometry": {"type": "Point", "coordinates": [-70.65737527832475, 41.757604318598069]}, "type": "Feature", "id": 191, "properties": {"TOWN": "WAREHAM", "STATUS": "TIER1D", "NAME": "HUDSON TRAILER PK", "SITE_INFO": "http://public.dep.state.ma.us/SearchableSites/Site_Info.asp?RTN=4-0012170", "REGION": 4.0, "RTN": "4-0012170", "ADDRESS": "3036 CRANBERRY HWY"}},{"geometry": {"type": "Point", "coordinates": [-71.218281582976886, 42.053601086534684]}, "type": "Feature", "id": 192, "properties": {"TOWN": "FOXBOROUGH", "STATUS": "TIER1A", "NAME": "NO LOCATION AID", "SITE_INFO": "http://public.dep.state.ma.us/SearchableSites/Site_Info.asp?RTN=4-0012178", "REGION": 4.0, "RTN": "4-0012178", "ADDRESS": "COCASSET ST"}},{"geometry": {"type": "Point", "coordinates": [-70.974337328401674, 41.974157865087371]}, "type": "Feature", "id": 193, "properties": {"TOWN": "BRIDGEWATER", "STATUS": "TIER1D", "NAME": "BIX FURNITURE", "SITE_INFO": "http://public.dep.state.ma.us/SearchableSites/Site_Info.asp?RTN=4-0012347", "REGION": 4.0, "RTN": "4-0012347", "ADDRESS": "552 BEDFORD ST"}},{"geometry": {"type": "Point", "coordinates": [-71.378282989554464, 41.899055364787785]}, "type": "Feature", "id": 194, "properties": {"TOWN": "ATTLEBORO", "STATUS": "TIER1D", "NAME": "NO LOCATION AID", "SITE_INFO": "http://public.dep.state.ma.us/SearchableSites/Site_Info.asp?RTN=4-0012362", "REGION": 4.0, "RTN": "4-0012362", "ADDRESS": "24 WEST CARPENTER ST"}},{"geometry": {"type": "Point", "coordinates": [-71.312357664975636, 41.9039218262836]}, "type": "Feature", "id": 195, "properties": {"TOWN": "ATTLEBORO", "STATUS": "TIER1C", "NAME": "NO LOCATION AID", "SITE_INFO": "http://public.dep.state.ma.us/SearchableSites/Site_Info.asp?RTN=4-0012375", "REGION": 4.0, "RTN": "4-0012375", "ADDRESS": "330 OAK HILL AVE"}},{"geometry": {"type": "Point", "coordinates": [-71.006617005241552, 42.418994127235933]}, "type": "Feature", "id": 196, "properties": {"TOWN": "REVERE", "STATUS": "TIERII", "NAME": "AMOCO STATION FMR", "SITE_INFO": "http://public.dep.state.ma.us/SearchableSites/Site_Info.asp?RTN=3-0003318", "REGION": 3.0, "RTN": "3-0003318", "ADDRESS": "870 BROADWAY"}},{"geometry": {"type": "Point", "coordinates": [-71.363431713914437, 42.363366879006172]}, "type": "Feature", "id": 197, "properties": {"TOWN": "WAYLAND", "STATUS": "TIER1C", "NAME": "SHEPARDS MOBIL STATION", "SITE_INFO": "http://public.dep.state.ma.us/SearchableSites/Site_Info.asp?RTN=3-0003325", "REGION": 3.0, "RTN": "3-0003325", "ADDRESS": "268 BOSTON POST RD"}},{"geometry": {"type": "Point", "coordinates": [-70.873763560122825, 42.84263490138752]}, "type": "Feature", "id": 198, "properties": {"TOWN": "SALISBURY", "STATUS": "TIER1D", "NAME": "COMMERCIAL PROPERTY", "SITE_INFO": "http://public.dep.state.ma.us/SearchableSites/Site_Info.asp?RTN=3-0003359", "REGION": 3.0, "RTN": "3-0003359", "ADDRESS": "70 ELM ST"}},{"geometry": {"type": "Point", "coordinates": [-71.048878319274365, 42.378654213057011]}, "type": "Feature", "id": 199, "properties": {"TOWN": "BOSTON", "STATUS": "TIER1D", "NAME": "NAVAL SHIPYARD PRCLS 567", "SITE_INFO": "http://public.dep.state.ma.us/SearchableSites/Site_Info.asp?RTN=3-0003372", "REGION": 3.0, "RTN": "3-0003372", "ADDRESS": "CHELSEA ST"}},{"geometry": {"type": "Point", "coordinates": [-70.882110235763562, 42.70819347390551]}, "type": "Feature", "id": 200, "properties": {"TOWN": "ROWLEY", "STATUS": "TIERII", "NAME": "KNOWLES MOBIL", "SITE_INFO": "http://public.dep.state.ma.us/SearchableSites/Site_Info.asp?RTN=3-0003412", "REGION": 3.0, "RTN": "3-0003412", "ADDRESS": "MAIN ST HAVERHILL ST"}},{"geometry": {"type": "Point", "coordinates": [-71.320020908914259, 42.333553927831083]}, "type": "Feature", "id": 201, "properties": {"TOWN": "WESTON", "STATUS": "TIERII", "NAME": "MTA MAINTENANCE FACILITY", "SITE_INFO": "http://public.dep.state.ma.us/SearchableSites/Site_Info.asp?RTN=3-0003473", "REGION": 3.0, "RTN": "3-0003473", "ADDRESS": "668 SOUTH AVE"}},{"geometry": {"type": "Point", "coordinates": [-70.959273012476189, 42.456890885122242]}, "type": "Feature", "id": 202, "properties": {"TOWN": "LYNN", "STATUS": "TIERII", "NAME": "CEFALO INC", "SITE_INFO": "http://public.dep.state.ma.us/SearchableSites/Site_Info.asp?RTN=3-0003505", "REGION": 3.0, "RTN": "3-0003505", "ADDRESS": "159 COMMERCIAL ST"}},{"geometry": {"type": "Point", "coordinates": [-71.118249812897901, 42.287052419315927]}, "type": "Feature", "id": 203, "properties": {"TOWN": "BOSTON", "STATUS": "TIERII", "NAME": "JOES SUNOCO STATION", "SITE_INFO": "http://public.dep.state.ma.us/SearchableSites/Site_Info.asp?RTN=3-0003511", "REGION": 3.0, "RTN": "3-0003511", "ADDRESS": "398 HYDE PARK AVE"}},{"geometry": {"type": "Point", "coordinates": [-71.168375850894591, 42.542434291732015]}, "type": "Feature", "id": 204, "properties": {"TOWN": "WILMINGTON", "STATUS": "TIER1C", "NAME": "WILMINGTON PETROL FORMER SUNOCO STA", "SITE_INFO": "http://public.dep.state.ma.us/SearchableSites/Site_Info.asp?RTN=3-0003548", "REGION": 3.0, "RTN": "3-0003548", "ADDRESS": "603 MAIN ST"}},{"geometry": {"type": "Point", "coordinates": [-71.180189083204965, 42.690929155032975]}, "type": "Feature", "id": 205, "properties": {"TOWN": "LAWRENCE", "STATUS": "TIERII", "NAME": "MERRIMACK RIVERFRONT PARK", "SITE_INFO": "http://public.dep.state.ma.us/SearchableSites/Site_Info.asp?RTN=3-0003568", "REGION": 3.0, "RTN": "3-0003568", "ADDRESS": "NORTH OF ANDOVER AND EVERETT"}},{"geometry": {"type": "Point", "coordinates": [-71.099596839487987, 42.322181035293426]}, "type": "Feature", "id": 206, "properties": {"TOWN": "BOSTON", "STATUS": "TIERII", "NAME": "JACKSON SQ PARCELS 69 70 AND 71", "SITE_INFO": "http://public.dep.state.ma.us/SearchableSites/Site_Info.asp?RTN=3-0003573", "REGION": 3.0, "RTN": "3-0003573", "ADDRESS": "AMORY ST"}},{"geometry": {"type": "Point", "coordinates": [-71.180690568230887, 42.383299885590034]}, "type": "Feature", "id": 207, "properties": {"TOWN": "BELMONT", "STATUS": "TIERII", "NAME": "BELMONT VOLKSWAGON", "SITE_INFO": "http://public.dep.state.ma.us/SearchableSites/Site_Info.asp?RTN=3-0003686", "REGION": 3.0, "RTN": "3-0003686", "ADDRESS": "263 270 TRAPELO RD"}},{"geometry": {"type": "Point", "coordinates": [-71.049023908695261, 42.322506901763632]}, "type": "Feature", "id": 208, "properties": {"TOWN": "BOSTON", "STATUS": "TIERII", "NAME": "OLD COLONY POLICE STATION", "SITE_INFO": "http://public.dep.state.ma.us/SearchableSites/Site_Info.asp?RTN=3-0003697", "REGION": 3.0, "RTN": "3-0003697", "ADDRESS": "DAY BLVD"}},{"geometry": {"type": "Point", "coordinates": [-71.057119944873051, 42.30740660766471]}, "type": "Feature", "id": 209, "properties": {"TOWN": "BOSTON", "STATUS": "TIER1D", "NAME": "MANUFACTURING GAS PLANT FMR", "SITE_INFO": "http://public.dep.state.ma.us/SearchableSites/Site_Info.asp?RTN=3-0003773", "REGION": 3.0, "RTN": "3-0003773", "ADDRESS": "FREEPORT ST"}},{"geometry": {"type": "Point", "coordinates": [-71.072058852310505, 42.331975498984697]}, "type": "Feature", "id": 210, "properties": {"TOWN": "BOSTON", "STATUS": "TIER1D", "NAME": "MANUFACTURING GAS PLANT FMR", "SITE_INFO": "http://public.dep.state.ma.us/SearchableSites/Site_Info.asp?RTN=3-0003774", "REGION": 3.0, "RTN": "3-0003774", "ADDRESS": "GERARD SOUTHAMPTON"}},{"geometry": {"type": "Point", "coordinates": [-71.394235259513565, 42.281864908924284]}, "type": "Feature", "id": 211, "properties": {"TOWN": "NATICK", "STATUS": "TIER1D", "NAME": "PARCEL", "SITE_INFO": "http://public.dep.state.ma.us/SearchableSites/Site_Info.asp?RTN=3-0003858", "REGION": 3.0, "RTN": "3-0003858", "ADDRESS": "307 WEST CENTRAL ST"}},{"geometry": {"type": "Point", "coordinates": [-71.278114842054194, 42.46191086354785]}, "type": "Feature", "id": 212, "properties": {"TOWN": "BEDFORD", "STATUS": "TIERII", "NAME": "IRP SITE 22 AAFES SERVICE STA", "SITE_INFO": "http://public.dep.state.ma.us/SearchableSites/Site_Info.asp?RTN=3-0003882", "REGION": 3.0, "RTN": "3-0003882", "ADDRESS": "BLDG 1639 BARKSDALE ST HANSCOM AFB"}},{"geometry": {"type": "Point", "coordinates": [-71.180165674677411, 42.597628438256592]}, "type": "Feature", "id": 213, "properties": {"TOWN": "TEWKSBURY", "STATUS": "TIER1D", "NAME": "LOAM OPERATION", "SITE_INFO": "http://public.dep.state.ma.us/SearchableSites/Site_Info.asp?RTN=3-0003971", "REGION": 3.0, "RTN": "3-0003971", "ADDRESS": "1069 SOUTH ST"}},{"geometry": {"type": "Point", "coordinates": [-71.171948074802046, 42.421288323726358]}, "type": "Feature", "id": 214, "properties": {"TOWN": "ARLINGTON", "STATUS": "TIERII", "NAME": "DRY CLEANERS", "SITE_INFO": "http://public.dep.state.ma.us/SearchableSites/Site_Info.asp?RTN=3-0003999", "REGION": 3.0, "RTN": "3-0003999", "ADDRESS": "1092 MASSACHUSETTS AVE"}},{"geometry": {"type": "Point", "coordinates": [-71.214562858555567, 42.307819455730289]}, "type": "Feature", "id": 215, "properties": {"TOWN": "NEWTON", "STATUS": "TIERII", "NAME": "REGALITE PLASTICS CORPORATION", "SITE_INFO": "http://public.dep.state.ma.us/SearchableSites/Site_Info.asp?RTN=3-0004014", "REGION": 3.0, "RTN": "3-0004014", "ADDRESS": "300 NEEDHAM ST"}},{"geometry": {"type": "Point", "coordinates": [-71.184670091777505, 42.565013001812382]}, "type": "Feature", "id": 216, "properties": {"TOWN": "WILMINGTON", "STATUS": "TIER1D", "NAME": "GASOLINE STATION FMR", "SITE_INFO": "http://public.dep.state.ma.us/SearchableSites/Site_Info.asp?RTN=3-0004022", "REGION": 3.0, "RTN": "3-0004022", "ADDRESS": "103 MAIN ST"}},{"geometry": {"type": "Point", "coordinates": [-71.430255192275737, 42.274641122164169]}, "type": "Feature", "id": 217, "properties": {"TOWN": "FRAMINGHAM", "STATUS": "TIER1B", "NAME": "AT&T", "SITE_INFO": "http://public.dep.state.ma.us/SearchableSites/Site_Info.asp?RTN=3-0004045", "REGION": 3.0, "RTN": "3-0004045", "ADDRESS": "825 WAVERLY ST"}},{"geometry": {"type": "Point", "coordinates": [-71.077974124764481, 42.391638687465893]}, "type": "Feature", "id": 218, "properties": {"TOWN": "SOMERVILLE", "STATUS": "TIERII", "NAME": "B&M YARD 21", "SITE_INFO": "http://public.dep.state.ma.us/SearchableSites/Site_Info.asp?RTN=3-0004082", "REGION": 3.0, "RTN": "3-0004082", "ADDRESS": "FOLEY ST TENNEY CT"}},{"geometry": {"type": "Point", "coordinates": [-71.016662788043277, 42.421897386943911]}, "type": "Feature", "id": 219, "properties": {"TOWN": "REVERE", "STATUS": "TIERII", "NAME": "RELIABLE OIL CO FMR", "SITE_INFO": "http://public.dep.state.ma.us/SearchableSites/Site_Info.asp?RTN=3-0004099", "REGION": 3.0, "RTN": "3-0004099", "ADDRESS": "3 GORE RD"}},{"geometry": {"type": "Point", "coordinates": [-71.049040326791072, 42.50006127533927]}, "type": "Feature", "id": 220, "properties": {"TOWN": "WAKEFIELD", "STATUS": "TIERII", "NAME": "D&S SERVICE STATION", "SITE_INFO": "http://public.dep.state.ma.us/SearchableSites/Site_Info.asp?RTN=3-0004107", "REGION": 3.0, "RTN": "3-0004107", "ADDRESS": "454 WATER ST"}},{"geometry": {"type": "Point", "coordinates": [-71.084201695564516, 42.382382815470386]}, "type": "Feature", "id": 221, "properties": {"TOWN": "SOMERVILLE", "STATUS": "TIER1D", "NAME": "VACANT LOT", "SITE_INFO": "http://public.dep.state.ma.us/SearchableSites/Site_Info.asp?RTN=3-0004116", "REGION": 3.0, "RTN": "3-0004116", "ADDRESS": "24 MYRTLE ST"}},{"geometry": {"type": "Point", "coordinates": [-71.112641945127137, 42.3921550539525]}, "type": "Feature", "id": 222, "properties": {"TOWN": "SOMERVILLE", "STATUS": "TIER1D", "NAME": "GASOLINE STATION FMR", "SITE_INFO": "http://public.dep.state.ma.us/SearchableSites/Site_Info.asp?RTN=3-0004124", "REGION": 3.0, "RTN": "3-0004124", "ADDRESS": "290 HIGHLAND AVE"}},{"geometry": {"type": "Point", "coordinates": [-71.222967256308479, 42.305015353974952]}, "type": "Feature", "id": 223, "properties": {"TOWN": "NEEDHAM", "STATUS": "TIERII", "NAME": "AUTO REPAIR SHOP FMR", "SITE_INFO": "http://public.dep.state.ma.us/SearchableSites/Site_Info.asp?RTN=3-0004213", "REGION": 3.0, "RTN": "3-0004213", "ADDRESS": "52 WEXFORD ST"}},{"geometry": {"type": "Point", "coordinates": [-71.153041361824876, 42.287018160176117]}, "type": "Feature", "id": 224, "properties": {"TOWN": "BOSTON", "STATUS": "TIERII", "NAME": "WEST ROXBURY FUEL SERVICE", "SITE_INFO": "http://public.dep.state.ma.us/SearchableSites/Site_Info.asp?RTN=3-0004311", "REGION": 3.0, "RTN": "3-0004311", "ADDRESS": "1816 CENTER ST"}},{"geometry": {"type": "Point", "coordinates": [-71.312358950268703, 41.903919186787412]}, "type": "Feature", "id": 225, "properties": {"TOWN": "ATTLEBORO", "STATUS": "TIER1C", "NAME": "41-54-15 LAT,71-18-48 LON", "SITE_INFO": "http://public.dep.state.ma.us/SearchableSites/Site_Info.asp?RTN=4-0012377", "REGION": 4.0, "RTN": "4-0012377", "ADDRESS": "OAK HILL AVE"}},{"geometry": {"type": "Point", "coordinates": [-70.183668038903974, 41.69080779316235]}, "type": "Feature", "id": 226, "properties": {"TOWN": "YARMOUTH", "STATUS": "TIER1C", "NAME": "ANGELL PROPERTY", "SITE_INFO": "http://public.dep.state.ma.us/SearchableSites/Site_Info.asp?RTN=4-0012473", "REGION": 4.0, "RTN": "4-0012473", "ADDRESS": "389 WHITES PATH"}},{"geometry": {"type": "Point", "coordinates": [-71.066403321628854, 42.059254338888351]}, "type": "Feature", "id": 227, "properties": {"TOWN": "BROCKTON", "STATUS": "TIER1C", "NAME": "CHARTER GIBBS", "SITE_INFO": "http://public.dep.state.ma.us/SearchableSites/Site_Info.asp?RTN=4-0012485", "REGION": 4.0, "RTN": "4-0012485", "ADDRESS": "1234 BELMONT ST"}},{"geometry": {"type": "Point", "coordinates": [-70.600768112834757, 41.454034205841417]}, "type": "Feature", "id": 228, "properties": {"TOWN": "TISBURY", "STATUS": "TIERII", "NAME": "HARNESS SHOP SQUARE", "SITE_INFO": "http://public.dep.state.ma.us/SearchableSites/Site_Info.asp?RTN=4-0012524", "REGION": 4.0, "RTN": "4-0012524", "ADDRESS": "23 BEACH STREET EXT"}},{"geometry": {"type": "Point", "coordinates": [-71.147802855822519, 41.682711686305403]}, "type": "Feature", "id": 229, "properties": {"TOWN": "FALL RIVER", "STATUS": "TIERII", "NAME": "SRTA", "SITE_INFO": "http://public.dep.state.ma.us/SearchableSites/Site_Info.asp?RTN=4-0012558", "REGION": 4.0, "RTN": "4-0012558", "ADDRESS": "601 BRAYTON AVE"}},{"geometry": {"type": "Point", "coordinates": [-70.701985625359214, 41.987946871075401]}, "type": "Feature", "id": 230, "properties": {"TOWN": "KINGSTON", "STATUS": "TIER1D", "NAME": "RESIDENCE", "SITE_INFO": "http://public.dep.state.ma.us/SearchableSites/Site_Info.asp?RTN=4-0012709", "REGION": 4.0, "RTN": "4-0012709", "ADDRESS": "20 HOWLAND LN"}},{"geometry": {"type": "Point", "coordinates": [-71.299525499216173, 41.958256520199463]}, "type": "Feature", "id": 231, "properties": {"TOWN": "ATTLEBORO", "STATUS": "TIER1C", "NAME": "KILMARTIN INDUSTRIES", "SITE_INFO": "http://public.dep.state.ma.us/SearchableSites/Site_Info.asp?RTN=4-0012739", "REGION": 4.0, "RTN": "4-0012739", "ADDRESS": "79 WALTON ST"}},{"geometry": {"type": "Point", "coordinates": [-70.908338932708517, 42.134586297552602]}, "type": "Feature", "id": 232, "properties": {"TOWN": "ROCKLAND", "STATUS": "TIERII", "NAME": "LANNIN BROS INC CHRYSLER-PLYMOUTH", "SITE_INFO": "http://public.dep.state.ma.us/SearchableSites/Site_Info.asp?RTN=4-0012742", "REGION": 4.0, "RTN": "4-0012742", "ADDRESS": "222 WEBSTER ST"}},{"geometry": {"type": "Point", "coordinates": [-71.312516363141668, 41.904277775861992]}, "type": "Feature", "id": 233, "properties": {"TOWN": "ATTLEBORO", "STATUS": "TIER1C", "NAME": "TANK FARM NUMBER 1", "SITE_INFO": "http://public.dep.state.ma.us/SearchableSites/Site_Info.asp?RTN=4-0012860", "REGION": 4.0, "RTN": "4-0012860", "ADDRESS": "330 OAK HILL AVE"}},{"geometry": {"type": "Point", "coordinates": [-71.206843199570471, 41.939595367883548]}, "type": "Feature", "id": 234, "properties": {"TOWN": "NORTON", "STATUS": "TIER1D", "NAME": "DEMPSEY RESIDENCE", "SITE_INFO": "http://public.dep.state.ma.us/SearchableSites/Site_Info.asp?RTN=4-0012894", "REGION": 4.0, "RTN": "4-0012894", "ADDRESS": "27 HARVEY ST"}},{"geometry": {"type": "Point", "coordinates": [-71.101874207926244, 42.123147827980503]}, "type": "Feature", "id": 235, "properties": {"TOWN": "STOUGHTON", "STATUS": "TIERII", "NAME": "GETTY SERVICE STATION", "SITE_INFO": "http://public.dep.state.ma.us/SearchableSites/Site_Info.asp?RTN=4-0012937", "REGION": 4.0, "RTN": "4-0012937", "ADDRESS": "825 WASHINGTON ST"}},{"geometry": {"type": "Point", "coordinates": [-70.96278077294609, 42.030778381799657]}, "type": "Feature", "id": 236, "properties": {"TOWN": "EAST BRIDGEWATER", "STATUS": "TIER1D", "NAME": "EASTERN STATES STEEL", "SITE_INFO": "http://public.dep.state.ma.us/SearchableSites/Site_Info.asp?RTN=4-0012940", "REGION": 4.0, "RTN": "4-0012940", "ADDRESS": "36 COOK ST"}},{"geometry": {"type": "Point", "coordinates": [-70.569108094725607, 41.805610388688642]}, "type": "Feature", "id": 237, "properties": {"TOWN": "PLYMOUTH", "STATUS": "TIER1D", "NAME": "NO LOCATION AID", "SITE_INFO": "http://public.dep.state.ma.us/SearchableSites/Site_Info.asp?RTN=4-0012998", "REGION": 4.0, "RTN": "4-0012998", "ADDRESS": "23 WOMPONOAG RD"}},{"geometry": {"type": "Point", "coordinates": [-70.065543817315941, 41.683288206626486]}, "type": "Feature", "id": 238, "properties": {"TOWN": "HARWICH", "STATUS": "TIER1D", "NAME": "NO LOCATION AID", "SITE_INFO": "http://public.dep.state.ma.us/SearchableSites/Site_Info.asp?RTN=4-0013026", "REGION": 4.0, "RTN": "4-0013026", "ADDRESS": "11 CRANBERRY LN"}},{"geometry": {"type": "Point", "coordinates": [-70.96278077294609, 42.030778381799657]}, "type": "Feature", "id": 239, "properties": {"TOWN": "EAST BRIDGEWATER", "STATUS": "TIER1D", "NAME": "EASTERN STATES STEEL", "SITE_INFO": "http://public.dep.state.ma.us/SearchableSites/Site_Info.asp?RTN=4-0013087", "REGION": 4.0, "RTN": "4-0013087", "ADDRESS": "COOK ST"}},{"geometry": {"type": "Point", "coordinates": [-71.311522360205956, 41.968542483244732]}, "type": "Feature", "id": 240, "properties": {"TOWN": "NORTH ATTLEBOROUGH", "STATUS": "TIERII", "NAME": "NO LOCATION AID", "SITE_INFO": "http://public.dep.state.ma.us/SearchableSites/Site_Info.asp?RTN=4-0013291", "REGION": 4.0, "RTN": "4-0013291", "ADDRESS": "35 ROBINSON ST"}},{"geometry": {"type": "Point", "coordinates": [-70.817748864969886, 42.113473493528986]}, "type": "Feature", "id": 241, "properties": {"TOWN": "HANOVER", "STATUS": "TIER1C", "NAME": "SUNOCO SERVICE STATION", "SITE_INFO": "http://public.dep.state.ma.us/SearchableSites/Site_Info.asp?RTN=4-0013293", "REGION": 4.0, "RTN": "4-0013293", "ADDRESS": "218 COLUMBIA"}},{"geometry": {"type": "Point", "coordinates": [-70.981729239839424, 42.089751586462469]}, "type": "Feature", "id": 242, "properties": {"TOWN": "BROCKTON", "STATUS": "TIER1D", "NAME": "NO LOCATION AID", "SITE_INFO": "http://public.dep.state.ma.us/SearchableSites/Site_Info.asp?RTN=4-0013364", "REGION": 4.0, "RTN": "4-0013364", "ADDRESS": "64 CRANE RD"}},{"geometry": {"type": "Point", "coordinates": [-71.317396750144908, 41.78677796339916]}, "type": "Feature", "id": 243, "properties": {"TOWN": "SEEKONK", "STATUS": "TIERII", "NAME": "CUMBERLAND FARMS 2157", "SITE_INFO": "http://public.dep.state.ma.us/SearchableSites/Site_Info.asp?RTN=4-0013374", "REGION": 4.0, "RTN": "4-0013374", "ADDRESS": "1455 FALL RIVER AVE"}},{"geometry": {"type": "Point", "coordinates": [-71.193738865282839, 42.498808629802951]}, "type": "Feature", "id": 244, "properties": {"TOWN": "BURLINGTON", "STATUS": "TIERII", "NAME": "R J KELLY", "SITE_INFO": "http://public.dep.state.ma.us/SearchableSites/Site_Info.asp?RTN=3-0000563", "REGION": 3.0, "RTN": "3-0000563", "ADDRESS": "116 CAMBRIDGE ST"}},{"geometry": {"type": "Point", "coordinates": [-70.921334433247083, 42.523831829144044]}, "type": "Feature", "id": 245, "properties": {"TOWN": "PEABODY", "STATUS": "TIER1B", "NAME": "PEABODY FIRE", "SITE_INFO": "http://public.dep.state.ma.us/SearchableSites/Site_Info.asp?RTN=3-0000577", "REGION": 3.0, "RTN": "3-0000577", "ADDRESS": "150 166 MAIN 21 CALLER 18 HOWLEY ST"}},{"geometry": {"type": "Point", "coordinates": [-71.049990067354273, 42.343015499750429]}, "type": "Feature", "id": 246, "properties": {"TOWN": "BOSTON", "STATUS": "TIER1A", "NAME": "FMR BOSTON JUNK", "SITE_INFO": "http://public.dep.state.ma.us/SearchableSites/Site_Info.asp?RTN=3-0000580", "REGION": 3.0, "RTN": "3-0000580", "ADDRESS": "14 LOUIS ST"}},{"geometry": {"type": "Point", "coordinates": [-71.296055967555503, 42.477669825607592]}, "type": "Feature", "id": 247, "properties": {"TOWN": "BEDFORD", "STATUS": "TIER1B", "NAME": "RAYTHEON MISSILE SYSTEMS", "SITE_INFO": "http://public.dep.state.ma.us/SearchableSites/Site_Info.asp?RTN=3-0000588", "REGION": 3.0, "RTN": "3-0000588", "ADDRESS": "180 HARTWELL RD"}},{"geometry": {"type": "Point", "coordinates": [-70.994260312261531, 42.250789459665981]}, "type": "Feature", "id": 248, "properties": {"TOWN": "QUINCY", "STATUS": "TIER1D", "NAME": "TOWN RIVER  BENT TERRACE", "SITE_INFO": "http://public.dep.state.ma.us/SearchableSites/Site_Info.asp?RTN=3-0000639", "REGION": 3.0, "RTN": "3-0000639", "ADDRESS": "BENT TER"}},{"geometry": {"type": "Point", "coordinates": [-71.085896949789358, 42.774138722496339]}, "type": "Feature", "id": 249, "properties": {"TOWN": "HAVERHILL", "STATUS": "TIERII", "NAME": "QUALITY TIRE SERVICE", "SITE_INFO": "http://public.dep.state.ma.us/SearchableSites/Site_Info.asp?RTN=3-0000642", "REGION": 3.0, "RTN": "3-0000642", "ADDRESS": "57 GRANITE ST"}},{"geometry": {"type": "Point", "coordinates": [-71.037260901617699, 42.283646906564407]}, "type": "Feature", "id": 250, "properties": {"TOWN": "QUINCY", "STATUS": "TIERII", "NAME": "MATHEWSON CORPORATION", "SITE_INFO": "http://public.dep.state.ma.us/SearchableSites/Site_Info.asp?RTN=3-0000646", "REGION": 3.0, "RTN": "3-0000646", "ADDRESS": "2 HANCOCK ST"}},{"geometry": {"type": "Point", "coordinates": [-71.079466807198074, 42.328731389387748]}, "type": "Feature", "id": 251, "properties": {"TOWN": "BOSTON", "STATUS": "TIER1D", "NAME": "DUDLEY STREET CONDOS", "SITE_INFO": "http://public.dep.state.ma.us/SearchableSites/Site_Info.asp?RTN=3-0000703", "REGION": 3.0, "RTN": "3-0000703", "ADDRESS": "252-256 DUDLEY ST"}},{"geometry": {"type": "Point", "coordinates": [-71.2948395319859, 42.622201913832228]}, "type": "Feature", "id": 252, "properties": {"TOWN": "LOWELL", "STATUS": "TIER1D", "NAME": "UNDEVELOPED PROPERTY", "SITE_INFO": "http://public.dep.state.ma.us/SearchableSites/Site_Info.asp?RTN=3-0000754", "REGION": 3.0, "RTN": "3-0000754", "ADDRESS": "135-137 BILLERICA ST"}},{"geometry": {"type": "Point", "coordinates": [-71.036539129361643, 42.344239356698928]}, "type": "Feature", "id": 253, "properties": {"TOWN": "BOSTON", "STATUS": "TIERII", "NAME": "BOSTON MARINE INDUST PARK", "SITE_INFO": "http://public.dep.state.ma.us/SearchableSites/Site_Info.asp?RTN=3-0000763", "REGION": 3.0, "RTN": "3-0000763", "ADDRESS": "20 DRYDOCK AVE"}},{"geometry": {"type": "Point", "coordinates": [-70.852904883692787, 42.496163463162119]}, "type": "Feature", "id": 254, "properties": {"TOWN": "MARBLEHEAD", "STATUS": "TIER1D", "NAME": "CLOUTMANS BOAT YARD", "SITE_INFO": "http://public.dep.state.ma.us/SearchableSites/Site_Info.asp?RTN=3-0000830", "REGION": 3.0, "RTN": "3-0000830", "ADDRESS": "CLIFF ST COMMONWEALTH AVE"}},{"geometry": {"type": "Point", "coordinates": [-71.130745841660513, 42.515026675776163]}, "type": "Feature", "id": 255, "properties": {"TOWN": "WOBURN", "STATUS": "TIER1D", "NAME": "HILLTOP CONSTRUCTION", "SITE_INFO": "http://public.dep.state.ma.us/SearchableSites/Site_Info.asp?RTN=3-0000854", "REGION": 3.0, "RTN": "3-0000854", "ADDRESS": "124 DRAGON CT"}},{"geometry": {"type": "Point", "coordinates": [-70.868837579950551, 42.730418385719645]}, "type": "Feature", "id": 256, "properties": {"TOWN": "ROWLEY", "STATUS": "TIER1D", "NAME": "MAINE POST & BEAN", "SITE_INFO": "http://public.dep.state.ma.us/SearchableSites/Site_Info.asp?RTN=3-0000946", "REGION": 3.0, "RTN": "3-0000946", "ADDRESS": "7 KITTERY AVE"}},{"geometry": {"type": "Point", "coordinates": [-71.270429450699041, 42.68967959034228]}, "type": "Feature", "id": 257, "properties": {"TOWN": "DRACUT", "STATUS": "TIER1D", "NAME": "COMMERCIAL PROPERTY", "SITE_INFO": "http://public.dep.state.ma.us/SearchableSites/Site_Info.asp?RTN=3-0001069", "REGION": 3.0, "RTN": "3-0001069", "ADDRESS": "BROADWAY RD"}},{"geometry": {"type": "Point", "coordinates": [-70.925944418606548, 42.527601083708738]}, "type": "Feature", "id": 258, "properties": {"TOWN": "PEABODY", "STATUS": "TIERII", "NAME": "41 HARDY STREET / MASINO LEATHER", "SITE_INFO": "http://public.dep.state.ma.us/SearchableSites/Site_Info.asp?RTN=3-0001089", "REGION": 3.0, "RTN": "3-0001089", "ADDRESS": "8 WALNUT ST"}},{"geometry": {"type": "Point", "coordinates": [-71.3342672490718, 42.609007799700713]}, "type": "Feature", "id": 259, "properties": {"TOWN": "CHELMSFORD", "STATUS": "TIER1A", "NAME": "SILICON TRANSISTOR CORPORATION", "SITE_INFO": "http://public.dep.state.ma.us/SearchableSites/Site_Info.asp?RTN=3-0001205", "REGION": 3.0, "RTN": "3-0001205", "ADDRESS": "27 KATRINA RD"}},{"geometry": {"type": "Point", "coordinates": [-71.035963013812463, 42.764989691636416]}, "type": "Feature", "id": 260, "properties": {"TOWN": "HAVERHILL", "STATUS": "TIERII", "NAME": "NO LOCATION AID", "SITE_INFO": "http://public.dep.state.ma.us/SearchableSites/Site_Info.asp?RTN=3-0001259", "REGION": 3.0, "RTN": "3-0001259", "ADDRESS": "504 GROVELAND STREET ORCHARD ST"}},{"geometry": {"type": "Point", "coordinates": [-70.882605458434753, 42.844672842769583]}, "type": "Feature", "id": 261, "properties": {"TOWN": "SALISBURY", "STATUS": "TIER1D", "NAME": "PROPERTY", "SITE_INFO": "http://public.dep.state.ma.us/SearchableSites/Site_Info.asp?RTN=3-0001279", "REGION": 3.0, "RTN": "3-0001279", "ADDRESS": "128 ELM ST"}},{"geometry": {"type": "Point", "coordinates": [-70.858845945009463, 42.511009519032015]}, "type": "Feature", "id": 262, "properties": {"TOWN": "MARBLEHEAD", "STATUS": "TIER1D", "NAME": "BURKE PRODUCTS CO", "SITE_INFO": "http://public.dep.state.ma.us/SearchableSites/Site_Info.asp?RTN=3-0001525", "REGION": 3.0, "RTN": "3-0001525", "ADDRESS": "153 GREEN ST"}},{"geometry": {"type": "Point", "coordinates": [-70.929547809383962, 42.836504096246209]}, "type": "Feature", "id": 263, "properties": {"TOWN": "AMESBURY", "STATUS": "TIER1D", "NAME": "MERRIMAC HAT FMR", "SITE_INFO": "http://public.dep.state.ma.us/SearchableSites/Site_Info.asp?RTN=3-0001615", "REGION": 3.0, "RTN": "3-0001615", "ADDRESS": "MERRIMAC ST"}},{"geometry": {"type": "Point", "coordinates": [-71.11980851145286, 42.252801012339816]}, "type": "Feature", "id": 264, "properties": {"TOWN": "BOSTON", "STATUS": "TIER1B", "NAME": "LEWIS CHEMICAL CORP FMR", "SITE_INFO": "http://public.dep.state.ma.us/SearchableSites/Site_Info.asp?RTN=3-0001616", "REGION": 3.0, "RTN": "3-0001616", "ADDRESS": "16 FAIRMONT CT"}},{"geometry": {"type": "Point", "coordinates": [-71.045856722994628, 42.300973313874422]}, "type": "Feature", "id": 265, "properties": {"TOWN": "BOSTON", "STATUS": "TIER1B", "NAME": "COMMERCIAL POINT LNG PLANT", "SITE_INFO": "http://public.dep.state.ma.us/SearchableSites/Site_Info.asp?RTN=3-0001637", "REGION": 3.0, "RTN": "3-0001637", "ADDRESS": "220 VICTORY RD"}},{"geometry": {"type": "Point", "coordinates": [-70.719976556070819, 42.343367073558504]}, "type": "Feature", "id": 266, "properties": {"TOWN": "BOSTON", "STATUS": "TIER1D", "NAME": "SAFETY PROJECTS & ENG", "SITE_INFO": "http://public.dep.state.ma.us/SearchableSites/Site_Info.asp?RTN=3-0001639", "REGION": 3.0, "RTN": "3-0001639", "ADDRESS": "MASSACHUSETTS BAY FOUL AREA HBR"}},{"geometry": {"type": "Point", "coordinates": [-71.135119410929448, 42.39224202604904]}, "type": "Feature", "id": 267, "properties": {"TOWN": "CAMBRIDGE", "STATUS": "TIER1D", "NAME": "JEFFERSON PARK APTS", "SITE_INFO": "http://public.dep.state.ma.us/SearchableSites/Site_Info.asp?RTN=3-0001657", "REGION": 3.0, "RTN": "3-0001657", "ADDRESS": "RINDGE AVE"}},{"geometry": {"type": "Point", "coordinates": [-71.1393072613416, 42.522735167869513]}, "type": "Feature", "id": 268, "properties": {"TOWN": "WOBURN", "STATUS": "TIER1A", "NAME": "INDUSTRI PLEX 128", "SITE_INFO": "http://public.dep.state.ma.us/SearchableSites/Site_Info.asp?RTN=3-0001731", "REGION": 3.0, "RTN": "3-0001731", "ADDRESS": "COMMERCE WAY ATLANTIC AVE"}},{"geometry": {"type": "Point", "coordinates": [-71.118742814453654, 42.279712654964378]}, "type": "Feature", "id": 269, "properties": {"TOWN": "BOSTON", "STATUS": "TIERII", "NAME": "GASOLINE STATION", "SITE_INFO": "http://public.dep.state.ma.us/SearchableSites/Site_Info.asp?RTN=3-0001793", "REGION": 3.0, "RTN": "3-0001793", "ADDRESS": "610 HYDE PARK AVE"}},{"geometry": {"type": "Point", "coordinates": [-71.200508801138113, 42.618649252108426]}, "type": "Feature", "id": 270, "properties": {"TOWN": "TEWKSBURY", "STATUS": "TIER1B", "NAME": "TEWKSBURY AUTO PARTS", "SITE_INFO": "http://public.dep.state.ma.us/SearchableSites/Site_Info.asp?RTN=3-0001865", "REGION": 3.0, "RTN": "3-0001865", "ADDRESS": "860 EAST ST"}},{"geometry": {"type": "Point", "coordinates": [-70.991936417888155, 42.238111758051062]}, "type": "Feature", "id": 271, "properties": {"TOWN": "QUINCY", "STATUS": "TIER1B", "NAME": "BETHLEHEM SHIPYARD", "SITE_INFO": "http://public.dep.state.ma.us/SearchableSites/Site_Info.asp?RTN=3-0001902", "REGION": 3.0, "RTN": "3-0001902", "ADDRESS": "221-227 QUINCY AVE"}},{"geometry": {"type": "Point", "coordinates": [-71.088223285541034, 42.295368783714338]}, "type": "Feature", "id": 272, "properties": {"TOWN": "BOSTON", "STATUS": "TIER1D", "NAME": "WAREHOUSE", "SITE_INFO": "http://public.dep.state.ma.us/SearchableSites/Site_Info.asp?RTN=3-0001904", "REGION": 3.0, "RTN": "3-0001904", "ADDRESS": "879 BLUE HILL AVE"}},{"geometry": {"type": "Point", "coordinates": [-70.971107595013294, 42.457513568532114]}, "type": "Feature", "id": 273, "properties": {"TOWN": "LYNN", "STATUS": "TIERII", "NAME": "SOUSA OIL CO", "SITE_INFO": "http://public.dep.state.ma.us/SearchableSites/Site_Info.asp?RTN=3-0001933", "REGION": 3.0, "RTN": "3-0001933", "ADDRESS": "870 WESTERN AVE"}},{"geometry": {"type": "Point", "coordinates": [-71.307260214925023, 42.647049547341325]}, "type": "Feature", "id": 274, "properties": {"TOWN": "LOWELL", "STATUS": "TIER1D", "NAME": "GASOLINE STATION FMR", "SITE_INFO": "http://public.dep.state.ma.us/SearchableSites/Site_Info.asp?RTN=3-0001975", "REGION": 3.0, "RTN": "3-0001975", "ADDRESS": "70 FRENCH AMORY ST"}},{"geometry": {"type": "Point", "coordinates": [-71.344384637988213, 42.638172035527127]}, "type": "Feature", "id": 275, "properties": {"TOWN": "LOWELL", "STATUS": "TIERII", "NAME": "GASOLINE STATION", "SITE_INFO": "http://public.dep.state.ma.us/SearchableSites/Site_Info.asp?RTN=3-0002044", "REGION": 3.0, "RTN": "3-0002044", "ADDRESS": "1465 MIDDLESEX ST"}},{"geometry": {"type": "Point", "coordinates": [-70.966383300791776, 42.4551741364658]}, "type": "Feature", "id": 276, "properties": {"TOWN": "LYNN", "STATUS": "TIER1B", "NAME": "GENERAL ELECTRIC CO", "SITE_INFO": "http://public.dep.state.ma.us/SearchableSites/Site_Info.asp?RTN=3-0002062", "REGION": 3.0, "RTN": "3-0002062", "ADDRESS": "BENNETT ST"}},{"geometry": {"type": "Point", "coordinates": [-70.91180459275607, 42.521916019080571]},