{"type":"FeatureCollection","features":[{"geometry": {"type": "Point", "coordinates": [-71.295243932085313, 41.95835541149664]}, "type": "Feature", "id": 0, "properties": {"STATUS": "Open", "LIFEGUARD": "Yes", "NAME": "George I. Spatcher Swimming Pool", "DISTRICT": "South Coast", "DIVISION": "State Parks", "LEGISLATIO": "Acts 1973, Chapter 92", "ACCESSIBLE": "Yes", "COMMENTS": "Operated by Attleboro.", "LABEL": "Spatcher Pool", "PHONE": "508-226-1062", "ADDRESS": "79 North Avenue", "TOWN": "Attleboro", "TYPE": "Swimming and Wading Pool", "REGION": "Southeast"}},{"geometry": {"type": "Point", "coordinates": [-71.044802224363352, 42.064595297083009]}, "type": "Feature", "id": 1, "properties": {"STATUS": "Open", "LIFEGUARD": "Yes", "NAME": "Frank A. Manning Swimming Pool", "DISTRICT": "South Coast", "DIVISION": "State Parks", "LEGISLATIO": "Acts 1972, Chapter 536", "ACCESSIBLE": "Yes", "COMMENTS": "Operated by Brockton.", "LABEL": "Manning Pool", "PHONE": "508-588-2562", "ADDRESS": "476 Forest Avenue", "TOWN": "Brockton", "TYPE": "Swimming and Wading Pool", "REGION": "Southeast"}},{"geometry": {"type": "Point", "coordinates": [-71.131344274887084, 41.692257307189436]}, "type": "Feature", "id": 2, "properties": {"STATUS": "Open", "LIFEGUARD": "Yes", "NAME": "Vietnam Veterans Pool", "DISTRICT": "South Coast", "DIVISION": "State Parks", "LEGISLATIO": "Acts 1973, Chapter 362", "ACCESSIBLE": "Yes", "LABEL": "Vietnam Veterans Pool", "PHONE": "508-697-8830", "ADDRESS": "Eastern Avenue", "TOWN": "Fall River", "TYPE": "Swimming and Wading Pool", "REGION": "Southeast"}},{"geometry": {"type": "Point", "coordinates": [-71.145548194091077, 42.693042432903795]}, "type": "Feature", "id": 3, "properties": {"STATUS": "Open", "LIFEGUARD": "Yes", "NAME": "Lieutenant Colonel Edward J. Higgins Memorial Swimming Pool", "DISTRICT": "Atlantic", "DIVISION": "State Parks", "LEGISLATIO": "Acts 1973, Chapter 61", "ACCESSIBLE": "Yes", "LABEL": "Higgins Pool", "PHONE": "978-687-0393", "ADDRESS": "Crawford Street", "TOWN": "Lawrence", "TYPE": "Swimming and Wading Pool", "REGION": "Northeast"}},{"geometry": {"type": "Point", "coordinates": [-71.320617525645048, 42.64499533503929]}, "type": "Feature", "id": 4, "properties": {"STATUS": "Open", "LIFEGUARD": "Yes", "NAME": "Raymond J. Lord Memorial Swimming Pool", "DISTRICT": "Great Brook", "DIVISION": "State Parks", "LEGISLATIO": "Acts 1972, Chapter 626", "ACCESSIBLE": "Yes", "LABEL": "Lord Pool", "PHONE": "978-459-7370", "ADDRESS": "Fletcher Street and Cross Street", "TOWN": "Lowell", "TYPE": "Swimming and Wading Pool", "REGION": "Northeast"}},{"geometry": {"type": "Point", "coordinates": [-71.699983085435761, 42.409265183313423]}, "type": "Feature", "id": 5, "properties": {"STATUS": "Open", "LIFEGUARD": "Yes", "NAME": "Philip J. Weihn Memorial Pool", "DISTRICT": "Quabbin Highlands", "DIVISION": "State Parks", "LEGISLATIO": "Acts 1987, Chapter 453", "ACCESSIBLE": "Yes", "LABEL": "Weihn Pool", "PHONE": "978-365-4684", "ADDRESS": "Main Street", "TOWN": "Clinton", "TYPE": "Swimming and Wading Pool", "REGION": "Central"}},{"geometry": {"type": "Point", "coordinates": [-71.781763527471838, 42.561369006137632]}, "type": "Feature", "id": 6, "properties": {"STATUS": "Closed", "DIVISION": "State Parks", "NAME": "Gustav A. \"Swede\" Johnson Swimming Pool", "DISTRICT": "Quabbin Highlands", "TOWN": "Fitchburg", "REGION": "Central", "ADDRESS": "35 Wanoosnoc Road", "LABEL": "Johnson Pool", "LEGISLATIO": "Acts 1969, Chapter 590", "TYPE": "Swimming and Wading Pool"}},{"geometry": {"type": "Point", "coordinates": [-71.743530675741042, 42.518062769855185]}, "type": "Feature", "id": 7, "properties": {"STATUS": "Open", "LIFEGUARD": "Yes", "NAME": "Leominster State Pool", "DISTRICT": "Quabbin Highlands", "DIVISION": "State Parks", "TOWN": "Leominster", "ACCESSIBLE": "Yes", "COMMENTS": "Operated by Leominster.", "LABEL": "Leominster State Pool", "PHONE": "978-537-8268", "ADDRESS": "111 Viscoloid Avenue", "TYPE": "Swimming and Wading Pool", "REGION": "Central"}},{"geometry": {"type": "Point", "coordinates": [-72.02614540893498, 42.082370917685644]}, "type": "Feature", "id": 8, "properties": {"STATUS": "Closed", "DIVISION": "State Parks", "NAME": "Councillor Andrew J. Petro Memorial Swimming Pool", "DISTRICT": "Blackstone Valley", "TOWN": "Southbridge", "REGION": "Central", "ADDRESS": "Randolph Street", "LABEL": "Petro Pool", "LEGISLATIO": "Acts 1987, Chapter 101", "TYPE": "Swimming and Wading Pool"}},{"geometry": {"type": "Point", "coordinates": [-71.530308100726003, 42.135071181903271]}, "type": "Feature", "id": 9, "properties": {"STATUS": "Open", "LIFEGUARD": "Yes", "NAME": "Senator P. Eugene Casey Memorial Pool", "DISTRICT": "Metro West", "DIVISION": "State Parks", "LEGISLATIO": "Acts 1969, Chapter 772", "ACCESSIBLE": "Yes", "LABEL": "Casey Pool", "PHONE": "508-473-5998", "ADDRESS": "Prospect Street", "TOWN": "Milford", "TYPE": "Swimming and Wading Pool", "REGION": "Northeast"}},{"geometry": {"type": "Point", "coordinates": [-72.615074024660345, 42.165589925238763]}, "type": "Feature", "id": 10, "properties": {"STATUS": "Open", "LIFEGUARD": "Yes", "NAME": "Sarah Jane Sherman Swimming Pool", "DISTRICT": "Connecticut Valley", "DIVISION": "State Parks", "LEGISLATIO": "Acts 1973, Chapter 65", "ACCESSIBLE": "Yes", "LABEL": "Sherman Pool", "PHONE": "413-594-5376", "ADDRESS": "750 Meadow Street", "TOWN": "Chicopee", "TYPE": "Swimming and Wading Pool", "REGION": "Central"}},{"geometry": {"type": "Point", "coordinates": [-72.476508228825324, 42.164956879612092]}, "type": "Feature", "id": 11, "properties": {"STATUS": "Open", "LIFEGUARD": "Yes", "NAME": "John F. Thompson Memorial Pool", "DISTRICT": "Connecticut Valley", "DIVISION": "State Parks", "LEGISLATIO": "Acts 1968, Chapter 151", "ACCESSIBLE": "Yes", "COMMENTS": "Operated by Ludlow.", "LABEL": "Thompson Pool", "PHONE": "413-583-8856", "ADDRESS": "211 Highland Avenue", "TOWN": "Ludlow", "TYPE": "Swimming and Wading Pool", "REGION": "Central"}},{"geometry": {"type": "Point", "coordinates": [-71.792014806742202, 42.243782082708201]}, "type": "Feature", "id": 12, "properties": {"STATUS": "Open", "LIFEGUARD": "Yes", "NAME": "Dennis F. Shine Swimming Pool", "DISTRICT": "Blackstone Valley", "DIVISION": "State Parks", "LEGISLATIO": "Acts 1970, Chapter 60", "ACCESSIBLE": "Yes", "LABEL": "Shine Pool", "PHONE": "508-792-0727", "ADDRESS": "184 Providence Street", "TOWN": "Worcester", "TYPE": "Swimming and Wading Pool", "REGION": "Central"}},{"geometry": {"type": "Point", "coordinates": [-71.844469365168791, 42.24282459691981]}, "type": "Feature", "id": 13, "properties": {"STATUS": "Open", "LIFEGUARD": "Yes", "NAME": "Webster Square Veterans Memorial Swimming Pool", "DISTRICT": "Blackstone Valley", "DIVISION": "State Parks", "LEGISLATIO": "Acts 1976, Chapter 148", "ACCESSIBLE": "Yes", "LABEL": "Bennett Field Pool", "PHONE": "508-792-5515", "ADDRESS": "1260 Main Street", "TOWN": "Worcester", "TYPE": "Swimming and Wading Pool", "REGION": "Central"}},{"geometry": {"type": "Point", "coordinates": [-72.648283505184622, 42.091215812148675]}, "type": "Feature", "id": 14, "properties": {"STATUS": "Open", "LIFEGUARD": "Yes", "NAME": "Gerald J. Mason Memorial Pool", "DISTRICT": "Connecticut Valley", "DIVISION": "State Parks", "LEGISLATIO": "Acts 1989, Chapter 403", "ACCESSIBLE": "Yes", "LABEL": "Mason Pool", "PHONE": "413-786-6254", "ADDRESS": "Armory Drive", "TOWN": "Agawam", "TYPE": "Swimming and Wading Pool", "REGION": "Central"}},{"geometry": {"type": "Point", "coordinates": [-72.550601115363264, 42.123482285170176]}, "type": "Feature", "id": 15, "properties": {"STATUS": "Open", "LIFEGUARD": "Yes", "NAME": "John H. Thomas Memorial Swimming Pool", "DISTRICT": "Connecticut Valley", "DIVISION": "State Parks", "LEGISLATIO": "Acts 1972, Chapter 770", "ACCESSIBLE": "Yes", "LABEL": "Thomas Pool", "PHONE": "413-736-7699", "ADDRESS": "Blunt Park Road", "TOWN": "Springfield", "TYPE": "Swimming and Wading Pool", "REGION": "Central"}},{"geometry": {"type": "Point", "coordinates": [-71.145671849200681, 42.708124272003758]}, "type": "Feature", "id": 16, "properties": {"STATUS": "Open", "LIFEGUARD": "Yes", "NAME": "Geisler Memorial Pool", "DISTRICT": "Atlantic", "DIVISION": "State Parks", "TOWN": "Lawrence", "ACCESSIBLE": "Yes", "LABEL": "Geisler Pool", "PHONE": "978-687-1024", "ADDRESS": "50 High Street", "TYPE": "Swimming Pool, Diving Pool and Spray Deck", "REGION": "Northeast"}},{"geometry": {"type": "Point", "coordinates": [-70.888812837269867, 42.643585815478147]}, "type": "Feature", "id": 17, "properties": {"STATUS": "Open", "LIFEGUARD": "Yes", "NAME": "Bradley Palmer State Park Wading Pool", "DISTRICT": "Atlantic", "DIVISION": "State Parks", "TOWN": "Topsfield", "ACCESSIBLE": "Yes", "LABEL": "Bradley Palmer Pool", "PHONE": "978-887-5931", "ADDRESS": "Asbury Street", "TYPE": "Wading Pool", "REGION": "Northeast"}},{"geometry": {"type": "Point", "coordinates": [-71.04252029308779, 41.778101160471692]}, "type": "Feature", "id": 18, "properties": {"STATUS": "Open", "LIFEGUARD": "Yes", "NAME": "Freetown-Fall River State Forest Wading Pool", "DISTRICT": "South Coast", "DIVISION": "State Parks", "TOWN": "Freetown", "ACCESSIBLE": "Yes", "LABEL": "Freetown-Fall River Pool", "PHONE": "508-644-5522", "ADDRESS": "Slab Bridge Road and Payne Road", "TYPE": "Wading Pool", "REGION": "Southeast"}},{"geometry": {"type": "Point", "coordinates": [-71.102290159466804, 42.465363725881687]}, "type": "Feature", "id": 19, "properties": {"STATUS": "Open", "LIFEGUARD": "Yes", "NAME": "Sergeant George J. Hall Memorial Pool", "DISTRICT": "Fells", "DIVISION": "Urban Parks", "LEGISLATIO": "Acts 1950, Chapter 503", "ACCESSIBLE": "Yes", "LABEL": "Hall Pool", "PHONE": "781-438-9888", "ADDRESS": "North Border Road", "TOWN": "Stoneham", "TYPE": "Swimming and Wading Pool", "REGION": "North"}},{"geometry": {"type": "Point", "coordinates": [-71.160316954357967, 42.358187247444327]}, "type": "Feature", "id": 20, "properties": {"STATUS": "Open", "LIFEGUARD": "Yes", "NAME": "Brighton-Allston Pool", "DISTRICT": "Charles", "DIVISION": "Urban Parks", "TOWN": "Boston", "ACCESSIBLE": "No", "LABEL": "Brighton-Allston Pool", "PHONE": "617-254-2965", "ADDRESS": "North Beacon Street and Brooks Street", "TYPE": "Swimming and Wading Pool", "REGION": "North"}},{"geometry": {"type": "Point", "coordinates": [-71.151799730549001, 42.336376483138643]}, "type": "Feature", "id": 21, "properties": {"STATUS": "Open", "LIFEGUARD": "Yes", "NAME": "Lieutenant James F. Reilly Memorial Recreation Center", "DISTRICT": "West", "DIVISION": "Urban Parks", "LEGISLATIO": "Acts 1961, Chapter 446", "ACCESSIBLE": "No", "LABEL": "Reilly Pool", "PHONE": "617-277-7822", "ADDRESS": "355 Chestnut Hill Avenue", "TOWN": "Boston", "TYPE": "Swimming Pool", "REGION": "South"}},{"geometry": {"type": "Point", "coordinates": [-71.137212053433444, 42.394809527427071]}, "type": "Feature", "id": 22, "properties": {"STATUS": "Open", "LIFEGUARD": "Yes", "NAME": "Francis J. McCrehan Swimming Pool", "DISTRICT": "Charles", "DIVISION": "Urban Parks", "LEGISLATIO": "Acts 1960, Chapter 564", "ACCESSIBLE": "No", "LABEL": "McCrehan Pool", "PHONE": "617-354-9154", "ADDRESS": "359 Rindge Avenue", "TOWN": "Cambridge", "TYPE": "Swimming and Wading Pool", "REGION": "North"}},{"geometry": {"type": "Point", "coordinates": [-71.043370546289268, 42.412898967311982]}, "type": "Feature", "id": 23, "properties": {"STATUS": "Open", "LIFEGUARD": "Yes", "NAME": "Everett Allied War Veterans' Memorial Recreation Center", "DISTRICT": "Coastal", "DIVISION": "Urban Parks", "LEGISLATIO": "Acts 1961, Chapter 461", "ACCESSIBLE": "No", "LABEL": "Allied Veterans Pool", "PHONE": "617-727-1828", "ADDRESS": "65 Elm Street", "TOWN": "Everett", "TYPE": "Swimming and Wading Pool", "REGION": "North"}},{"geometry": {"type": "Point", "coordinates": [-71.039116956993098, 42.400889596837324]}, "type": "Feature", "id": 24, "properties": {"STATUS": "Open", "LIFEGUARD": "Yes", "NAME": "Vietnam Veterans Memorial Pool", "DISTRICT": "Coastal", "DIVISION": "Urban Parks", "LEGISLATIO": "Acts 1968, Chapter 527", "ACCESSIBLE": "Yes", "LABEL": "Vietnam Veterans Pool", "PHONE": "617-884-9630", "ADDRESS": "184 Carter Street", "TOWN": "Chelsea", "TYPE": "Swimming Pool", "REGION": "North"}},{"geometry": {"type": "Point", "coordinates": [-71.115515697355463, 42.3569115731677]}, "type": "Feature", "id": 25, "properties": {"STATUS": "Open", "LIFEGUARD": "Yes", "NAME": "Veterans Memorial Pool", "DISTRICT": "Charles", "DIVISION": "Urban Parks", "TOWN": "Cambridge", "ACCESSIBLE": "No", "LABEL": "Veterans Pool", "PHONE": "617-354-9381", "ADDRESS": "719 Memorial Drive", "TYPE": "Swimming and Wading Pool", "REGION": "North"}},{"geometry": {"type": "Point", "coordinates": [-71.089132211999342, 42.39114430467928]}, "type": "Feature", "id": 26, "properties": {"STATUS": "Open", "LIFEGUARD": "Yes", "NAME": "William J. and Edward T. Latta Memorial Swimming Pool", "DISTRICT": "Charles", "DIVISION": "Urban Parks", "LEGISLATIO": "Acts 1954, Chapter 321", "ACCESSIBLE": "No", "LABEL": "Latta Brothers Pool", "PHONE": "617-666-9236", "ADDRESS": "McGrath Highway and Broadway", "TOWN": "Somerville", "TYPE": "Swimming and Wading Pool", "REGION": "North"}},{"geometry": {"type": "Point", "coordinates": [-71.090235933441662, 42.321644591292426]}, "type": "Feature", "id": 27, "properties": {"STATUS": "Open", "LIFEGUARD": "Yes", "NAME": "Melnea A. Cass Swimming Pool", "DISTRICT": "Shore", "DIVISION": "Urban Parks", "LEGISLATIO": "Acts 1967, Chapter 856", "ACCESSIBLE": "No", "LABEL": "Cass Pool", "PHONE": "617-445-0062", "ADDRESS": "Martin Luther King Boulevard and Washington Street", "TOWN": "Boston", "TYPE": "Swimming Pool", "REGION": "Harbor"}},{"geometry": {"type": "Point", "coordinates": [-71.131354586942194, 42.410731607347188]}, "type": "Feature", "id": 28, "properties": {"STATUS": "Open", "LIFEGUARD": "Yes", "NAME": "Dilboy Memorial Pool", "DISTRICT": "Fells", "DIVISION": "Urban Parks", "TOWN": "Somerville", "ACCESSIBLE": "No", "LABEL": "Dilboy Pool", "PHONE": "617-623-9321", "ADDRESS": "Alewife Brook Parkway", "TYPE": "Swimming and Wading Pool", "REGION": "North"}},{"geometry": {"type": "Point", "coordinates": [-70.954472764598592, 42.218290724354162]}, "type": "Feature", "id": 29, "properties": {"STATUS": "Open", "LIFEGUARD": "Yes", "NAME": "William A. Connell, Sr. Recreation Center", "DISTRICT": "Island", "DIVISION": "Urban Parks", "LEGISLATIO": "Acts 1971, Chapter 1046", "ACCESSIBLE": "Yes", "COMMENTS": "Indoor pool; open October through May.", "LABEL": "Connell Pool", "PHONE": "781-335-2090", "ADDRESS": "Broad Street", "TOWN": "Weymouth", "TYPE": "Swimming Pool", "REGION": "Harbor"}},{"geometry": {"type": "Point", "coordinates": [-71.069657744393012, 42.430899770805162]}, "type": "Feature", "id": 30, "properties": {"STATUS": "Open", "LIFEGUARD": "Yes", "NAME": "Lieutenant Dennis C. Holland Memorial Pool", "DISTRICT": "Fells", "DIVISION": "Urban Parks", "LEGISLATIO": "Acts 1964, Chapter 439", "ACCESSIBLE": "No", "LABEL": "Holland Pool", "PHONE": "781-324-9350", "ADDRESS": "108 Mountain Avenue", "TOWN": "Malden", "TYPE": "Swimming and Wading Pool", "REGION": "North"}},{"geometry": {"type": "Point", "coordinates": [-71.069165899582188, 42.460827782025298]}, "type": "Feature", "id": 31, "properties": {"STATUS": "Open", "LIFEGUARD": "Yes", "NAME": "Lawrence W. Lloyd Swimming Pool", "DISTRICT": "Fells", "DIVISION": "Urban Parks", "LEGISLATIO": "Acts 1973, Chapter 902", "ACCESSIBLE": "No", "LABEL": "Lloyd Pool", "PHONE": "781-979-0172", "ADDRESS": "49 Tremont Street", "TOWN": "Melrose", "TYPE": "Swimming Pool", "REGION": "North"}},{"geometry": {"type": "Point", "coordinates": [-71.138440311682942, 42.250391651566609]}, "type": "Feature", "id": 32, "properties": {"STATUS": "Open", "LIFEGUARD": "Yes", "NAME": "Martin L. Olsen Memorial Pool", "DISTRICT": "West", "DIVISION": "Urban Parks", "LEGISLATIO": "Acts 1961, Chapter 167", "ACCESSIBLE": "No", "LABEL": "Olsen Pool", "PHONE": "617-364-9524", "ADDRESS": "95 Turtle Pond Parkway", "TOWN": "Boston", "TYPE": "Swimming Pool and Spray Deck", "REGION": "South"}},{"geometry": {"type": "Point", "coordinates": [-71.191321735439303, 42.365408820590389]}, "type": "Feature", "id": 33, "properties": {"STATUS": "Open", "LIFEGUARD": "Yes", "NAME": "Clarence W. Dealtry Memorial Swimming Pool", "DISTRICT": "Charles", "DIVISION": "Urban Parks", "LEGISLATIO": "Acts 1950, Chapter 751", "ACCESSIBLE": "No", "LABEL": "Dealtry Pool", "PHONE": "617-923-0073", "ADDRESS": "138 Pleasant Street", "TOWN": "Watertown", "TYPE": "Swimming and Wading Pool", "REGION": "North"}},{"geometry": {"type": "Point", "coordinates": [-71.13839467058358, 42.364227017387563]}, "type": "Feature", "id": 34, "properties": {"STATUS": "Open", "LIFEGUARD": "Yes", "NAME": "Richard T. Artesani Memorial Playground Wading Pool", "DISTRICT": "Charles", "DIVISION": "Urban Parks", "LEGISLATIO": "Acts 1962, Chapter 209", "ACCESSIBLE": "Yes", "LABEL": "Artesani Pool", "PHONE": "617-727-4708", "ADDRESS": "1255 Soldiers Field Road", "TOWN": "Boston", "TYPE": "Wading Pool", "REGION": "North"}},{"geometry": {"type": "Point", "coordinates": [-71.12509247065033, 42.243938069409403]}, "type": "Feature", "id": 35, "properties": {"STATUS": "Open", "LIFEGUARD": "Yes", "NAME": "Sergeant John T. Moynihan Memorial Play Center", "DISTRICT": "Blue Hills", "DIVISION": "Urban Parks", "LEGISLATIO": "Acts 1956, Chapter 536", "ACCESSIBLE": "No", "LABEL": "Moynihan Pool", "PHONE": "617-727-5290", "ADDRESS": "920 Truman Parkway", "TOWN": "Boston", "TYPE": "Wading Pool", "REGION": "South"}},{"geometry": {"type": "Point", "coordinates": [-71.108119186311256, 42.311210167731154]}, "type": "Feature", "id": 36, "properties": {"STATUS": "Open", "LIFEGUARD": "No", "NAME": "Corporal Joseph E. Johnson Playground Spray Deck", "DISTRICT": "Shore", "DIVISION": "Urban Parks", "LEGISLATIO": "Acts 1960, Chapter 555", "ACCESSIBLE": "Yes", "LABEL": "Johnson Spray Deck", "PHONE": "617-727-0057", "ADDRESS": "Lamartine Street and Green Street", "TOWN": "Boston", "TYPE": "Spray Deck", "REGION": "Harbor"}},{"geometry": {"type": "Point", "coordinates": [-71.105013634287801, 42.316516354749545]}, "type": "Feature", "id": 37, "properties": {"STATUS": "Open", "LIFEGUARD": "No", "NAME": "Stony Brook Spray Deck", "DISTRICT": "Shore", "DIVISION": "Urban Parks", "TOWN": "Boston", "ACCESSIBLE": "Yes", "LABEL": "Stony Brook Spray Deck", "PHONE": "617-727-0057", "ADDRESS": "Lamartine Street and Boylston Street", "TYPE": "Spray Deck", "REGION": "Harbor"}},{"geometry": {"type": "Point", "coordinates": [-71.085771503502201, 42.270561912584981]}, "type": "Feature", "id": 38, "properties": {"STATUS": "Open", "LIFEGUARD": "Yes", "NAME": "Ryan Playground Wading Pool", "DISTRICT": "Shore", "DIVISION": "Urban Parks", "TOWN": "Boston", "ACCESSIBLE": "Yes", "LABEL": "Ryan Pool", "PHONE": "617-727-5290", "ADDRESS": "350 River Street", "TYPE": "Wading Pool", "REGION": "Harbor"}},{"geometry": {"type": "Point", "coordinates": [-71.092313845938833, 42.33425775537539]}, "type": "Feature", "id": 39, "properties": {"STATUS": "Open", "LIFEGUARD": "No", "NAME": "Mission Hill Spray Deck", "DISTRICT": "Shore", "DIVISION": "Urban Parks", "TOWN": "Boston", "ACCESSIBLE": "Yes", "LABEL": "Mission Hill Spray Deck", "PHONE": "617-727-0057", "ADDRESS": "Albert Street", "TYPE": "Spray Deck", "REGION": "Harbor"}},{"geometry": {"type": "Point", "coordinates": [-71.070859469004731, 42.364437285462493]}, "type": "Feature", "id": 40, "properties": {"STATUS": "Closed", "LIFEGUARD": "Yes", "NAME": "Joseph Lee Pool", "DISTRICT": "Charles", "DIVISION": "Urban Parks", "LEGISLATIO": "Resolves 1952, Chapter 68", "ACCESSIBLE": "No", "COMMENTS": "Wading pool is open.", "LABEL": "Lee Pool", "PHONE": "617-727-4708", "ADDRESS": "280 Charles Street", "TOWN": "Boston", "TYPE": "Swimming, Wading and Diving Pool", "REGION": "North"}},{"geometry": {"type": "Point", "coordinates": [-71.195852132243218, 42.389657796557465]}, "type": "Feature", "id": 41, "properties": {"STATUS": "Open", "LIFEGUARD": "No", "NAME": "Beaver Brook Reservation Spray Deck", "DISTRICT": "Fells", "DIVISION": "Urban Parks", "TOWN": "Belmont", "ACCESSIBLE": "Yes", "LABEL": "Beaver Brook Spray Deck", "PHONE": "617-484-6357", "ADDRESS": "680 Trapelo Road", "TYPE": "Spray Deck", "REGION": "North"}},{"geometry": {"type": "Point", "coordinates": [-71.22903956848296, 42.373248143168752]}, "type": "Feature", "id": 42, "properties": {"STATUS": "Closed", "DIVISION": "Urban Parks", "NAME": "Louis B. Connors Memorial Pool", "DISTRICT": "West", "TOWN": "Waltham", "REGION": "South", "ADDRESS": "330 River Street", "COMMENTS": "Opening summer 2012.", "LABEL": "Connors Pool", "LEGISLATIO": "Acts 1952, Chapter 145", "TYPE": "Swimming and Wading Pool"}},{"geometry": {"type": "Point", "coordinates": [-71.06882737013612, 42.36901917834912]}, "type": "Feature", "id": 43, "properties": {"STATUS": "Open", "LIFEGUARD": "No", "NAME": "North Point Park Spray Deck", "DISTRICT": "Charles", "DIVISION": "Urban Parks", "TOWN": "Cambridge", "ACCESSIBLE": "Yes", "LABEL": "North Point Spray Deck", "PHONE": "617-727-4708", "ADDRESS": "6 Museum Way", "TYPE": "Spray Deck", "REGION": "North"}},{"geometry": {"type": "Point", "coordinates": [-71.052483659193172, 42.27857717475657]}, "type": "Feature", "id": 44, "properties": {"STATUS": "Open", "LIFEGUARD": "No", "NAME": "Neponset River Reservation Spray Deck", "DISTRICT": "Shore", "DIVISION": "Urban Parks", "TOWN": "Boston", "ACCESSIBLE": "Yes", "LABEL": "Neponset Spray Deck", "PHONE": "617-727-5290", "ADDRESS": "Hill Top Street and Granite Avenue", "TYPE": "Spray Deck", "REGION": "Harbor"}}]}