{"type":"FeatureCollection","features":[{"geometry": {"type": "Point", "coordinates": [-71.209229199856708, 42.365210282718351]}, "type": "Feature", "id": 0, "properties": {"FACIL_STAT": "Open", "ADDRESS": "One Paramount Place", "RINK_SIZE": "Full", "LABEL": "Ryan Memorial Rink", "PHONE": "(617) 972-6468", "TOWN_ID": 314, "RINK_ID": 295, "FACIL_TYPE": "Public", "FACIL_NAME": "Ryan Memorial Rink", "CITY_TOWN": "Watertown"}},{"geometry": {"type": "Point", "coordinates": [-71.271550392678392, 42.292657502699491]}, "type": "Feature", "id": 1, "properties": {"FACIL_STAT": "Open", "ADDRESS": "150 Great Plain Ave.", "RINK_SIZE": "Full", "LABEL": "Babson College Skating Center", "PHONE": "(781) 239-6054", "TOWN_ID": 317, "RINK_ID": 296, "FACIL_TYPE": "School", "FACIL_NAME": "Babson College Skating Center", "CITY_TOWN": "Wellesley"}},{"geometry": {"type": "Point", "coordinates": [-72.620118522808454, 42.138195469854622]}, "type": "Feature", "id": 2, "properties": {"FACIL_STAT": "Open", "ADDRESS": "125 Capitol St.", "RINK_SIZE": "Full", "LABEL": "Springfield Olympia Ice 2", "PHONE": "(413) 736-8100", "TOWN_ID": 325, "RINK_ID": 298, "FACIL_TYPE": "Public", "FACIL_NAME": "Springfield Olympia Ice 2", "CITY_TOWN": "West Springfield"}},{"geometry": {"type": "Point", "coordinates": [-72.619381703731435, 42.138705628507509]}, "type": "Feature", "id": 3, "properties": {"FACIL_STAT": "Open", "ADDRESS": "125 Capitol St.", "RINK_SIZE": "Full", "LABEL": "Springfield Olympia Ice 1", "PHONE": "(413) 736-8100", "TOWN_ID": 325, "RINK_ID": 299, "FACIL_TYPE": "Public", "FACIL_NAME": "Springfield Olympia Ice 1", "CITY_TOWN": "West Springfield"}},{"geometry": {"type": "Point", "coordinates": [-71.620057113594356, 42.286700998801358]}, "type": "Feature", "id": 4, "properties": {"FACIL_STAT": "Open", "ADDRESS": "15 Bridle Lane", "RINK_SIZE": "Full", "LABEL": "Northstar Youth Forum, Rink B", "PHONE": "(508) 366-1562", "TOWN_ID": 328, "RINK_ID": 300, "FACIL_TYPE": "Public", "FACIL_NAME": "Northstar Youth Forum, Rink B", "CITY_TOWN": "Westborough"}},{"geometry": {"type": "Point", "coordinates": [-71.620446612521391, 42.286789540032203]}, "type": "Feature", "id": 5, "properties": {"FACIL_STAT": "Open", "ADDRESS": "15 Bridle Lane", "RINK_SIZE": "Full", "LABEL": "Northstar Youth Forum, Rink A", "PHONE": "(508) 366-1562", "TOWN_ID": 328, "RINK_ID": 301, "FACIL_TYPE": "Public", "FACIL_NAME": "Northstar Youth Forum, Rink A", "CITY_TOWN": "Westborough"}},{"geometry": {"type": "Point", "coordinates": [-71.326499332946739, 42.32304479256306]}, "type": "Feature", "id": 6, "properties": {"FACIL_STAT": "Open", "ADDRESS": "333 Winter St.", "RINK_SIZE": "Full", "LABEL": "MacDowell Arena", "PHONE": "(781) 235-9300", "TOWN_ID": 333, "RINK_ID": 303, "FACIL_TYPE": "School", "FACIL_NAME": "The Rivers School, MacDowell Arena", "CITY_TOWN": "Weston"}},{"geometry": {"type": "Point", "coordinates": [-70.954833554503992, 42.218237235605507]}, "type": "Feature", "id": 7, "properties": {"FACIL_STAT": "Open", "ADDRESS": "220 Broad St.", "RINK_SIZE": "Full", "LABEL": "Connell Rink", "PHONE": "(781) 335-2090", "TOWN_ID": 336, "RINK_ID": 304, "FACIL_TYPE": "DCR", "FACIL_NAME": "William A. Connell, Sr. Recreation Center", "LEGIS": "Acts 1971, Chapter 1046", "CITY_TOWN": "Weymouth"}},{"geometry": {"type": "Point", "coordinates": [-73.203021562599233, 42.710031087912981]}, "type": "Feature", "id": 8, "properties": {"FACIL_STAT": "Open", "ADDRESS": "60 Latham St.", "RINK_SIZE": "Full", "LABEL": "Lansing Chapman Rink", "PHONE": "(413) 597-2301", "TOWN_ID": 341, "RINK_ID": 305, "FACIL_TYPE": "School", "FACIL_NAME": "Williams College, Lansing Chapman Rink", "CITY_TOWN": "Williamstown"}},{"geometry": {"type": "Point", "coordinates": [-71.179098576408478, 42.558140916707536]}, "type": "Feature", "id": 9, "properties": {"FACIL_STAT": "Open", "ADDRESS": "190 Main St.", "RINK_SIZE": "Full", "LABEL": "Ristuccia Memorial Arena", "PHONE": "(978) 657-3976", "TOWN_ID": 342, "RINK_ID": 306, "FACIL_TYPE": "Public", "FACIL_NAME": "Elinor Ristuccia Memorial Arena", "CITY_TOWN": "Wilmington"}},{"geometry": {"type": "Point", "coordinates": [-70.987580173594708, 42.376603191634814]}, "type": "Feature", "id": 10, "properties": {"FACIL_STAT": "Open", "ADDRESS": "45 Pauline St.", "RINK_SIZE": "Full", "LABEL": "Lawrence N. Larsen Ice Rink", "PHONE": "(617) 846-5770", "TOWN_ID": 346, "RINK_ID": 308, "FACIL_TYPE": "Public", "FACIL_NAME": "Lawrence N. Larsen Ice Rink", "CITY_TOWN": "Winthrop"}},{"geometry": {"type": "Point", "coordinates": [-71.14285069739168, 42.496708210605455]}, "type": "Feature", "id": 11, "properties": {"FACIL_STAT": "Open", "ADDRESS": "470 Wildwood Road, Unit #1", "RINK_SIZE": "Mini", "LABEL": "PHD Training Ctr., Mini Rink", "PHONE": "(800) 800-7373", "TOWN_ID": 347, "RINK_ID": 309, "FACIL_TYPE": "Public", "FACIL_NAME": "PHD Training Ctr., Mini Rink", "CITY_TOWN": "Woburn"}},{"geometry": {"type": "Point", "coordinates": [-71.175409731644237, 42.477616601797166]}, "type": "Feature", "id": 12, "properties": {"FACIL_STAT": "Open", "ADDRESS": "55 Locus St.", "RINK_SIZE": "Full", "LABEL": "O'Brien Ice Rink", "PHONE": "(781) 938-1620", "TOWN_ID": 347, "RINK_ID": 310, "FACIL_TYPE": "Public", "FACIL_NAME": "O'Brien Ice Rink", "CITY_TOWN": "Woburn"}},{"geometry": {"type": "Point", "coordinates": [-71.806031382592238, 42.235097180147598]}, "type": "Feature", "id": 13, "properties": {"FACIL_STAT": "Open", "ADDRESS": "1 College St.", "RINK_SIZE": "Full", "LABEL": "Hart Center Rink", "PHONE": "(508) 793-3407", "TOWN_ID": 348, "RINK_ID": 311, "FACIL_TYPE": "School", "FACIL_NAME": "Holy Cross, Hart Center Rink", "CITY_TOWN": "Worcester"}},{"geometry": {"type": "Point", "coordinates": [-71.754693754703936, 42.261969950468895]}, "type": "Feature", "id": 14, "properties": {"FACIL_STAT": "Open", "ADDRESS": "284 Lake Ave.", "RINK_SIZE": "Full", "LABEL": "Buffone Rink", "PHONE": "(508) 799-0910", "TOWN_ID": 348, "RINK_ID": 313, "FACIL_TYPE": "DCRP", "FACIL_NAME": "Honorable Charles J. Buffone Skating Rink", "LEGIS": "Acts 1995, Chapter 35", "CITY_TOWN": "Worcester"}},{"geometry": {"type": "Point", "coordinates": [-71.127268557365852, 42.368284590248784]}, "type": "Feature", "id": 15, "properties": {"FACIL_STAT": "Open", "ADDRESS": "65 North Harvard St.", "RINK_SIZE": "Full", "LABEL": "Bright Hockey Center", "PHONE": "(617) 495-9909", "TOWN_ID": 35, "RINK_ID": 314, "FACIL_TYPE": "School", "FACIL_NAME": "Harvard, Bright Hockey Center", "CITY_TOWN": "Boston-Allston"}},{"geometry": {"type": "Point", "coordinates": [-71.152443689819918, 42.336522505987823]}, "type": "Feature", "id": 16, "properties": {"FACIL_STAT": "Open", "ADDRESS": "355 Chestnut Hill Ave.", "RINK_SIZE": "Full", "LABEL": "Reilly Rink", "PHONE": "(617) 277-7822", "TOWN_ID": 35, "RINK_ID": 315, "FACIL_TYPE": "DCR", "FACIL_NAME": "Lieutenant James F. Reilly Memorial Recreation Center", "LEGIS": "Acts 1961, Chapter 446", "CITY_TOWN": "Boston-Brighton"}},{"geometry": {"type": "Point", "coordinates": [-71.170290397726021, 42.35846772325813]}, "type": "Feature", "id": 17, "properties": {"FACIL_STAT": "Open", "ADDRESS": "4 Nonantum Rd.", "RINK_SIZE": "Full", "LABEL": "Daly Rink", "PHONE": "(617) 527-1741", "TOWN_ID": 35, "RINK_ID": 316, "FACIL_TYPE": "DCRP", "FACIL_NAME": "Monsignor William J. Daly Memorial Recreation Center", "LEGIS": "Acts 1966, Chapter 387", "CITY_TOWN": "Boston-Brighton"}},{"geometry": {"type": "Point", "coordinates": [-71.066476822681608, 42.374099766948461]}, "type": "Feature", "id": 18, "properties": {"FACIL_STAT": "Open", "ADDRESS": "150 Rutherford Ave.", "RINK_SIZE": "Full", "LABEL": "Emmons-Horrigan-O'Neil Rink", "PHONE": "(617) 242-9728", "TOWN_ID": 35, "RINK_ID": 317, "FACIL_TYPE": "DCR", "FACIL_NAME": "Frederick Douglas Emmons, John Gerald Horrigan and Matthew J. O'Neil Rink", "LEGIS": "Acts 1983, Chapter 444", "CITY_TOWN": "Boston-Charlestown"}},{"geometry": {"type": "Point", "coordinates": [-71.044960301747295, 42.28869519465038]}, "type": "Feature", "id": 19, "properties": {"FACIL_STAT": "Open", "ADDRESS": "995 William T. Morrissey Blvd.", "RINK_SIZE": "Full", "LABEL": "Devine Rink", "PHONE": "(617) 436-4356", "TOWN_ID": 35, "RINK_ID": 318, "FACIL_TYPE": "DCR", "FACIL_NAME": "Private First Class Robert M. Devine Skating Rink", "LEGIS": "Acts 1964, Chapter 588", "CITY_TOWN": "Boston-Dorchester"}},{"geometry": {"type": "Point", "coordinates": [-71.011743855855357, 42.382333921957645]}, "type": "Feature", "id": 20, "properties": {"FACIL_STAT": "Open", "ADDRESS": "199 Coleridge St.", "RINK_SIZE": "Full", "LABEL": "Porrazzo Rink", "PHONE": "(617) 567-9571", "TOWN_ID": 35, "RINK_ID": 319, "FACIL_TYPE": "DCRP", "FACIL_NAME": "First Lieutenant Louis E. Porrazzo Skating Rink", "LEGIS": "Acts 1967, Chapter 832", "CITY_TOWN": "Boston-East Boston"}},{"geometry": {"type": "Point", "coordinates": [-71.137721019133338, 42.249184136020226]}, "type": "Feature", "id": 21, "properties": {"FACIL_STAT": "Open", "ADDRESS": "75 Turtle Pond Pkwy.", "RINK_SIZE": "Full", "LABEL": "Bajko Rink", "PHONE": "(617) 364-9188", "TOWN_ID": 35, "RINK_ID": 320, "FACIL_TYPE": "DCR", "FACIL_NAME": "Alexander S. Bajko Memorial Skating Rink", "CITY_TOWN": "Boston-Hyde Park"}},{"geometry": {"type": "Point", "coordinates": [-71.103279263926012, 42.318166971403251]}, "type": "Feature", "id": 22, "properties": {"FACIL_STAT": "Open", "ADDRESS": "1 Marbury Ter.", "RINK_SIZE": "Full", "LABEL": "Kelly Outdoor Rink", "PHONE": "(617) 727-7000", "TOWN_ID": 35, "RINK_ID": 321, "FACIL_TYPE": "DCR", "FACIL_NAME": "Kelly Outdoor Skating Rink", "CITY_TOWN": "Boston-Jamaica Plain"}},{"geometry": {"type": "Point", "coordinates": [-71.0571397736054, 42.368343319149375]}, "type": "Feature", "id": 23, "properties": {"FACIL_STAT": "Open", "ADDRESS": "561 Commercial St.", "RINK_SIZE": "Full", "LABEL": "Steriti Rink", "PHONE": "(617) 523-9327", "TOWN_ID": 35, "RINK_ID": 322, "FACIL_TYPE": "DCR", "FACIL_NAME": "Private First Class Steven J. Steriti Memorial Skating Rink", "LEGIS": "Dedicated 10/13/1975", "CITY_TOWN": "Boston-North End"}},{"geometry": {"type": "Point", "coordinates": [-71.023994112954966, 42.336973073797942]}, "type": "Feature", "id": 24, "properties": {"FACIL_STAT": "Open", "ADDRESS": "1880 William J. Day Blvd.", "RINK_SIZE": "Full", "LABEL": "Murphy Rink", "PHONE": "(617) 269-7060", "TOWN_ID": 35, "RINK_ID": 323, "FACIL_TYPE": "DCR", "FACIL_NAME": "Francis L. Murphy Memorial Ice Skating Rink", "LEGIS": "Acts 1965, Chapter 159", "CITY_TOWN": "Boston-South Boston"}},{"geometry": {"type": "Point", "coordinates": [-71.173260501364823, 42.276468772514434]}, "type": "Feature", "id": 25, "properties": {"FACIL_STAT": "Open", "ADDRESS": "1275 VFW Pkwy.", "RINK_SIZE": "Full", "LABEL": "Roche Arena", "PHONE": "(617) 323-9512", "TOWN_ID": 35, "RINK_ID": 324, "FACIL_TYPE": "DCRP", "FACIL_NAME": "Jim Roche Community Ice Arena", "CITY_TOWN": "Boston-West Roxbury"}},{"geometry": {"type": "Point", "coordinates": [-71.136904711042419, 42.363567308109232]}, "type": "Feature", "id": 26, "properties": {"FACIL_STAT": "Open", "ADDRESS": "1240 Soldiers Field Rd.", "RINK_SIZE": "Full", "LABEL": "Skating Club of Boston", "PHONE": "(617) 782-5900", "TOWN_ID": 35, "RINK_ID": 325, "FACIL_TYPE": "Public", "FACIL_NAME": "Skating Club of Boston", "CITY_TOWN": "Brighton"}},{"geometry": {"type": "Point", "coordinates": [-70.901112813786469, 42.751402879485774]}, "type": "Feature", "id": 27, "properties": {"FACIL_STAT": "Open", "ADDRESS": "1 Elm St.", "RINK_SIZE": "Full", "LABEL": "Murphy Frost Arena", "PHONE": "(978) 465-1763", "TOWN_ID": 105, "RINK_ID": 326, "FACIL_TYPE": "School", "FACIL_NAME": "Governor Dummer Academy, Murphy Frost Arena", "CITY_TOWN": "Byfield"}},{"geometry": {"type": "Point", "coordinates": [-71.16779982038274, 42.335157870153772]}, "type": "Feature", "id": 28, "properties": {"FACIL_STAT": "Open", "ADDRESS": "140 Commonwealth Ave.", "RINK_SIZE": "Full", "LABEL": "Conte Forum, Kelly Rink", "PHONE": "(617) 552-2916", "TOWN_ID": 35, "RINK_ID": 327, "FACIL_TYPE": "School", "FACIL_NAME": "Boston College, Conte Forum, Kelly Rink", "CITY_TOWN": "Boston-Chestnut Hill"}},{"geometry": {"type": "Point", "coordinates": [-71.228005058925902, 42.061166535576227]}, "type": "Feature", "id": 29, "properties": {"FACIL_STAT": "Open", "ADDRESS": "10 East Belcher Road", "RINK_SIZE": "Full", "LABEL": "Foxboro Sports Center, Rink #2", "PHONE": "(508) 698-0505", "TOWN_ID": 99, "RINK_ID": 328, "FACIL_TYPE": "Public", "FACIL_NAME": "Foxboro Sports Center, Rink #2", "CITY_TOWN": "Foxborough"}},{"geometry": {"type": "Point", "coordinates": [-71.227826407480165, 42.060987846323968]}, "type": "Feature", "id": 30, "properties": {"FACIL_STAT": "Open", "ADDRESS": "10 East Belcher Road", "RINK_SIZE": "Full", "LABEL": "Foxboro Sports Center, Rink #1", "PHONE": "(508) 698-0505", "TOWN_ID": 99, "RINK_ID": 329, "FACIL_TYPE": "Public", "FACIL_NAME": "Foxboro Sports Center, Rink #1", "CITY_TOWN": "Foxborough"}},{"geometry": {"type": "Point", "coordinates": [-70.293165911220555, 41.653972263411745]}, "type": "Feature", "id": 31, "properties": {"FACIL_STAT": "Open", "ADDRESS": "141 Bassett Lane", "RINK_SIZE": "Full", "LABEL": "Kennedy Memorial Rink", "PHONE": "(508) 790-6345", "TOWN_ID": 20, "RINK_ID": 338, "FACIL_TYPE": "Public", "FACIL_NAME": "Lt. Joseph P. Kennedy Memorial Rink", "CITY_TOWN": "Barnstable-Hyannis"}},{"geometry": {"type": "Point", "coordinates": [-71.119847299347583, 42.667763619114041]}, "type": "Feature", "id": 32, "properties": {"FACIL_STAT": "Open", "ADDRESS": "315 Turnpike Rd", "RINK_SIZE": "Full", "LABEL": "Volpe Arena", "PHONE": "(978) 837-5000", "TOWN_ID": 210, "RINK_ID": 331, "FACIL_TYPE": "School", "FACIL_NAME": "Merrimack College, Volpe Arena", "CITY_TOWN": "North Andover"}},{"geometry": {"type": "Point", "coordinates": [-71.431092202419975, 42.688592423082952]}, "type": "Feature", "id": 33, "properties": {"FACIL_STAT": "Open", "ADDRESS": "355 Middlesex Rd. (Rt. 3A)", "RINK_SIZE": "Full", "LABEL": "Skate 3  Blue Rink", "PHONE": "(978) 649-7912", "TOWN_ID": 301, "RINK_ID": 332, "FACIL_TYPE": "Public", "FACIL_NAME": "Skate 3  Blue Rink", "CITY_TOWN": "Tyngsboroouh"}},{"geometry": {"type": "Point", "coordinates": [-70.591937070705768, 41.418969041223889]}, "type": "Feature", "id": 34, "properties": {"FACIL_STAT": "Open", "ADDRESS": "Edgartown-Vineyard Haven Rd.", "RINK_SIZE": "Full", "LABEL": "Martha's Vineyard Arena", "PHONE": "(508) 693-5329", "TOWN_ID": 296, "RINK_ID": 333, "FACIL_TYPE": "Public", "FACIL_NAME": "Martha's Vineyard Arena", "CITY_TOWN": "Oak Bluffs-Vineyard Haven"}},{"geometry": {"type": "Point", "coordinates": [-71.218829515293848, 42.359010856813853]}, "type": "Feature", "id": 35, "properties": {"FACIL_STAT": "Open", "ADDRESS": "250 Waltham St.", "RINK_SIZE": "Full", "LABEL": "Coffin Sports Center", "PHONE": "(617) 630-2393", "TOWN_ID": 207, "RINK_ID": 334, "FACIL_TYPE": "School", "FACIL_NAME": "Fessenden School, Coffin Sports Center", "CITY_TOWN": "West Newton"}},{"geometry": {"type": "Point", "coordinates": [-70.734494130734888, 42.013751224261334]}, "type": "Feature", "id": 36, "properties": {"FACIL_STAT": "Open", "ADDRESS": "188 Summer Street", "RINK_SIZE": "Full", "LABEL": "The Bog", "PHONE": "(781) 585-2111", "TOWN_ID": 145, "RINK_ID": 335, "FACIL_TYPE": "Public", "FACIL_NAME": "The Bog", "CITY_TOWN": "Kingston"}},{"geometry": {"type": "Point", "coordinates": [-71.13088611123986, 42.490788772248834]}, "type": "Feature", "id": 37, "properties": {"FACIL_STAT": "Open", "ADDRESS": "270 Salem St", "RINK_SIZE": "Full", "LABEL": "Holland Arena", "PHONE": "(781) 932-7465", "TOWN_ID": 347, "RINK_ID": 337, "FACIL_TYPE": "Public", "FACIL_NAME": "Holland Arena", "CITY_TOWN": "Woburn"}},{"geometry": {"type": "Point", "coordinates": [-72.533386306164289, 42.389416457101753]}, "type": "Feature", "id": 38, "properties": {"FACIL_STAT": "Open", "ADDRESS": "Commonwealth Ave.", "RINK_SIZE": "Full", "LABEL": "UMASS Mullins Center", "PHONE": "(413) 545-3990", "TOWN_ID": 8, "RINK_ID": 172, "FACIL_TYPE": "School", "FACIL_NAME": "UMASS Mullins Center", "CITY_TOWN": "Amherst"}},{"geometry": {"type": "Point", "coordinates": [-71.91613376769763, 42.634067903726752]}, "type": "Feature", "id": 39, "properties": {"FACIL_STAT": "Open", "ADDRESS": "39 School St.", "RINK_SIZE": "Full", "LABEL": "Iorio Arena", "PHONE": "(978) 827-7800", "TOWN_ID": 11, "RINK_ID": 177, "FACIL_TYPE": "School", "FACIL_NAME": "Cushing Academy, Iorio Arena", "CITY_TOWN": "Ashburnham"}},{"geometry": {"type": "Point", "coordinates": [-71.084392486666331, 42.341291012469775]}, "type": "Feature", "id": 40, "properties": {"FACIL_STAT": "Open", "ADDRESS": "238 St. Botolph St.", "RINK_SIZE": "Full", "LABEL": "Matthews Arena", "PHONE": "(617) 373-2705", "TOWN_ID": 35, "RINK_ID": 183, "FACIL_TYPE": "School", "FACIL_NAME": "Northeastern University, Matthews Arena", "CITY_TOWN": "Boston"}},{"geometry": {"type": "Point", "coordinates": [-71.491372415254631, 42.476793389446229]}, "type": "Feature", "id": 41, "properties": {"FACIL_STAT": "Open", "ADDRESS": "34 Mass. Ave. (Rt. 111)", "RINK_SIZE": "Full", "LABEL": "Nashoba Valley Olympia 1", "PHONE": "(978) 263-3020", "TOWN_ID": 37, "RINK_ID": 189, "FACIL_TYPE": "Public", "FACIL_NAME": "Nashoba Valley Olympia 1", "CITY_TOWN": "Boxborough"}},{"geometry": {"type": "Point", "coordinates": [-71.134280183527466, 42.311732035001]}, "type": "Feature", "id": 42, "properties": {"FACIL_STAT": "Open", "ADDRESS": "15 Newton St.", "RINK_SIZE": "Full", "LABEL": "Lars Anderson Park Rink", "TOWN_ID": 46, "RINK_ID": 195, "FACIL_TYPE": "Public", "FACIL_NAME": "Lars Anderson Park Rink (outdoor)", "CITY_TOWN": "Brookline"}},{"geometry": {"type": "Point", "coordinates": [-71.096618967127853, 42.358618151236698]}, "type": "Feature", "id": 43, "properties": {"FACIL_STAT": "Open", "ADDRESS": "120 Vassar St.", "RINK_SIZE": "Full", "LABEL": "Johnson Ice Rink", "PHONE": "(617) 452-4153", "TOWN_ID": 49, "RINK_ID": 199, "FACIL_TYPE": "School", "FACIL_NAME": "MIT, Johnson Athletic Center", "CITY_TOWN": "Cambridge"}},{"geometry": {"type": "Point", "coordinates": [-71.368005915046894, 42.499581072405846]}, "type": "Feature", "id": 44, "properties": {"FACIL_STAT": "Open", "ADDRESS": "1400 Lowell Rd", "RINK_SIZE": "Full", "LABEL": "Pratt Ice Rink", "PHONE": "(978) 369-2550", "TOWN_ID": 67, "RINK_ID": 206, "FACIL_TYPE": "School", "FACIL_NAME": "Middlesex School, Pratt Ice Rink", "CITY_TOWN": "Concord"}},{"geometry": {"type": "Point", "coordinates": [-71.342991406325879, 42.677272389512837]}, "type": "Feature", "id": 45, "properties": {"FACIL_STAT": "Open", "ADDRESS": "1734 Lakeview Ave.", "RINK_SIZE": "Mini", "LABEL": "Ice Huts Mini Rink", "PHONE": "(978) 957-9037", "TOWN_ID": 79, "RINK_ID": 211, "FACIL_TYPE": "Public", "FACIL_NAME": "Ice Huts Mini Rink", "CITY_TOWN": "Dracut"}},{"geometry": {"type": "Point", "coordinates": [-71.783510319503506, 42.594444706830636]}, "type": "Feature", "id": 46, "properties": {"FACIL_STAT": "Open", "ADDRESS": "1000 John Fitch Hwy.", "RINK_SIZE": "Full", "LABEL": "Carmelita Landry Arena", "PHONE": "(978) 345-7593", "TOWN_ID": 97, "RINK_ID": 218, "FACIL_TYPE": "Public", "FACIL_NAME": "Carmelita Landry Arena", "CITY_TOWN": "Fitchburg"}},{"geometry": {"type": "Point", "coordinates": [-71.585316725631102, 42.595406225988768]}, "type": "Feature", "id": 47, "properties": {"FACIL_STAT": "Open", "ADDRESS": "Farmers Row", "RINK_SIZE": "Full", "LABEL": "Groton School, New Rink #1", "PHONE": "(978) 448-7549", "TOWN_ID": 115, "RINK_ID": 225, "FACIL_TYPE": "School", "FACIL_NAME": "Groton School, New Rink #1", "CITY_TOWN": "Groton"}},{"geometry": {"type": "Point", "coordinates": [-70.906548299202328, 42.175783216350915]}, "type": "Feature", "id": 48, "properties": {"FACIL_STAT": "Open", "ADDRESS": "75 Recreation Park Dr.", "RINK_SIZE": "Full", "LABEL": "Pilgrim Skating Arena 2", "PHONE": "(781) 749-6660", "TOWN_ID": 131, "RINK_ID": 231, "FACIL_TYPE": "Public", "FACIL_NAME": "Pilgrim Skating Arena 2", "CITY_TOWN": "Hingham"}},{"geometry": {"type": "Point", "coordinates": [-70.768083376328789, 41.709389632755233]}, "type": "Feature", "id": 49, "properties": {"FACIL_STAT": "Open", "ADDRESS": "66 Front St.", "RINK_SIZE": "Full", "LABEL": "Travis Roy Rink", "PHONE": "(508) 478-2000", "TOWN_ID": 169, "RINK_ID": 239, "FACIL_TYPE": "School", "FACIL_NAME": "Tabor Academy, Travis Roy Rink", "CITY_TOWN": "Marion"}},{"geometry": {"type": "Point", "coordinates": [-71.229819496934581, 42.687527965986959]}, "type": "Feature", "id": 50, "properties": {"FACIL_STAT": "Open", "ADDRESS": "687 Lowell St., Unit #4", "RINK_SIZE": "Mini", "LABEL": "Hockey Development Mini Rink", "PHONE": "(978) 687-2121", "TOWN_ID": 181, "RINK_ID": 248, "FACIL_TYPE": "Public", "FACIL_NAME": "Hockey Development Mini Rink", "CITY_TOWN": "Methuen"}},{"geometry": {"type": "Point", "coordinates": [-71.086558804291855, 42.709102920419525]}, "type": "Feature", "id": 51, "properties": {"FACIL_STAT": "Open", "ADDRESS": "1160 Great Pond Rd.", "RINK_SIZE": "Full", "LABEL": "Brooks School Arena", "PHONE": "(978) 725-6224", "TOWN_ID": 210, "RINK_ID": 258, "FACIL_TYPE": "School", "FACIL_NAME": "Brooks School Arena", "CITY_TOWN": "North Andover"}},{"geometry": {"type": "Point", "coordinates": [-70.804391548925622, 42.050900659510738]}, "type": "Feature", "id": 52, "properties": {"FACIL_STAT": "Open", "ADDRESS": "132 Hobomock St.", "RINK_SIZE": "Full", "LABEL": "Hobomock Arena Rink II", "PHONE": "(781) 294-0260", "TOWN_ID": 231, "RINK_ID": 264, "FACIL_TYPE": "Public", "FACIL_NAME": "Hobomock Arena Rink II", "CITY_TOWN": "Pembroke"}},{"geometry": {"type": "Point", "coordinates": [-70.917261930649133, 42.147947083838396]}, "type": "Feature", "id": 53, "properties": {"FACIL_STAT": "Open", "ADDRESS": "180 VFW Dr.", "RINK_SIZE": "Full", "LABEL": "Massports Club, Bavis Arena", "PHONE": "(781) 982-7070", "TOWN_ID": 251, "RINK_ID": 274, "FACIL_TYPE": "Public", "FACIL_NAME": "Massports Club, Bavis Arena", "CITY_TOWN": "Rockland"}},{"geometry": {"type": "Point", "coordinates": [-71.02542906973386, 42.47224153551867]}, "type": "Feature", "id": 54, "properties": {"FACIL_STAT": "Open", "ADDRESS": "953 Broadway (Rt. 1)", "RINK_SIZE": "Full", "LABEL": "Hockeytown USA North Rink", "PHONE": "(781) 233-3666", "TOWN_ID": 262, "RINK_ID": 278, "FACIL_TYPE": "Public", "FACIL_NAME": "Hockeytown USA North Rink", "CITY_TOWN": "Saugus"}},{"geometry": {"type": "Point", "coordinates": [-71.113214558204433, 42.481266750181604]}, "type": "Feature", "id": 55, "properties": {"FACIL_STAT": "Open", "ADDRESS": "101 Montvale Ave.", "RINK_SIZE": "Full", "LABEL": "Stoneham Arena", "PHONE": "(781) 279-2629", "TOWN_ID": 284, "RINK_ID": 286, "FACIL_TYPE": "Public", "FACIL_NAME": "Stoneham Arena", "CITY_TOWN": "Stoneham"}},{"geometry": {"type": "Point", "coordinates": [-71.431342575970149, 42.688720940204867]}, "type": "Feature", "id": 56, "properties": {"FACIL_STAT": "Open", "ADDRESS": "355 Middlesex Rd. (Rt. 3A)", "RINK_SIZE": "Full", "LABEL": "Skate 3 Red Rink", "PHONE": "(978) 649-7912", "TOWN_ID": 301, "RINK_ID": 291, "FACIL_TYPE": "Public", "FACIL_NAME": "Skate 3 Red Rink", "CITY_TOWN": "Tyngsborough"}},{"geometry": {"type": "Point", "coordinates": [-72.619537543073477, 42.13809634134256]}, "type": "Feature", "id": 57, "properties": {"FACIL_STAT": "Open", "ADDRESS": "125 Capitol St.", "RINK_SIZE": "Full", "LABEL": "Springfield Olympia Ice 3", "PHONE": "(413) 736-8100", "TOWN_ID": 325, "RINK_ID": 297, "FACIL_TYPE": "Public", "FACIL_NAME": "Springfield Olympia Ice 3", "CITY_TOWN": "West Springfield"}},{"geometry": {"type": "Point", "coordinates": [-72.748514168893223, 42.112610447996751]}, "type": "Feature", "id": 58, "properties": {"FACIL_STAT": "Open", "ADDRESS": "21 S. Broad St.", "RINK_SIZE": "Full", "LABEL": "Amelia Park Arena", "PHONE": "(413) 568-2503", "TOWN_ID": 329, "RINK_ID": 302, "FACIL_TYPE": "Public", "FACIL_NAME": "Amelia Park Arena", "CITY_TOWN": "Westfield"}},{"geometry": {"type": "Point", "coordinates": [-72.045451389695415, 42.683324768301176]}, "type": "Feature", "id": 59, "properties": {"FACIL_STAT": "Open", "ADDRESS": "155 Central St.", "RINK_SIZE": "Full", "LABEL": "Robinson-Broadhurst Comm. Rink", "PHONE": "(978) 297-0869", "TOWN_ID": 343, "RINK_ID": 307, "FACIL_TYPE": "Public", "FACIL_NAME": "Robinson-Broadhurst Community Rink", "CITY_TOWN": "Winchendon"}},{"geometry": {"type": "Point", "coordinates": [-71.798956421871139, 42.264921839065288]}, "type": "Feature", "id": 60, "properties": {"FACIL_STAT": "Open", "ADDRESS": "50 Foster St.", "RINK_SIZE": "Full", "LABEL": "DCU Center", "PHONE": "(508) 755-6800", "TOWN_ID": 348, "RINK_ID": 312, "FACIL_TYPE": "Public", "FACIL_NAME": "DCU Center", "CITY_TOWN": "Worcester"}},{"geometry": {"type": "Point", "coordinates": [-70.292966070486486, 41.653441779180199]}, "type": "Feature", "id": 61, "properties": {"FACIL_STAT": "Open", "ADDRESS": "141 Bassett Lane", "RINK_SIZE": "Full", "LABEL": "Patrick M. Butler Rink", "PHONE": "(508) 790-6345", "TOWN_ID": 20, "RINK_ID": 330, "FACIL_TYPE": "Public", "FACIL_NAME": "Patrick M. Butler Rink", "CITY_TOWN": "Barnstable-Hyannis"}},{"geometry": {"type": "Point", "coordinates": [-71.23951617649351, 42.112713541597685]}, "type": "Feature", "id": 62, "properties": {"FACIL_STAT": "Open", "ADDRESS": "2130 Providence Hwy. (Rt. 1)", "RINK_SIZE": "Full", "LABEL": "Iorio Arena Olympic Rink", "PHONE": "(508) 660-2005", "TOWN_ID": 307, "RINK_ID": 293, "FACIL_TYPE": "Public", "FACIL_NAME": "Iorio Arena Olympic Rink", "CITY_TOWN": "Walpole"}},{"geometry": {"type": "Point", "coordinates": [-72.518929870386813, 42.36775314159609]}, "type": "Feature", "id": 63, "properties": {"FACIL_STAT": "Open", "ADDRESS": "200 S. Pleasant St.", "RINK_SIZE": "Full", "LABEL": "Amherst College, ORR Rink", "PHONE": "(413) 542-2274", "TOWN_ID": 8, "RINK_ID": 171, "FACIL_TYPE": "School", "FACIL_NAME": "Amherst College, ORR Rink", "CITY_TOWN": "Amherst"}},{"geometry": {"type": "Point", "coordinates": [-72.533809982156029, 42.390503501798243]}, "type": "Feature", "id": 64, "properties": {"FACIL_STAT": "Open", "ADDRESS": "Commonwealth Ave.", "RINK_SIZE": "Full", "LABEL": "UMASS Practice Rink", "PHONE": "(413) 545-3990", "TOWN_ID": 8, "RINK_ID": 173, "FACIL_TYPE": "School", "FACIL_NAME": "UMASS Practice Rink", "CITY_TOWN": "Amherst"}},{"geometry": {"type": "Point", "coordinates": [-71.129300136531498, 42.642609088000981]}, "type": "Feature", "id": 65, "properties": {"FACIL_STAT": "Open", "ADDRESS": "254 South Main Street", "RINK_SIZE": "Full", "LABEL": "Ted Harrison Rink", "PHONE": "(978) 684-7200", "TOWN_ID": 9, "RINK_ID": 174, "FACIL_TYPE": "School", "FACIL_NAME": "Phillips Academy Ted Harrison Rink", "CITY_TOWN": "Andover"}},{"geometry": {"type": "Point", "coordinates": [-71.129211451636593, 42.642201363401391]}, "type": "Feature", "id": 66, "properties": {"FACIL_STAT": "Open", "ADDRESS": "254 South Main Street", "RINK_SIZE": "Full", "LABEL": "South Rink", "PHONE": "(978) 684-7200", "TOWN_ID": 9, "RINK_ID": 175, "FACIL_TYPE": "School", "FACIL_NAME": "Phillips Academy South Rink", "CITY_TOWN": "Andover"}},{"geometry": {"type": "Point", "coordinates": [-71.173030120553676, 42.425469121238791]}, "type": "Feature", "id": 67, "properties": {"FACIL_STAT": "Open", "ADDRESS": "422 Summer St.", "RINK_SIZE": "Full", "LABEL": "Ed Burns Arena", "PHONE": "(781) 316-3880", "TOWN_ID": 10, "RINK_ID": 176, "FACIL_TYPE": "DCRP", "FACIL_NAME": "Ed Burns Arena", "CITY_TOWN": "Arlington"}},{"geometry": {"type": "Point", "coordinates": [-71.846868882830691, 42.198306744283251]}, "type": "Feature", "id": 68, "properties": {"FACIL_STAT": "Open", "ADDRESS": "400 Oxford St. North", "RINK_SIZE": "Full", "LABEL": "Horgan Rink", "PHONE": "(508) 832-7201", "TOWN_ID": 17, "RINK_ID": 178, "FACIL_TYPE": "DCRP", "FACIL_NAME": "Daniel S. Horgan Memorial Skating Rink", "LEGIS": "Acts 1974, Chapter 235", "CITY_TOWN": "Auburn"}},{"geometry": {"type": "Point", "coordinates": [-71.170059060647361, 42.395211961042527]}, "type": "Feature", "id": 69, "properties": {"FACIL_STAT": "Open", "ADDRESS": "297 Concord Ave.", "RINK_SIZE": "Full", "LABEL": "\"Skip\" Viglirolo Ice Rink", "PHONE": "(617) 489-2483", "TOWN_ID": 26, "RINK_ID": 179, "FACIL_TYPE": "Public", "FACIL_NAME": "\"Skip\" Viglirolo Ice Rink", "CITY_TOWN": "Belmont"}},{"geometry": {"type": "Point", "coordinates": [-71.184931407269204, 42.406188574197586]}, "type": "Feature", "id": 70, "properties": {"FACIL_STAT": "Open", "ADDRESS": "350 Prospect St", "RINK_SIZE": "Full", "LABEL": "Keller Rink", "PHONE": "(617) 484-4410", "TOWN_ID": 26, "RINK_ID": 180, "FACIL_TYPE": "School", "FACIL_NAME": "Belmont Hill School, Keller Rink", "CITY_TOWN": "Belmont"}},{"geometry": {"type": "Point", "coordinates": [-71.274697914090723, 42.561547738189589]}, "type": "Feature", "id": 71, "properties": {"FACIL_STAT": "Open", "ADDRESS": "Good St.", "RINK_SIZE": "Full", "LABEL": "Hallenborg Pavilion", "PHONE": "(978) 436-9521", "TOWN_ID": 31, "RINK_ID": 181, "FACIL_TYPE": "School", "FACIL_NAME": "High School, Hallenborg Pavilion", "CITY_TOWN": "Billerica"}},{"geometry": {"type": "Point", "coordinates": [-71.307771816657905, 42.588855857603164]}, "type": "Feature", "id": 72, "properties": {"FACIL_STAT": "Open", "ADDRESS": "2 Brick Kiln Rd.", "RINK_SIZE": "Full", "LABEL": "Chelmsford Forum", "PHONE": "(978) 670-3700", "TOWN_ID": 31, "RINK_ID": 182, "FACIL_TYPE": "Public", "FACIL_NAME": "Chelmsford Forum", "CITY_TOWN": "Billerica"}},{"geometry": {"type": "Point", "coordinates": [-71.061910616982445, 42.366410303176224]}, "type": "Feature", "id": 73, "properties": {"FACIL_STAT": "Open", "ADDRESS": "100 Legends Way", "RINK_SIZE": "Full", "LABEL": "TD Garden", "PHONE": "(617) 624-1300", "TOWN_ID": 35, "RINK_ID": 184, "FACIL_TYPE": "Public", "FACIL_NAME": "TD Garden", "CITY_TOWN": "Boston"}},{"geometry": {"type": "Point", "coordinates": [-71.039978237776964, 42.315265156848348]}, "type": "Feature", "id": 74, "properties": {"FACIL_STAT": "Open", "ADDRESS": "100 William T Morrissey Blvd.", "RINK_SIZE": "Full", "LABEL": "UMass Boston, Clark Arena", "PHONE": "(617) 287-7801", "TOWN_ID": 35, "RINK_ID": 185, "FACIL_TYPE": "School", "FACIL_NAME": "UMass Boston, Clark Arena", "CITY_TOWN": "Boston"}},{"geometry": {"type": "Point", "coordinates": [-71.117747572815873, 42.35228152699905]}, "type": "Feature", "id": 75, "properties": {"FACIL_STAT": "Open", "ADDRESS": "925 Commonwealth Ave.", "RINK_SIZE": "Full", "LABEL": "BU, Agganis Arena", "PHONE": "(617) 358-7000", "TOWN_ID": 35, "RINK_ID": 186, "FACIL_TYPE": "School", "FACIL_NAME": "BU, Agganis Arena", "CITY_TOWN": "Boston"}},{"geometry": {"type": "Point", "coordinates": [-71.120355182606147, 42.353985138633433]}, "type": "Feature", "id": 76, "properties": {"FACIL_STAT": "Open", "ADDRESS": "285 Babcock St.", "RINK_SIZE": "Full", "LABEL": "BU, Walter Brown Arena", "PHONE": "(617) 353-4629", "TOWN_ID": 35, "RINK_ID": 187, "FACIL_TYPE": "School", "FACIL_NAME": "BU, Walter Brown Arena", "CITY_TOWN": "Boston"}},{"geometry": {"type": "Point", "coordinates": [-70.578412166820101, 41.750683616326789]}, "type": "Feature", "id": 77, "properties": {"FACIL_STAT": "Open", "ADDRESS": "231 Sandwich Rd.", "RINK_SIZE": "Full", "LABEL": "Gallo Ice Arena", "PHONE": "(508) 759-8904", "TOWN_ID": 36, "RINK_ID": 188, "FACIL_TYPE": "Public", "FACIL_NAME": "Gallo Ice Arena", "CITY_TOWN": "Bourne"}},{"geometry": {"type": "Point", "coordinates": [-71.491631536566132, 42.477079509813564]}, "type": "Feature", "id": 78, "properties": {"FACIL_STAT": "Open", "ADDRESS": "34 Mass. Ave. (Rt. 111)", "RINK_SIZE": "Full", "LABEL": "Nashoba Valley Olympia 3", "PHONE": "(978) 263-3020", "TOWN_ID": 37, "RINK_ID": 190, "FACIL_TYPE": "Public", "FACIL_NAME": "Nashoba Valley Olympia 3", "CITY_TOWN": "Boxborough"}},{"geometry": {"type": "Point", "coordinates": [-71.491307517744431, 42.477354873153168]}, "type": "Feature", "id": 79, "properties": {"FACIL_STAT": "Open", "ADDRESS": "34 Mass. Ave. (Rt. 111)", "RINK_SIZE": "Full", "LABEL": "Nashoba Valley Olympia 2", "PHONE": "(978) 263-3020", "TOWN_ID": 37, "RINK_ID": 191, "FACIL_TYPE": "Public", "FACIL_NAME": "Nashoba Valley Olympia 2", "CITY_TOWN": "Boxborough"}},{"geometry": {"type": "Point", "coordinates": [-70.970881841847316, 41.952525782099926]}, "type": "Feature", "id": 80, "properties": {"FACIL_STAT": "Open", "ADDRESS": "20 Bedford Park", "RINK_SIZE": "Full", "LABEL": "Bridgewater Ice Arena NHL", "PHONE": "(508) 279-0600", "TOWN_ID": 42, "RINK_ID": 192, "FACIL_TYPE": "Public", "FACIL_NAME": "Bridgewater Ice Arena NHL", "CITY_TOWN": "Bridgewater"}},{"geometry": {"type": "Point", "coordinates": [-70.971279714723565, 41.952849590688963]}, "type": "Feature", "id": 81, "properties": {"FACIL_STAT": "Open", "ADDRESS": "20 Bedford Park", "RINK_SIZE": "Full", "LABEL": "Bridgewater Ice Arena AHL", "PHONE": "(508) 279-0600", "TOWN_ID": 42, "RINK_ID": 193, "FACIL_TYPE": "Public", "FACIL_NAME": "Bridgewater Ice Arena AHL", "CITY_TOWN": "Bridgewater"}},{"geometry": {"type": "Point", "coordinates": [-71.043351552398434, 42.064638695458676]}, "type": "Feature", "id": 82, "properties": {"FACIL_STAT": "Open", "ADDRESS": "476 Forest Ave.", "RINK_SIZE": "Full", "LABEL": "Asiaf Rink", "PHONE": "(508) 583-6804", "TOWN_ID": 44, "RINK_ID": 194, "FACIL_TYPE": "DCRP", "FACIL_NAME": "Representative John G. Asiaf Skating Rink", "LEGIS": "Acts 1967, Chapter 242", "CITY_TOWN": "Brockton"}},{"geometry": {"type": "Point", "coordinates": [-71.136896208047858, 42.306996129362012]}, "type": "Feature", "id": 83, "properties": {"FACIL_STAT": "Open", "ADDRESS": "20 Newton St.", "RINK_SIZE": "Full", "LABEL": "Dexter School Rink", "PHONE": "(617) 522-5544", "TOWN_ID": 46, "RINK_ID": 196, "FACIL_TYPE": "School", "FACIL_NAME": "Dexter School, Athletic Facility Rink", "CITY_TOWN": "Brookline"}},{"geometry": {"type": "Point", "coordinates": [-71.137180155018484, 42.306507624049402]}, "type": "Feature", "id": 84, "properties": {"FACIL_STAT": "Open", "ADDRESS": "20 Newton St.", "RINK_SIZE": "Full", "LABEL": "Thorndike Rink", "PHONE": "(617) 522-5544", "TOWN_ID": 46, "RINK_ID": 197, "FACIL_TYPE": "School", "FACIL_NAME": "Dexter School, Thorndike Rink", "CITY_TOWN": "Brookline"}},{"geometry": {"type": "Point", "coordinates": [-71.184285991398866, 42.48229262877804]}, "type": "Feature", "id": 85, "properties": {"FACIL_STAT": "Open", "ADDRESS": "36 Ray Ave.", "RINK_SIZE": "Full", "LABEL": "Burlington Ice Palace", "PHONE": "(781) 272-9517", "TOWN_ID": 48, "RINK_ID": 198, "FACIL_TYPE": "Public", "FACIL_NAME": "Burlington Ice Palace", "CITY_TOWN": "Burlington"}},{"geometry": {"type": "Point", "coordinates": [-71.084546596730249, 42.373065846398063]}, "type": "Feature", "id": 86, "properties": {"FACIL_STAT": "Open", "ADDRESS": "155 Gore St.", "RINK_SIZE": "Full", "LABEL": "Simoni Rink", "PHONE": "(617) 354-9523", "TOWN_ID": 49, "RINK_ID": 201, "FACIL_TYPE": "DCRP", "FACIL_NAME": "Reverend Romano Simoni Skating Rink", "LEGIS": "Acts 1971, Chapter 9", "CITY_TOWN": "Cambridge"}},{"geometry": {"type": "Point", "coordinates": [-71.075354798519982, 42.163855504042793]}, "type": "Feature", "id": 87, "properties": {"FACIL_STAT": "Open", "ADDRESS": "5 Carver Circle", "RINK_SIZE": "Full", "LABEL": "Sportsplex", "PHONE": "(781) 821-0304", "TOWN_ID": 50, "RINK_ID": 202, "FACIL_TYPE": "Public", "FACIL_NAME": "Sportsplex", "CITY_TOWN": "Canton"}},{"geometry": {"type": "Point", "coordinates": [-71.117037120214732, 42.191009736675838]}, "type": "Feature", "id": 88, "properties": {"FACIL_STAT": "Open", "ADDRESS": "2167 Washington St.", "RINK_SIZE": "Full", "LABEL": "Metropolis Rink", "PHONE": "(781) 575-6660", "TOWN_ID": 50, "RINK_ID": 203, "FACIL_TYPE": "DCRP", "FACIL_NAME": "John P. Metropolis Skating Rink", "LEGIS": "Acts 1972, Chapter 287", "CITY_TOWN": "Canton"}},{"geometry": {"type": "Point", "coordinates": [-71.425949632512655, 42.442854621118791]}, "type": "Feature", "id": 89, "properties": {"FACIL_STAT": "Open", "ADDRESS": "2320 Main St. (Rt. 62)", "RINK_SIZE": "Full", "LABEL": "Valley Sports Arena Rink #1", "PHONE": "(978) 369-8100", "TOWN_ID": 67, "RINK_ID": 204, "FACIL_TYPE": "Public", "FACIL_NAME": "Valley Sports Arena Rink #1", "CITY_TOWN": "Concord"}},{"geometry": {"type": "Point", "coordinates": [-71.4259870405958, 42.443190532523651]}, "type": "Feature", "id": 90, "properties": {"FACIL_STAT": "Open", "ADDRESS": "2320 Main St. (Rt. 62)", "RINK_SIZE": "Full", "LABEL": "Valley Sports Arena Rink #2", "PHONE": "(978) 369-8100", "TOWN_ID": 67, "RINK_ID": 205, "FACIL_TYPE": "Public", "FACIL_NAME": "Valley Sports Arena Rink #2", "CITY_TOWN": "Concord"}},{"geometry": {"type": "Point", "coordinates": [-71.18788014502762, 42.26054726679962]}, "type": "Feature", "id": 91, "properties": {"FACIL_STAT": "Open", "ADDRESS": "10 Campus Dr.", "RINK_SIZE": "Full", "LABEL": "Flood Omni Rink", "PHONE": "(781) 326-3700", "TOWN_ID": 73, "RINK_ID": 207, "FACIL_TYPE": "School", "FACIL_NAME": "Nobles & Greenough, Flood Omni Rink", "CITY_TOWN": "Dedham"}},{"geometry": {"type": "Point", "coordinates": [-72.597770662913334, 42.539659767259003]}, "type": "Feature", "id": 92, "properties": {"FACIL_STAT": "Open", "ADDRESS": "271 Pinenock St.", "RINK_SIZE": "Full", "LABEL": "Alfond Arena", "PHONE": "(413) 773-7312", "TOWN_ID": 74, "RINK_ID": 208, "FACIL_TYPE": "School", "FACIL_NAME": "Eaglebrook School, Alfond Arena", "CITY_TOWN": "Deerfield"}},{"geometry": {"type": "Point", "coordinates": [-72.60916711000678, 42.544789293314807]}, "type": "Feature", "id": 93, "properties": {"FACIL_STAT": "Open", "ADDRESS": "Albany St.", "RINK_SIZE": "Full", "LABEL": "Deerfield Academy Rink", "PHONE": "(413) 772-1526", "TOWN_ID": 74, "RINK_ID": 209, "FACIL_TYPE": "School", "FACIL_NAME": "Deerfield Academy", "CITY_TOWN": "Deerfield"}},{"geometry": {"type": "Point", "coordinates": [-70.14001060080885, 41.69211950639442]}, "type": "Feature", "id": 94, "properties": {"FACIL_STAT": "Open", "ADDRESS": "8 South Gages Way", "RINK_SIZE": "Full", "LABEL": "Tony Kent Arena", "PHONE": "(508) 760-2415", "TOWN_ID": 75, "RINK_ID": 210, "FACIL_TYPE": "Public", "FACIL_NAME": "Tony Kent Arena", "CITY_TOWN": "Dennis"}},{"geometry": {"type": "Point", "coordinates": [-71.342820279205384, 42.677597940086066]}, "type": "Feature", "id": 95, "properties": {"FACIL_STAT": "Open", "ADDRESS": "1734 Lakeview Ave.", "RINK_SIZE": "Full", "LABEL": "Ice Huts Main Rink", "PHONE": "(978) 957-9037", "TOWN_ID": 79, "RINK_ID": 212, "FACIL_TYPE": "Public", "FACIL_NAME": "Ice Huts Main Rink", "CITY_TOWN": "Dracut"}},{"geometry": {"type": "Point", "coordinates": [-72.676116027814317, 42.263238347793141]}, "type": "Feature", "id": 96, "properties": {"FACIL_STAT": "Open", "ADDRESS": "22 Park St.", "RINK_SIZE": "Full", "LABEL": "Lassone Rink", "PHONE": "(413) 529-3000", "TOWN_ID": 87, "RINK_ID": 213, "FACIL_TYPE": "School", "FACIL_NAME": "Williston Northampton School, Lassone Rink", "CITY_TOWN": "Easthampton"}},{"geometry": {"type": "Point", "coordinates": [-71.043490790070706, 42.412470178730722]}, "type": "Feature", "id": 97, "properties": {"FACIL_STAT": "Open", "ADDRESS": "65 Elm St.", "RINK_SIZE": "Full", "LABEL": "Allied Rink", "PHONE": "(617) 389-8684", "TOWN_ID": 93, "RINK_ID": 214, "FACIL_TYPE": "DCRP", "FACIL_NAME": "Everett Allied War Veterans' Memorial Recreation Center", "LEGIS": "Acts 1961, Chapter 461", "CITY_TOWN": "Everett"}},{"geometry": {"type": "Point", "coordinates": [-71.129029438657028, 41.713555968026746]}, "type": "Feature", "id": 98, "properties": {"FACIL_STAT": "Open", "ADDRESS": "272 Elsbree St.", "RINK_SIZE": "Full", "LABEL": "Driscoll Rink", "PHONE": "(508) 679-3274", "TOWN_ID": 95, "RINK_ID": 215, "FACIL_TYPE": "DCRP", "FACIL_NAME": "Arthur R. Driscoll Memorial Skating Rink", "LEGIS": "Acts 1972, Chapter 424", "CITY_TOWN": "Fall River"}},{"geometry": {"type": "Point", "coordinates": [-70.620177547305701, 41.561419718018819]}, "type": "Feature", "id": 99, "properties": {"FACIL_STAT": "Open", "ADDRESS": "9 Skating Lane, P.O. Box 325", "RINK_SIZE": "Full", "LABEL": "Falmouth Ice Arena", "PHONE": "(508) 548-9083", "TOWN_ID": 96, "RINK_ID": 216, "FACIL_TYPE": "Public", "FACIL_NAME": "Falmouth Ice Arena", "CITY_TOWN": "Falmouth"}},{"geometry": {"type": "Point", "coordinates": [-71.784402626210152, 42.594917112477667]}, "type": "Feature", "id": 100, "properties": {"FACIL_STAT": "Open", "ADDRESS": "1000 John Fitch Hwy.", "RINK_SIZE": "Full", "LABEL": "Wallace Civic Center", "PHONE": "(978) 345-7593", "TOWN_ID": 97, "RINK_ID": 217, "FACIL_TYPE": "Public", "FACIL_NAME": "George Wallace, Jr. Civic Center", "CITY_TOWN": "Fitchburg"}},{"geometry": {"type": "Point", "coordinates": [-71.430172021577249, 42.276329268008702]}, "type": "Feature", "id": 101, "properties": {"FACIL_STAT": "Open", "ADDRESS": "165 Fountain St.", "RINK_SIZE": "Full", "LABEL": "Loring Arena", "PHONE": "(508) 881-4064", "TOWN_ID": 100, "RINK_ID": 219, "FACIL_TYPE": "Public", "FACIL_NAME": "Edward E. Loring Arena", "CITY_TOWN": "Framingham"}},{"geometry": {"type": "Point", "coordinates": [-71.412878526479076, 42.093110162704761]}, "type": "Feature", "id": 102, "properties": {"FACIL_STAT": "Open", "ADDRESS": "910 Panther Way", "RINK_SIZE": "Full", "LABEL": "Pirelli Rink", "PHONE": "(508) 541-7024", "TOWN_ID": 101, "RINK_ID": 220, "FACIL_TYPE": "DCRP", "FACIL_NAME": "Staff Sergeant Robert Pirelli Veterans Memorial Rink", "LEGIS": "Acts 2008, Chapter 33", "CITY_TOWN": "Franklin"}},{"geometry": {"type": "Point", "coordinates": [-71.990827927458795, 42.580305038750261]}, "type": "Feature", "id": 103, "properties": {"FACIL_STAT": "Open", "ADDRESS": "45 Veterans Dr.", "RINK_SIZE": "Full", "LABEL": "Veterans Rink", "PHONE": "(978) 632-4310", "TOWN_ID": 103, "RINK_ID": 221, "FACIL_TYPE": "DCRP", "FACIL_NAME": "Gardner Veterans Skating Rink", "LEGIS": "Acts 1974, Chapter 236", "CITY_TOWN": "Gardner"}},{"geometry": {"type": "Point", "coordinates": [-70.672524607970914, 42.628258409174379]}, "type": "Feature", "id": 104, "properties": {"FACIL_STAT": "Open", "ADDRESS": "Dr. Osman Babson Rd.", "RINK_SIZE": "Full", "LABEL": "Dorothy Talbot Rink", "PHONE": "(978) 281-9856", "TOWN_ID": 107, "RINK_ID": 222, "FACIL_TYPE": "School", "FACIL_NAME": "Dorothy Talbot Memorial Rink", "CITY_TOWN": "Gloucester"}},{"geometry": {"type": "Point", "coordinates": [-72.596544282441457, 42.604362669908049]}, "type": "Feature", "id": 105, "properties": {"FACIL_STAT": "Open", "ADDRESS": "5 Barr Ave.", "RINK_SIZE": "Full", "LABEL": "Collins-Moylan Rink", "PHONE": "(413) 772-6891", "TOWN_ID": 114, "RINK_ID": 223, "FACIL_TYPE": "DCRP", "FACIL_NAME": "Collins-Moylan Memorial Skating Rink", "CITY_TOWN": "Greenfield"}},{"geometry": {"type": "Point", "coordinates": [-71.563815159747364, 42.602545466365385]}, "type": "Feature", "id": 106, "properties": {"FACIL_STAT": "Open", "ADDRESS": "56 Powder House Rd.", "RINK_SIZE": "Full", "LABEL": "Grant Rink", "PHONE": "(978) 448-6535", "TOWN_ID": 115, "RINK_ID": 224, "FACIL_TYPE": "School", "FACIL_NAME": "Lawrence Academy, Grant Rink", "CITY_TOWN": "Groton"}},{"geometry": {"type": "Point", "coordinates": [-71.586183967825818, 42.595291344328409]}, "type": "Feature", "id": 107, "properties": {"FACIL_STAT": "Open", "ADDRESS": "Farmers Row", "RINK_SIZE": "Full", "LABEL": "Groton School, Pratt Rink", "PHONE": "(978) 448-7549", "TOWN_ID": 115, "RINK_ID": 226, "FACIL_TYPE": "School", "FACIL_NAME": "Groton School, Pratt Rink", "CITY_TOWN": "Groton"}},{"geometry": {"type": "Point", "coordinates": [-70.88276862186855, 42.639277517894385]}, "type": "Feature", "id": 108, "properties": {"FACIL_STAT": "Open", "ADDRESS": "537 Highland St.", "RINK_SIZE": "Full", "LABEL": "Johnson Hockey Rink", "PHONE": "(978) 468-6232", "TOWN_ID": 119, "RINK_ID": 227, "FACIL_TYPE": "School", "FACIL_NAME": "Pingree School, Johnson Rink", "CITY_TOWN": "Hamilton"}},{"geometry": {"type": "Point", "coordinates": [-71.103792470651129, 42.785688875278964]}, "type": "Feature", "id": 109, "properties": {"FACIL_STAT": "Open", "ADDRESS": "229 Brook St.", "RINK_SIZE": "Full", "LABEL": "Veterans Rink", "PHONE": "(978) 373-9351", "TOWN_ID": 128, "RINK_ID": 228, "FACIL_TYPE": "DCRP", "FACIL_NAME": "Veterans Memorial Skating Rink", "CITY_TOWN": "Haverhill"}},{"geometry": {"type": "Point", "coordinates": [-70.906305432906578, 42.176164779634689]}, "type": "Feature", "id": 110, "properties": {"FACIL_STAT": "Open", "ADDRESS": "75 Recreation Park Dr.", "RINK_SIZE": "Full", "LABEL": "Pilgrim Skating Arena 3", "PHONE": "(781) 749-6660", "TOWN_ID": 131, "RINK_ID": 229, "FACIL_TYPE": "Public", "FACIL_NAME": "Pilgrim Skating Arena 3", "CITY_TOWN": "Hingham"}},{"geometry": {"type": "Point", "coordinates": [-70.90640949715366, 42.175973997732051]}, "type": "Feature", "id": 111, "properties": {"FACIL_STAT": "Open", "ADDRESS": "75 Recreation Park Dr.", "RINK_SIZE": "Full", "LABEL": "Pilgrim Skating Arena 1", "PHONE": "(781) 749-6660", "TOWN_ID": 131, "RINK_ID": 230, "FACIL_TYPE": "Public", "FACIL_NAME": "Pilgrim Skating Arena 1", "CITY_TOWN": "Hingham"}},{"geometry": {"type": "Point", "coordinates": [-72.619936963802218, 42.197599985738648]}, "type": "Feature", "id": 112, "properties": {"FACIL_STAT": "Open", "ADDRESS": "575 Maple St.", "RINK_SIZE": "Full", "LABEL": "Fitzpatrick Rink", "PHONE": "(413) 532-2929", "TOWN_ID": 137, "RINK_ID": 232, "FACIL_TYPE": "DCRP", "FACIL_NAME": "Henry J. Fitzpatrick Skating Rink", "LEGIS": "Acts 1972, Chapter 622", "CITY_TOWN": "Holyoke"}},{"geometry": {"type": "Point", "coordinates": [-71.15181443415841, 42.684608756641445]}, "type": "Feature", "id": 113, "properties": {"FACIL_STAT": "Open", "ADDRESS": "654 South Union St.", "RINK_SIZE": "Full", "LABEL": "Valley Forum", "PHONE": "(978) 557-5521", "TOWN_ID": 149, "RINK_ID": 233, "FACIL_TYPE": "Public", "FACIL_NAME": "Valley Forum", "CITY_TOWN": "Lawrence"}},{"geometry": {"type": "Point", "coordinates": [-71.238129987097949, 42.447653772349994]}, "type": "Feature", "id": 114, "properties": {"FACIL_STAT": "Open", "ADDRESS": "10 Lincoln St.", "RINK_SIZE": "Full", "LABEL": "Chase Skating Facility", "PHONE": "(781) 862-5575", "TOWN_ID": 155, "RINK_ID": 234, "FACIL_TYPE": "Public", "FACIL_NAME": "Hayden Recreation Center Rink", "CITY_TOWN": "Lexington"}},{"geometry": {"type": "Point", "coordinates": [-71.276338269500982, 42.634739179351349]}, "type": "Feature", "id": 115, "properties": {"FACIL_STAT": "Open", "ADDRESS": "382 Douglas Rd.", "RINK_SIZE": "Full", "LABEL": "Janas Rink", "PHONE": "(978) 454-6662", "TOWN_ID": 160, "RINK_ID": 235, "FACIL_TYPE": "DCRP", "FACIL_NAME": "John J. Janas Memorial Skating Rink", "LEGIS": "Acts 1972, Chapter 626", "CITY_TOWN": "Lowell"}},{"geometry": {"type": "Point", "coordinates": [-71.313195911449228, 42.650238355154947]}, "type": "Feature", "id": 116, "properties": {"FACIL_STAT": "Open", "ADDRESS": "300 Arcand Dr.", "RINK_SIZE": "Full", "LABEL": "Tsongas Arena", "PHONE": "(978) 848-6910", "TOWN_ID": 160, "RINK_ID": 236, "FACIL_TYPE": "Public", "FACIL_NAME": "Tsongas Arena", "CITY_TOWN": "Lowell"}},{"geometry": {"type": "Point", "coordinates": [-70.952838604814914, 42.457395093787206]}, "type": "Feature", "id": 117, "properties": {"FACIL_STAT": "Open", "ADDRESS": "182 Shepard St.", "RINK_SIZE": "Full", "LABEL": "Connery Rink", "PHONE": "(781) 599-9474", "TOWN_ID": 163, "RINK_ID": 237, "FACIL_TYPE": "DCRP", "FACIL_NAME": "William P. Connery, Sr. and Sons Memorial Rink", "LEGIS": "Vote of MDC 12/10/1970", "CITY_TOWN": "Lynn"}},{"geometry": {"type": "Point", "coordinates": [-71.063348901929544, 42.426604517569075]}, "type": "Feature", "id": 118, "properties": {"FACIL_STAT": "Open", "ADDRESS": "50 Holden St.", "RINK_SIZE": "Full", "LABEL": "Valley Forum II", "PHONE": "(781) 321-9554", "TOWN_ID": 165, "RINK_ID": 238, "FACIL_TYPE": "Public", "FACIL_NAME": "Valley Forum II", "CITY_TOWN": "Malden"}},{"geometry": {"type": "Point", "coordinates": [-71.595793847475889, 42.365332485507636]}, "type": "Feature", "id": 119, "properties": {"FACIL_STAT": "Open", "ADDRESS": "121 Donald Lynch Blvd.", "RINK_SIZE": "Full", "LABEL": "New England Sports Ctr-Rink 2", "PHONE": "(508) 229-2700", "TOWN_ID": 170, "RINK_ID": 240, "FACIL_TYPE": "Public", "FACIL_NAME": "New England Sports Center - Rink 2", "CITY_TOWN": "Marlborough"}},{"geometry": {"type": "Point", "coordinates": [-71.595975753875393, 42.364885166784326]}, "type": "Feature", "id": 120, "properties": {"FACIL_STAT": "Open", "ADDRESS": "121 Donald Lynch Blvd.", "RINK_SIZE": "Full", "LABEL": "New England Sports Ctr-Rink 3", "PHONE": "(508) 229-2700", "TOWN_ID": 170, "RINK_ID": 241, "FACIL_TYPE": "Public", "FACIL_NAME": "New England Sports Center - Rink 3", "CITY_TOWN": "Marlborough"}},{"geometry": {"type": "Point", "coordinates": [-71.551896426660036, 42.361738132242628]}, "type": "Feature", "id": 121, "properties": {"FACIL_STAT": "Open", "ADDRESS": "451 Bolton St.", "RINK_SIZE": "Full", "LABEL": "Navin Rink", "PHONE": "(508) 624-5580", "TOWN_ID": 170, "RINK_ID": 242, "FACIL_TYPE": "DCRP", "FACIL_NAME": "John J. Navin Skating Rink", "LEGIS": "Acts 1975, Chapter 8", "CITY_TOWN": "Marlborough"}},{"geometry": {"type": "Point", "coordinates": [-71.596343933554877, 42.365587435742277]}, "type": "Feature", "id": 122, "properties": {"FACIL_STAT": "Open", "ADDRESS": "121 Donald Lynch Blvd.", "RINK_SIZE": "Full", "LABEL": "New England Sports Ctr-Rink 1", "PHONE": "(508) 229-2700", "TOWN_ID": 170, "RINK_ID": 243, "FACIL_TYPE": "Public", "FACIL_NAME": "New England Sports Center - Rink 1", "CITY_TOWN": "Marlborough"}},{"geometry": {"type": "Point", "coordinates": [-71.59665156684143, 42.365114170817627]}, "type": "Feature", "id": 123, "properties": {"FACIL_STAT": "Open", "ADDRESS": "121 Donald Lynch Blvd.", "RINK_SIZE": "Full", "LABEL": "New England Sports Ctr-Rink 4", "PHONE": "(508) 229-2700", "TOWN_ID": 170, "RINK_ID": 244, "FACIL_TYPE": "Public", "FACIL_NAME": "New England Sports Center - Rink 4", "CITY_TOWN": "Marlborough"}},{"geometry": {"type": "Point", "coordinates": [-71.094426284165522, 42.40730444472419]}, "type": "Feature", "id": 124, "properties": {"FACIL_STAT": "Open", "ADDRESS": "3449 Veterans Pkwy.", "RINK_SIZE": "Full", "LABEL": "LoConte Rink", "PHONE": "(781) 395-9594", "TOWN_ID": 176, "RINK_ID": 245, "FACIL_TYPE": "DCRP", "FACIL_NAME": "Anthony A. LoConte Memorial Skating Rink", "CITY_TOWN": "Medford"}},{"geometry": {"type": "Point", "coordinates": [-71.09455774910694, 42.443153757342209]}, "type": "Feature", "id": 125, "properties": {"FACIL_STAT": "Open", "ADDRESS": "300 Elm St.", "RINK_SIZE": "Full", "LABEL": "Flynn Rink", "PHONE": "(781) 395-8492", "TOWN_ID": 176, "RINK_ID": 246, "FACIL_TYPE": "DCRP", "FACIL_NAME": "John W. Flynn Memorial Ice Skating Rink", "LEGIS": "Acts 1962, Chapter 404", "CITY_TOWN": "Medford"}},{"geometry": {"type": "Point", "coordinates": [-71.171019708820211, 42.733107716316525]}, "type": "Feature", "id": 126, "properties": {"FACIL_STAT": "Open", "ADDRESS": "1 Ranger Rd.", "RINK_SIZE": "Full", "LABEL": "Methuen High School Ice Rink", "PHONE": "(978) 681-1345", "TOWN_ID": 181, "RINK_ID": 247, "FACIL_TYPE": "School", "FACIL_NAME": "Methuen High School Rink", "CITY_TOWN": "Methuen"}},{"geometry": {"type": "Point", "coordinates": [-71.073157298549333, 42.257998288222097]}, "type": "Feature", "id": 127, "properties": {"FACIL_STAT": "Open", "ADDRESS": "170 Centre St.", "RINK_SIZE": "Full", "LABEL": "Roberts Rink", "PHONE": "(617) 898-2413", "TOWN_ID": 189, "RINK_ID": 249, "FACIL_TYPE": "School", "FACIL_NAME": "Milton Academy, Roberts Rink", "CITY_TOWN": "Milton"}},{"geometry": {"type": "Point", "coordinates": [-71.093521064181289, 42.24376798715911]}, "type": "Feature", "id": 128, "properties": {"FACIL_STAT": "Open", "ADDRESS": "11 Unquity Rd.", "RINK_SIZE": "Full", "LABEL": "Ulin Rink", "PHONE": "(617) 696-9869", "TOWN_ID": 189, "RINK_ID": 250, "FACIL_TYPE": "DCRP", "FACIL_NAME": "Max Ulin Memorial Skating Rink", "CITY_TOWN": "Milton"}},{"geometry": {"type": "Point", "coordinates": [-70.09728748490501, 41.269936936343633]}, "type": "Feature", "id": 129, "properties": {"FACIL_STAT": "Open", "ADDRESS": "1 Backus Lane.", "RINK_SIZE": "Full", "LABEL": "Nantucket Ice Arena", "PHONE": "(508) 228-2516", "TOWN_ID": 197, "RINK_ID": 251, "FACIL_TYPE": "Public", "FACIL_NAME": "Nantucket Ice Arena", "CITY_TOWN": "Nantucket"}},{"geometry": {"type": "Point", "coordinates": [-71.365208763187965, 42.271699969337625]}, "type": "Feature", "id": 130, "properties": {"FACIL_STAT": "Open", "ADDRESS": "35 Windsor Ave.", "RINK_SIZE": "Full", "LABEL": "West Suburban Arena", "PHONE": "(508) 655-1013", "TOWN_ID": 198, "RINK_ID": 252, "FACIL_TYPE": "Public", "FACIL_NAME": "West Suburban Arena", "CITY_TOWN": "Natick"}},{"geometry": {"type": "Point", "coordinates": [-71.206580254843729, 42.268245536763509]}, "type": "Feature", "id": 131, "properties": {"FACIL_STAT": "Open", "ADDRESS": "1191 Greendale Ave.", "RINK_SIZE": "Full", "LABEL": "Henry T. Lane Rink", "PHONE": "(781) 449-5208", "TOWN_ID": 199, "RINK_ID": 253, "FACIL_TYPE": "School", "FACIL_NAME": "St. Sebastians, Henry T. Lane Rink", "CITY_TOWN": "Needham"}},{"geometry": {"type": "Point", "coordinates": [-70.948411517325155, 41.647728717352223]}, "type": "Feature", "id": 132, "properties": {"FACIL_STAT": "Open", "ADDRESS": "310 Hathaway Blvd.", "RINK_SIZE": "Full", "LABEL": "Hetland Rink", "PHONE": "(508) 999-9051", "TOWN_ID": 201, "RINK_ID": 254, "FACIL_TYPE": "DCRP", "FACIL_NAME": "Stephen Hetland Memorial Skating Rink", "LEGIS": "Acts 1976, Chapter 111", "CITY_TOWN": "New Bedford"}},{"geometry": {"type": "Point", "coordinates": [-70.879872776229064, 42.808139402509397]}, "type": "Feature", "id": 133, "properties": {"FACIL_STAT": "Open", "ADDRESS": "28 Low St.", "RINK_SIZE": "Full", "LABEL": "Graf Rink", "PHONE": "(978) 462-8112", "TOWN_ID": 206, "RINK_ID": 255, "FACIL_TYPE": "DCRP", "FACIL_NAME": "Henry Graf, Jr. Skating Rink", "LEGIS": "Acts 1973, Chapter 995", "CITY_TOWN": "Newburyport"}},{"geometry": {"type": "Point", "coordinates": [-71.360912158573043, 42.133372319353256]}, "type": "Feature", "id": 134, "properties": {"FACIL_STAT": "Open", "ADDRESS": "1 Dean St.", "RINK_SIZE": "Full", "LABEL": "Norfolk Arena", "PHONE": "(508) 520-9200", "TOWN_ID": 208, "RINK_ID": 256, "FACIL_TYPE": "Public", "FACIL_NAME": "Norfolk Arena", "CITY_TOWN": "Norfolk"}},{"geometry": {"type": "Point", "coordinates": [-73.099461753765695, 42.667931917210559]}, "type": "Feature", "id": 135, "properties": {"FACIL_STAT": "Open", "ADDRESS": "1010 South Church St.", "RINK_SIZE": "Full", "LABEL": "Foote Vietnam Veterans Rink", "PHONE": "(413) 664-8185", "TOWN_ID": 209, "RINK_ID": 257, "FACIL_TYPE": "DCRP", "FACIL_NAME": "Peter W. Foote Vietnam Veterans Memorial Rink", "LEGIS": "Acts 2009, Chapter 130", "CITY_TOWN": "North Adams"}},{"geometry": {"type": "Point", "coordinates": [-72.479958654421267, 42.66593588153895]}, "type": "Feature", "id": 136, "properties": {"FACIL_STAT": "Open", "ADDRESS": "11 Mt. Hermon Rd.", "RINK_SIZE": "Full", "LABEL": "McCollum Arena", "PHONE": "(413) 498-3444", "TOWN_ID": 217, "RINK_ID": 259, "FACIL_TYPE": "School", "FACIL_NAME": "Mt. Hermon School, McCollum Arena", "CITY_TOWN": "Northfield"}},{"geometry": {"type": "Point", "coordinates": [-71.179291963902116, 42.187103638817867]}, "type": "Feature", "id": 137, "properties": {"FACIL_STAT": "Open", "ADDRESS": "236 Access Rd.", "RINK_SIZE": "Mini", "LABEL": "The Ponds, Mini Rink", "PHONE": "(781) 762-9055", "TOWN_ID": 220, "RINK_ID": 260, "FACIL_TYPE": "Public", "FACIL_NAME": "The Ponds, Mini Rink", "CITY_TOWN": "Norwood"}},{"geometry": {"type": "Point", "coordinates": [-70.000457031976069, 41.774415513640314]}, "type": "Feature", "id": 138, "properties": {"FACIL_STAT": "Open", "ADDRESS": "23 O'Connor Way", "RINK_SIZE": "Full", "LABEL": "Charles Moore Arena", "PHONE": "(508) 255-5902", "TOWN_ID": 224, "RINK_ID": 261, "FACIL_TYPE": "Public", "FACIL_NAME": "Charles Moore Arena", "CITY_TOWN": "Orleans"}},{"geometry": {"type": "Point", "coordinates": [-70.97845288669707, 42.545950874183092]}, "type": "Feature", "id": 139, "properties": {"FACIL_STAT": "Open", "ADDRESS": "511 Lowell St.", "RINK_SIZE": "Full", "LABEL": "McVann-O'Keefe Rink", "PHONE": "(978) 535-2110", "TOWN_ID": 229, "RINK_ID": 262, "FACIL_TYPE": "DCRP", "FACIL_NAME": "James E. McVann and Louis F. O'Keefe Memorial Skating Rink", "LEGIS": "Acts 1972, Chapter 128", "CITY_TOWN": "Peabody"}},{"geometry": {"type": "Point", "coordinates": [-70.804340526576667, 42.051257881244055]}, "type": "Feature", "id": 140, "properties": {"FACIL_STAT": "Open", "ADDRESS": "132 Hobomock St.", "RINK_SIZE": "Full", "LABEL": "Hobomock Arena Rink I", "PHONE": "(781) 294-0260", "TOWN_ID": 231, "RINK_ID": 263, "FACIL_TYPE": "Public", "FACIL_NAME": "Hobomock Arena Rink I", "CITY_TOWN": "Pembroke"}},{"geometry": {"type": "Point", "coordinates": [-73.251742611166193, 42.452216755790324]}, "type": "Feature", "id": 141, "properties": {"FACIL_STAT": "Open", "ADDRESS": "16 Melville St.", "RINK_SIZE": "Full", "LABEL": "Boys-Girls Club Skating Arena", "PHONE": "(413) 448-8258", "TOWN_ID": 236, "RINK_ID": 265, "FACIL_TYPE": "Public", "FACIL_NAME": "Boys & Girls Club Skating Arena", "CITY_TOWN": "Pittsfield"}},{"geometry": {"type": "Point", "coordinates": [-70.657002282111719, 41.92577420834764]}, "type": "Feature", "id": 142, "properties": {"FACIL_STAT": "Open", "ADDRESS": "103 Long Pond Rd.", "RINK_SIZE": "Full", "LABEL": "Armstrong Rink", "PHONE": "(508) 746-8825", "TOWN_ID": 239, "RINK_ID": 266, "FACIL_TYPE": "DCRP", "FACIL_NAME": "John A. Armstrong Memorial Skating Rink", "LEGIS": "Acts 1972, Chapter 623", "CITY_TOWN": "Plymouth"}},{"geometry": {"type": "Point", "coordinates": [-71.029129406795391, 42.234538674913772]}, "type": "Feature", "id": 143, "properties": {"FACIL_STAT": "Open", "ADDRESS": "651 Willard St.", "RINK_SIZE": "Full", "LABEL": "Shea Rink", "PHONE": "(617) 472-9325", "TOWN_ID": 243, "RINK_ID": 267, "FACIL_TYPE": "DCRP", "FACIL_NAME": "Mayor William T. Shea Memorial Rink", "LEGIS": "Acts 1962, Chapter 204", "CITY_TOWN": "Quincy"}},{"geometry": {"type": "Point", "coordinates": [-70.993866127262535, 42.259612719690544]}, "type": "Feature", "id": 144, "properties": {"FACIL_STAT": "Open", "ADDRESS": "60 Murphy Memorial Dr.", "RINK_SIZE": "Full", "LABEL": "Quincy Youth Arena", "PHONE": "(617) 479-8371", "TOWN_ID": 243, "RINK_ID": 268, "FACIL_TYPE": "Public", "FACIL_NAME": "Quincy Youth Arena", "CITY_TOWN": "Quincy"}},{"geometry": {"type": "Point", "coordinates": [-71.035800010034407, 42.170247718825834]}, "type": "Feature", "id": 145, "properties": {"FACIL_STAT": "Open", "ADDRESS": "240 North St.", "RINK_SIZE": "Full", "LABEL": "Joseph Zapustas Arena", "PHONE": "(781) 961-0938", "TOWN_ID": 244, "RINK_ID": 269, "FACIL_TYPE": "Public", "FACIL_NAME": "Joseph Zapustas Arena", "CITY_TOWN": "Randolph"}},{"geometry": {"type": "Point", "coordinates": [-71.06779444432145, 41.970382289451607]}, "type": "Feature", "id": 146, "properties": {"FACIL_STAT": "Open", "ADDRESS": "1568 Broadway St.", "RINK_SIZE": "Full", "LABEL": "CDL Arena", "PHONE": "(508) 880-3311", "TOWN_ID": 245, "RINK_ID": 270, "FACIL_TYPE": "Public", "FACIL_NAME": "CDL Arena", "CITY_TOWN": "Raynham"}},{"geometry": {"type": "Point", "coordinates": [-71.084882677837541, 42.541231403435951]}, "type": "Feature", "id": 147, "properties": {"FACIL_STAT": "Open", "ADDRESS": "51 Symonds Way", "RINK_SIZE": "Full", "LABEL": "Burbank Area", "PHONE": "(781) 942-2271", "TOWN_ID": 246, "RINK_ID": 271, "FACIL_TYPE": "Public", "FACIL_NAME": "Burbank Area", "CITY_TOWN": "Reading"}},{"geometry": {"type": "Point", "coordinates": [-71.015560454182406, 42.403172862362219]}, "type": "Feature", "id": 148, "properties": {"FACIL_STAT": "Open", "ADDRESS": "850 Revere Beach Pkwy.", "RINK_SIZE": "Full", "LABEL": "Cronin Rink", "PHONE": "(781) 284-9491", "TOWN_ID": 248, "RINK_ID": 272, "FACIL_TYPE": "DCRP", "FACIL_NAME": "Staff Sergeant Paul W. Cronin Memorial Arena", "LEGIS": "Acts 1959, Chapter 29", "CITY_TOWN": "Revere"}},{"geometry": {"type": "Point", "coordinates": [-70.901419962212316, 42.108749738298698]}, "type": "Feature", "id": 149, "properties": {"FACIL_STAT": "Open", "ADDRESS": "599 Summer St.", "RINK_SIZE": "Full", "LABEL": "Rockland Rink", "PHONE": "(781) 878-5591", "TOWN_ID": 251, "RINK_ID": 273, "FACIL_TYPE": "Public", "FACIL_NAME": "Rockland Rink", "CITY_TOWN": "Rockland"}},{"geometry": {"type": "Point", "coordinates": [-70.917556847113858, 42.147754650536854]}, "type": "Feature", "id": 150, "properties": {"FACIL_STAT": "Open", "ADDRESS": "180 VFW Dr.", "RINK_SIZE": "Mini", "LABEL": "Massports Club, Mini Rink", "PHONE": "(781) 982-7070", "TOWN_ID": 251, "RINK_ID": 275, "FACIL_TYPE": "Public", "FACIL_NAME": "Massports Club, Mini Rink", "CITY_TOWN": "Rockland"}},{"geometry": {"type": "Point", "coordinates": [-70.895275381569007, 42.505359102516344]}, "type": "Feature", "id": 151, "properties": {"FACIL_STAT": "Open", "ADDRESS": "225 Canal St.", "RINK_SIZE": "Full", "LABEL": "Rockett Arena", "PHONE": "(978) 542-6565", "TOWN_ID": 258, "RINK_ID": 276, "FACIL_TYPE": "School", "FACIL_NAME": "Salem State College, Rockett Arena", "CITY_TOWN": "Salem"}},{"geometry": {"type": "Point", "coordinates": [-71.025527528890066, 42.471923516269875]}, "type": "Feature", "id": 152, "properties": {"FACIL_STAT": "Open", "ADDRESS": "953 Broadway (Rt. 1)", "RINK_SIZE": "Full", "LABEL": "Hockeytown USA South Rink", "PHONE": "(781) 233-3666", "TOWN_ID": 262, "RINK_ID": 277, "FACIL_TYPE": "Public", "FACIL_NAME": "Hockeytown USA South Rink", "CITY_TOWN": "Saugus"}},{"geometry": {"type": "Point", "coordinates": [-71.026429233431159, 42.482464037132594]}, "type": "Feature", "id": 153, "properties": {"FACIL_STAT": "Open", "ADDRESS": "201 Forest St.", "RINK_SIZE": "Full", "LABEL": "Kasabuski Rink", "PHONE": "(781) 231-4184", "TOWN_ID": 262, "RINK_ID": 279, "FACIL_TYPE": "DCRP", "FACIL_NAME": "Kasabuski Brothers Memorial Rink", "LEGIS": "Acts 1964, Chapter 204", "CITY_TOWN": "Saugus"}},{"geometry": {"type": "Point", "coordinates": [-73.413987917133156, 42.116537871507909]}, "type": "Feature", "id": 154, "properties": {"FACIL_STAT": "Open", "ADDRESS": "245 N. Undermountain Rd.", "RINK_SIZE": "Full", "LABEL": "Rovensky Rink", "PHONE": "(413) 229-1337", "TOWN_ID": 267, "RINK_ID": 280, "FACIL_TYPE": "School", "FACIL_NAME": "Berkshire School, Rovensky Rink", "CITY_TOWN": "Sheffield"}},{"geometry": {"type": "Point", "coordinates": [-71.108503318312231, 42.38284584276164]}, "type": "Feature", "id": 155, "properties": {"FACIL_STAT": "Open", "ADDRESS": "570 Somerville Ave.", "RINK_SIZE": "Full", "LABEL": "Veterans Rink", "PHONE": "(617) 623-3523", "TOWN_ID": 274, "RINK_ID": 281, "FACIL_TYPE": "DCRP", "FACIL_NAME": "Veterans Memorial Skating Rink", "CITY_TOWN": "Somerville"}},{"geometry": {"type": "Point", "coordinates": [-71.529534043139236, 42.310986385154052]}, "type": "Feature", "id": 156, "properties": {"FACIL_STAT": "Open", "ADDRESS": "25 Marlborough Rd. (Rt. 85)", "RINK_SIZE": "Full", "LABEL": "Gardner Rink", "PHONE": "(508) 786-6166", "TOWN_ID": 277, "RINK_ID": 282, "FACIL_TYPE": "School", "FACIL_NAME": "St. Marks School, Gardner Rink", "CITY_TOWN": "Southborough"}},{"geometry": {"type": "Point", "coordinates": [-72.547246360683062, 42.129596125717399]}, "type": "Feature", "id": 157, "properties": {"FACIL_STAT": "Open", "ADDRESS": "1780 Roosevelt Ave.", "RINK_SIZE": "Full", "LABEL": "Smead Rink", "PHONE": "(413) 781-2599", "TOWN_ID": 281, "RINK_ID": 283, "FACIL_TYPE": "DCRP", "FACIL_NAME": "Ray Smead Memorial Skating Rink", "CITY_TOWN": "Springfield"}},{"geometry": {"type": "Point", "coordinates": [-72.560878557388435, 42.081716815178595]}, "type": "Feature", "id": 158, "properties": {"FACIL_STAT": "Open", "ADDRESS": "200 Trafton Rd.", "RINK_SIZE": "Full", "LABEL": "Forest Park, Cyr Arena", "PHONE": "(413) 787-6438", "TOWN_ID": 281, "RINK_ID": 284, "FACIL_TYPE": "Public", "FACIL_NAME": "Forest Park, Cyr Arena", "CITY_TOWN": "Springfield"}},{"geometry": {"type": "Point", "coordinates": [-72.587046060473568, 42.102238080961506]}, "type": "Feature", "id": 159, "properties": {"FACIL_STAT": "Open", "ADDRESS": "1277 Main St.", "RINK_SIZE": "Full", "LABEL": "Springfield Civic Center", "PHONE": "(413) 787-6610", "TOWN_ID": 281, "RINK_ID": 285, "FACIL_TYPE": "Public", "FACIL_NAME": "Springfield Civic Center", "CITY_TOWN": "Springfield"}},{"geometry": {"type": "Point", "coordinates": [-71.074735767357907, 41.900176064150948]}, "type": "Feature", "id": 160, "properties": {"FACIL_STAT": "Open", "ADDRESS": "150 Gordon Owen Riverway", "RINK_SIZE": "Full", "LABEL": "Aleixo Rink", "PHONE": "(508) 824-4987", "TOWN_ID": 293, "RINK_ID": 287, "FACIL_TYPE": "DCRP", "FACIL_NAME": "Theodore J. Aleixo, Jr. Skating Rink", "LEGIS": "Acts 1991, Chapter 190", "CITY_TOWN": "Taunton"}},{"geometry": {"type": "Point", "coordinates": [-71.193656080197627, 42.620337814663202]}, "type": "Feature", "id": 161, "properties": {"FACIL_STAT": "Open", "ADDRESS": "20 Carter St.", "RINK_SIZE": "Full", "LABEL": "Superskills Hockey Rink", "PHONE": "(978) 640-9800", "TOWN_ID": 295, "RINK_ID": 288, "FACIL_TYPE": "Public", "FACIL_NAME": "Superskills Hockey Rink", "CITY_TOWN": "Tewksbury"}},{"geometry": {"type": "Point", "coordinates": [-71.431132650507209, 42.688316087408097]}, "type": "Feature", "id": 162, "properties": {"FACIL_STAT": "Open", "ADDRESS": "355 Middlesex Rd. (Rt. 3A)", "RINK_SIZE": "Full", "LABEL": "Skate 3 White Rink", "PHONE": "(978) 649-7912", "TOWN_ID": 301, "RINK_ID": 289, "FACIL_TYPE": "Public", "FACIL_NAME": "Skate 3 White Rink", "CITY_TOWN": "Tyngsborough"}},{"geometry": {"type": "Point", "coordinates": [-71.430937801912819, 42.689185742059244]}, "type": "Feature", "id": 163, "properties": {"FACIL_STAT": "Open", "ADDRESS": "355 Middlesex Rd. (Rt. 3A)", "RINK_SIZE": "Mini", "LABEL": "PHD Training Ctr., Mini Rink@3", "PHONE": "(978) 649-7912", "TOWN_ID": 301, "RINK_ID": 290, "FACIL_TYPE": "Public", "FACIL_NAME": "PHD Training Ctr., Mini Rink@skate3", "CITY_TOWN": "Tyngsborough"}},{"geometry": {"type": "Point", "coordinates": [-71.239188449529152, 42.113018004795826]}, "type": "Feature", "id": 164, "properties": {"FACIL_STAT": "Open", "ADDRESS": "2130 Providence Hwy. (Rt. 1)", "RINK_SIZE": "Full", "LABEL": "Iorio Arena NHL Rink", "PHONE": "(508) 660-2005", "TOWN_ID": 307, "RINK_ID": 292, "FACIL_TYPE": "Public", "FACIL_NAME": "Iorio Arena NHL Rink", "CITY_TOWN": "Walpole"}},{"geometry": {"type": "Point", "coordinates": [-71.249106100832194, 42.396693897960994]}, "type": "Feature", "id": 165, "properties": {"FACIL_STAT": "Open", "ADDRESS": "295 Totten Pond Rd.", "RINK_SIZE": "Full", "LABEL": "Veterans Rink", "PHONE": "(781) 314-3474", "TOWN_ID": 308, "RINK_ID": 294, "FACIL_TYPE": "DCRP", "FACIL_NAME": "Veterans Memorial Skating Rink", "CITY_TOWN": "Waltham"}}]}