{"type":"FeatureCollection","features":[{"geometry": {"type": "Point", "coordinates": [-71.314737444007548, 42.637025520005025]}, "type": "Feature", "id": 1, "properties": {"LOT_NUMBER": 165, "Number_Handicap_Spaces_2009": 7, "ParkingRate": "$5.00", "LOT_TYPE": "Commuter Rail", "Number_Parking_Spaces_2009": 695, "STATION": "LOWELL", "Owner": "Lowell Regional Transit Authority", "FacilityType": "Garage", "Number_Bicyle_Spaces_2009": 18}},{"geometry": {"type": "Point", "coordinates": [-71.109912064602781, 42.522806131392038]}, "type": "Feature", "id": 2, "properties": {"LOT_NUMBER": 159, "Number_Handicap_Spaces_2009": 2, "ParkingRate": "$4.00", "LOT_TYPE": "Commuter Rail", "Number_Parking_Spaces_2009": 113, "STATION": "READING", "Owner": "Five Star Parking", "FacilityType": "Honor Box", "Number_Bicyle_Spaces_2009": 10}},{"geometry": {"type": "Point", "coordinates": [-71.392785863490531, 42.457125493742851]}, "type": "Feature", "id": 3, "properties": {"LOT_NUMBER": 178, "Number_Handicap_Spaces_2009": 3, "ParkingRate": "$4.00", "LOT_TYPE": "Commuter Rail", "Number_Parking_Spaces_2009": 146, "STATION": "WEST CONCORD", "Owner": "Town of Concord", "FacilityType": "Surface Lot", "Number_Bicyle_Spaces_2009": 10}},{"geometry": {"type": "Point", "coordinates": [-71.103539352833238, 42.124302910974102]}, "type": "Feature", "id": 4, "properties": {"LOT_NUMBER": 224, "Number_Handicap_Spaces_2009": 10, "ParkingRate": "$4.00", "LOT_TYPE": "Commuter Rail", "Number_Parking_Spaces_2009": 333, "STATION": "STOUGHTON", "Owner": "AIM Parking", "FacilityType": "Honor Box", "Number_Bicyle_Spaces_2009": 6}},{"geometry": {"type": "Point", "coordinates": [-71.199343499778266, 42.187585298426086]}, "type": "Feature", "id": 5, "properties": {"LOT_NUMBER": 212, "Number_Handicap_Spaces_2009": 16, "ParkingRate": "$4.00", "LOT_TYPE": "Commuter Rail", "Number_Parking_Spaces_2009": 781, "STATION": "NORWOOD CENTRAL", "Owner": "AIM Parking", "FacilityType": "Honor Box", "Number_Bicyle_Spaces_2009": 27}},{"geometry": {"type": "Point", "coordinates": [-71.43905959864874, 42.090339383112251]}, "type": "Feature", "id": 6, "properties": {"LOT_NUMBER": 206, "Number_Handicap_Spaces_2009": 15, "ParkingRate": "$4.00", "LOT_TYPE": "Commuter Rail", "Number_Parking_Spaces_2009": 716, "STATION": "FORGE PARK / 495", "Owner": "AIM Parking", "FacilityType": "Honor Box", "Number_Bicyle_Spaces_2009": 14}},{"geometry": {"type": "Point", "coordinates": [-71.419181601039298, 42.276234654897777]}, "type": "Feature", "id": 7, "properties": {"LOT_NUMBER": 188, "Number_Handicap_Spaces_2009": 4, "ParkingRate": "$4.00", "LOT_TYPE": "Commuter Rail", "Number_Parking_Spaces_2009": 166, "STATION": "FRAMINGHAM", "Owner": "Central Parking", "FacilityType": "Honor Box", "Number_Bicyle_Spaces_2009": 10}},{"geometry": {"type": "Point", "coordinates": [-71.457703196220422, 42.460841216815069]}, "type": "Feature", "id": 8, "properties": {"LOT_NUMBER": 177, "Number_Handicap_Spaces_2009": 6, "ParkingRate": "$2.50", "LOT_TYPE": "Commuter Rail", "Number_Parking_Spaces_2009": 287, "STATION": "SOUTH ACTON", "Owner": "Town of Acton", "FacilityType": "Surface Lot", "Number_Bicyle_Spaces_2009": 44}},{"geometry": {"type": "Point", "coordinates": [-71.148170534749624, 42.211083156195947]}, "type": "Feature", "id": 9, "properties": {"LOT_NUMBER": 227, "Number_Handicap_Spaces_2009": 44, "ParkingRate": "$5.00", "LOT_TYPE": "Commuter Rail", "Number_Parking_Spaces_2009": 2589, "STATION": "ROUTE 128", "Owner": "LAZ Parking", "FacilityType": "Garage", "Number_Bicyle_Spaces_2009": 0}},{"geometry": {"type": "Point", "coordinates": [-71.235454609693562, 42.273348628847074]}, "type": "Feature", "id": 10, "properties": {"LOT_NUMBER": 200, "Number_Handicap_Spaces_2009": 4, "ParkingRate": "$4.00", "LOT_TYPE": "Commuter Rail", "Number_Parking_Spaces_2009": 175, "STATION": "NEEDHAM JUNCTION", "Owner": "Town of Needham", "FacilityType": "Surface Lot", "Number_Bicyle_Spaces_2009": 6}},{"geometry": {"type": "Point", "coordinates": [-71.236413228311108, 42.293704980941186]}, "type": "Feature", "id": 11, "properties": {"LOT_NUMBER": 198, "Number_Handicap_Spaces_2009": 1, "ParkingRate": "$4.00", "LOT_TYPE": "Commuter Rail", "Number_Parking_Spaces_2009": 243, "STATION": "NEEDHAM HEIGHTS", "Owner": "Town of Needham", "FacilityType": "Surface Lot", "Number_Bicyle_Spaces_2009": 6}},{"geometry": {"type": "Point", "coordinates": [-71.235584077624637, 42.374411862985987]}, "type": "Feature", "id": 12, "properties": {"LOT_NUMBER": 185, "Number_Handicap_Spaces_2009": 4, "ParkingRate": "$1.00", "LOT_TYPE": "Commuter Rail", "Number_Parking_Spaces_2009": 50, "STATION": "WALTHAM", "Owner": "City of Waltham", "FacilityType": "Off-Street", "Number_Bicyle_Spaces_2009": 8}},{"geometry": {"type": "Point", "coordinates": [-70.896617976277213, 42.524631150714072]}, "type": "Feature", "id": 13, "properties": {"LOT_NUMBER": 149, "Number_Handicap_Spaces_2009": 8, "ParkingRate": "$4.00", "LOT_TYPE": "Commuter Rail", "Number_Parking_Spaces_2009": 340, "STATION": "SALEM", "Owner": "LAZ Parking", "FacilityType": "Honor Box", "Number_Bicyle_Spaces_2009": 5}},{"geometry": {"type": "Point", "coordinates": [-71.357079561628026, 42.456409689162328]}, "type": "Feature", "id": 14, "properties": {"LOT_NUMBER": 179, "Number_Handicap_Spaces_2009": 2, "ParkingRate": "Free", "LOT_TYPE": "Commuter Rail", "Number_Parking_Spaces_2009": 86, "STATION": "CONCORD", "Owner": "Town of Concord", "FacilityType": "Surface Lot", "Number_Bicyle_Spaces_2009": 10}},{"geometry": {"type": "Point", "coordinates": [-71.502206280934701, 42.519044607822551]}, "type": "Feature", "id": 15, "properties": {"LOT_NUMBER": 176, "Number_Handicap_Spaces_2009": 0, "ParkingRate": "Free", "LOT_TYPE": "Commuter Rail", "Number_Parking_Spaces_2009": 47, "STATION": "LITTLETON / 495", "Owner": "MBCR", "FacilityType": "Off-Street", "Number_Bicyle_Spaces_2009": 0}},{"geometry": {"type": "Point", "coordinates": [-71.154360928635967, 42.163298978458137]}, "type": "Feature", "id": 16, "properties": {"LOT_NUMBER": 226, "Number_Handicap_Spaces_2009": 11, "ParkingRate": "$4.00", "LOT_TYPE": "Commuter Rail", "Number_Parking_Spaces_2009": 764, "STATION": "CANTON JUNCTION", "Owner": "AIM Parking", "FacilityType": "Honor Box", "Number_Bicyle_Spaces_2009": 0}},{"geometry": {"type": "Point", "coordinates": [-71.285477635282291, 41.940932968449935]}, "type": "Feature", "id": 17, "properties": {"LOT_NUMBER": 221, "Number_Handicap_Spaces_2009": 16, "ParkingRate": "$4.00", "LOT_TYPE": "Commuter Rail", "Number_Parking_Spaces_2009": 780, "STATION": "ATTLEBORO", "Owner": "Greater Attelboro/ Taunton RTA", "FacilityType": "Honor Box", "Number_Bicyle_Spaces_2009": 28}},{"geometry": {"type": "Point", "coordinates": [-71.17372299178345, 42.226609102881397]}, "type": "Feature", "id": 18, "properties": {"LOT_NUMBER": 215, "Number_Handicap_Spaces_2009": 11, "ParkingRate": "$4.00", "LOT_TYPE": "Commuter Rail", "Number_Parking_Spaces_2009": 497, "STATION": "DEDHAM CORP CTR", "Owner": "AIM Parking", "FacilityType": "Honor Box", "Number_Bicyle_Spaces_2009": 0}},{"geometry": {"type": "Point", "coordinates": [-70.885558063184305, 42.547936616383389]}, "type": "Feature", "id": 19, "properties": {"LOT_NUMBER": 148, "Number_Handicap_Spaces_2009": 8, "ParkingRate": "$5.00", "LOT_TYPE": "Commuter Rail", "Number_Parking_Spaces_2009": 122, "STATION": "BEVERLY DEPOT", "Owner": "LAZ Parking", "FacilityType": "Honor Box", "Number_Bicyle_Spaces_2009": 0}},{"geometry": {"type": "Point", "coordinates": [-71.174569545643763, 42.547616761773547]}, "type": "Feature", "id": 20, "properties": {"LOT_NUMBER": 167, "Number_Handicap_Spaces_2009": 7, "ParkingRate": "$4.00", "LOT_TYPE": "Commuter Rail", "Number_Parking_Spaces_2009": 191, "STATION": "WILMINGTON", "Owner": "Five Star Parking", "FacilityType": "Honor Box", "Number_Bicyle_Spaces_2009": 0}},{"geometry": {"type": "Point", "coordinates": [-71.159387594454131, 42.569529876340653]}, "type": "Feature", "id": 21, "properties": {"LOT_NUMBER": 158, "Number_Handicap_Spaces_2009": 0, "ParkingRate": "Free", "LOT_TYPE": "Commuter Rail", "Number_Parking_Spaces_2009": 20, "STATION": "NORTH WILMINGTON", "Owner": "Town of Wilmington", "FacilityType": "Off-Street", "Number_Bicyle_Spaces_2009": 0}},{"geometry": {"type": "Point", "coordinates": [-71.077158206785327, 42.504102368416277]}, "type": "Feature", "id": 22, "properties": {"LOT_NUMBER": 160, "Number_Handicap_Spaces_2009": 5, "ParkingRate": "$4.00", "LOT_TYPE": "Commuter Rail", "Number_Parking_Spaces_2009": 117, "STATION": "WAKEFIELD", "Owner": "Five Star Parking", "FacilityType": "Honor Box", "Number_Bicyle_Spaces_2009": 6}},{"geometry": {"type": "Point", "coordinates": [-71.159693197242817, 42.627412384377507]}, "type": "Feature", "id": 23, "properties": {"LOT_NUMBER": 157, "Number_Handicap_Spaces_2009": 3, "ParkingRate": "$4.00", "LOT_TYPE": "Commuter Rail", "Number_Parking_Spaces_2009": 120, "STATION": "BALLARDVALE", "Owner": "Five Star Parking", "FacilityType": "Honor Box", "Number_Bicyle_Spaces_2009": 9}},{"geometry": {"type": "Point", "coordinates": [-71.14499152550556, 42.658827598770408]}, "type": "Feature", "id": 24, "properties": {"LOT_NUMBER": 156, "Number_Handicap_Spaces_2009": 4, "ParkingRate": "$4.00", "LOT_TYPE": "Commuter Rail", "Number_Parking_Spaces_2009": 152, "STATION": "ANDOVER", "Owner": "Five Star Parking", "FacilityType": "Honor Box", "Number_Bicyle_Spaces_2009": 6}},{"geometry": {"type": "Point", "coordinates": [-71.0889993619287, 42.766789070809821]}, "type": "Feature", "id": 25, "properties": {"LOT_NUMBER": 154, "Number_Handicap_Spaces_2009": 9, "ParkingRate": "$4.00", "LOT_TYPE": "Commuter Rail", "Number_Parking_Spaces_2009": 303, "STATION": "BRADFORD", "Owner": "Five Star Parking", "FacilityType": "Honor Box", "Number_Bicyle_Spaces_2009": 12}},{"geometry": {"type": "Point", "coordinates": [-71.13769563391746, 42.450654322731921]}, "type": "Feature", "id": 26, "properties": {"LOT_NUMBER": 169, "Number_Handicap_Spaces_2009": 2, "ParkingRate": "Permit Req", "LOT_TYPE": "Commuter Rail", "Number_Parking_Spaces_2009": 237, "STATION": "WINCHESTER CENTER", "Owner": "Town of Winchester", "FacilityType": "Surface Lot", "Number_Bicyle_Spaces_2009": 27}},{"geometry": {"type": "Point", "coordinates": [-71.067230445674511, 42.48322540864563]}, "type": "Feature", "id": 27, "properties": {"LOT_NUMBER": 161, "Number_Handicap_Spaces_2009": 0, "ParkingRate": "$2.00", "LOT_TYPE": "Commuter Rail", "Number_Parking_Spaces_2009": 76, "STATION": "GREENWOOD", "Owner": "Town of Wakefield", "FacilityType": "Surface Lot", "Number_Bicyle_Spaces_2009": 6}},{"geometry": {"type": "Point", "coordinates": [-71.068413975834758, 42.469525808471438]}, "type": "Feature", "id": 28, "properties": {"LOT_NUMBER": 162, "Number_Handicap_Spaces_2009": 2, "ParkingRate": "$2.00", "LOT_TYPE": "Commuter Rail", "Number_Parking_Spaces_2009": 77, "STATION": "MELROSE / HIGHLANDS", "Owner": "City of Melrose", "FacilityType": "Surface Lot", "Number_Bicyle_Spaces_2009": 0}},{"geometry": {"type": "Point", "coordinates": [-71.069967635005867, 42.458669148307663]}, "type": "Feature", "id": 29, "properties": {"LOT_NUMBER": 163, "Number_Handicap_Spaces_2009": 3, "ParkingRate": "$2.00", "LOT_TYPE": "Commuter Rail", "Number_Parking_Spaces_2009": 87, "STATION": "MELROSE / CEDAR PARK", "Owner": "City of Melrose", "FacilityType": "Surface Lot", "Number_Bicyle_Spaces_2009": 0}},{"geometry": {"type": "Point", "coordinates": [-71.069512082050352, 42.45168533465062]}, "type": "Feature", "id": 30, "properties": {"LOT_NUMBER": 164, "Number_Handicap_Spaces_2009": 1, "ParkingRate": "$2.00", "LOT_TYPE": "Commuter Rail", "Number_Parking_Spaces_2009": 28, "STATION": "WYOMING HILL", "Owner": "City of Melrose", "FacilityType": "Off-Street", "Number_Bicyle_Spaces_2009": 0}},{"geometry": {"type": "Point", "coordinates": [-71.14074432314689, 42.444532170612568]}, "type": "Feature", "id": 31, "properties": {"LOT_NUMBER": 170, "Number_Handicap_Spaces_2009": 0, "ParkingRate": "Permit Req", "LOT_TYPE": "Commuter Rail", "Number_Parking_Spaces_2009": 103, "STATION": "WEDGEMERE", "Owner": "Town of Winchester", "FacilityType": "Surface Lot", "Number_Bicyle_Spaces_2009": 0}},{"geometry": {"type": "Point", "coordinates": [-70.945631955253774, 42.462402919970557]}, "type": "Feature", "id": 32, "properties": {"LOT_NUMBER": 151, "Number_Handicap_Spaces_2009": 23, "ParkingRate": "$4.00", "LOT_TYPE": "Commuter Rail", "Number_Parking_Spaces_2009": 965, "STATION": "LYNN / CENTRAL SQUARE", "Owner": "LAZ Parking", "FacilityType": "Garage", "Number_Bicyle_Spaces_2009": 14}},{"geometry": {"type": "Point", "coordinates": [-70.922417413087246, 42.473557440422596]}, "type": "Feature", "id": 33, "properties": {"LOT_NUMBER": 150, "Number_Handicap_Spaces_2009": 6, "ParkingRate": "$4.00", "LOT_TYPE": "Commuter Rail", "Number_Parking_Spaces_2009": 131, "STATION": "SWAMPSCOTT", "Owner": "LAZ Parking", "FacilityType": "Honor Box", "Number_Bicyle_Spaces_2009": 0}},{"geometry": {"type": "Point", "coordinates": [-70.869391854473108, 42.561880107650595]}, "type": "Feature", "id": 34, "properties": {"LOT_NUMBER": 144, "Number_Handicap_Spaces_2009": 3, "ParkingRate": "$4.00", "LOT_TYPE": "Commuter Rail", "Number_Parking_Spaces_2009": 117, "STATION": "MONTSERRAT", "Owner": "LAZ Parking", "FacilityType": "Honor Box", "Number_Bicyle_Spaces_2009": 7}},{"geometry": {"type": "Point", "coordinates": [-70.811916688534708, 42.561681256138002]}, "type": "Feature", "id": 35, "properties": {"LOT_NUMBER": 142, "Number_Handicap_Spaces_2009": 1, "ParkingRate": "Free", "LOT_TYPE": "Commuter Rail", "Number_Parking_Spaces_2009": 25, "STATION": "BEVERLY FARMS", "Owner": "MBCR", "FacilityType": "Surface Lot", "Number_Bicyle_Spaces_2009": 7}},{"geometry": {"type": "Point", "coordinates": [-70.769031880639318, 42.573925671539584]}, "type": "Feature", "id": 36, "properties": {"LOT_NUMBER": 141, "Number_Handicap_Spaces_2009": 6, "ParkingRate": "Free", "LOT_TYPE": "Commuter Rail", "Number_Parking_Spaces_2009": 71, "STATION": "MANCHESTER", "Owner": "Town of Manchester", "FacilityType": "Off-Street", "Number_Bicyle_Spaces_2009": 7}},{"geometry": {"type": "Point", "coordinates": [-70.705330342429093, 42.611839781008278]}, "type": "Feature", "id": 37, "properties": {"LOT_NUMBER": 140, "Number_Handicap_Spaces_2009": 2, "ParkingRate": "$4.00", "LOT_TYPE": "Commuter Rail", "Number_Parking_Spaces_2009": 44, "STATION": "WEST GLOUCESTER", "Owner": "LAZ Parking", "FacilityType": "Honor Box", "Number_Bicyle_Spaces_2009": 7}},{"geometry": {"type": "Point", "coordinates": [-70.626752244874254, 42.655881555480534]}, "type": "Feature", "id": 38, "properties": {"LOT_NUMBER": 138, "Number_Handicap_Spaces_2009": 0, "ParkingRate": "Free", "LOT_TYPE": "Commuter Rail", "Number_Parking_Spaces_2009": 88, "STATION": "ROCKPORT", "Owner": "Town of Rockport", "FacilityType": "Surface Lot", "Number_Bicyle_Spaces_2009": 7}},{"geometry": {"type": "Point", "coordinates": [-70.884060515047636, 42.583655157649396]}, "type": "Feature", "id": 39, "properties": {"LOT_NUMBER": 147, "Number_Handicap_Spaces_2009": 3, "ParkingRate": "$4.00", "LOT_TYPE": "Commuter Rail", "Number_Parking_Spaces_2009": 87, "STATION": "NORTH BEVERLY", "Owner": "LAZ Parking", "FacilityType": "Honor Box", "Number_Bicyle_Spaces_2009": 0}},{"geometry": {"type": "Point", "coordinates": [-70.87449040507056, 42.609652765320845]}, "type": "Feature", "id": 40, "properties": {"LOT_NUMBER": 146, "Number_Handicap_Spaces_2009": 6, "ParkingRate": "$4.00", "LOT_TYPE": "Commuter Rail", "Number_Parking_Spaces_2009": 194, "STATION": "HAMILTON / WENHAM", "Owner": "LAZ Parking", "FacilityType": "Honor Box", "Number_Bicyle_Spaces_2009": 0}},{"geometry": {"type": "Point", "coordinates": [-71.1341465660729, 42.42206115101316]}, "type": "Feature", "id": 41, "properties": {"LOT_NUMBER": 171, "Number_Handicap_Spaces_2009": 0, "ParkingRate": "Free", "LOT_TYPE": "Commuter Rail", "Number_Parking_Spaces_2009": 30, "STATION": "WEST MEDFORD", "Owner": "City of Medford", "FacilityType": "Off-Street", "Number_Bicyle_Spaces_2009": 0}},{"geometry": {"type": "Point", "coordinates": [-71.281768308524576, 42.378153876022964]}, "type": "Feature", "id": 42, "properties": {"LOT_NUMBER": 183, "Number_Handicap_Spaces_2009": 0, "ParkingRate": "Free", "LOT_TYPE": "Commuter Rail", "Number_Parking_Spaces_2009": 57, "STATION": "KENDAL GREEN", "Owner": "Town of Weston", "FacilityType": "Off-Street", "Number_Bicyle_Spaces_2009": 0}},{"geometry": {"type": "Point", "coordinates": [-71.216122479560056, 42.276133250642779]}, "type": "Feature", "id": 43, "properties": {"LOT_NUMBER": 201, "Number_Handicap_Spaces_2009": 8, "ParkingRate": "$4.00", "LOT_TYPE": "Commuter Rail", "Number_Parking_Spaces_2009": 322, "STATION": "HERSEY", "Owner": "Town of Needham", "FacilityType": "Surface Lot", "Number_Bicyle_Spaces_2009": 11}},{"geometry": {"type": "Point", "coordinates": [-71.160109995591242, 42.28110718048989]}, "type": "Feature", "id": 44, "properties": {"LOT_NUMBER": 202, "Number_Handicap_Spaces_2009": 2, "ParkingRate": "$4.00", "LOT_TYPE": "Commuter Rail", "Number_Parking_Spaces_2009": 62, "STATION": "WEST ROXBURY", "Owner": "AIM Parking", "FacilityType": "Honor Box", "Number_Bicyle_Spaces_2009": 8}},{"geometry": {"type": "Point", "coordinates": [-71.153736552177477, 42.285222009769498]}, "type": "Feature", "id": 45, "properties": {"LOT_NUMBER": 203, "Number_Handicap_Spaces_2009": 6, "ParkingRate": "$4.00", "LOT_TYPE": "Commuter Rail", "Number_Parking_Spaces_2009": 175, "STATION": "HIGHLAND", "Owner": "AIM Parking", "FacilityType": "Honor Box", "Number_Bicyle_Spaces_2009": 0}},{"geometry": {"type": "Point", "coordinates": [-71.145870822937198, 42.286703906006586]}, "type": "Feature", "id": 46, "properties": {"LOT_NUMBER": 204, "Number_Handicap_Spaces_2009": 2, "ParkingRate": "$4.00", "LOT_TYPE": "Commuter Rail", "Number_Parking_Spaces_2009": 37, "STATION": "BELLEVUE", "Owner": "AIM Parking", "FacilityType": "Honor Box", "Number_Bicyle_Spaces_2009": 8}},{"geometry": {"type": "Point", "coordinates": [-71.130921328126504, 42.28745609997307]}, "type": "Feature", "id": 47, "properties": {"LOT_NUMBER": 205, "Number_Handicap_Spaces_2009": 4, "ParkingRate": "$4.00", "LOT_TYPE": "Commuter Rail", "Number_Parking_Spaces_2009": 143, "STATION": "ROSLINDALE VILLAGE", "Owner": "AIM Parking", "FacilityType": "Honor Box", "Number_Bicyle_Spaces_2009": 0}},{"geometry": {"type": "Point", "coordinates": [-71.146550164470653, 42.156933458653157]}, "type": "Feature", "id": 48, "properties": {"LOT_NUMBER": 225, "Number_Handicap_Spaces_2009": 4, "ParkingRate": "$4.00", "LOT_TYPE": "Commuter Rail", "Number_Parking_Spaces_2009": 215, "STATION": "CANTON CENTER", "Owner": "AIM Parking", "FacilityType": "Honor Box", "Number_Bicyle_Spaces_2009": 10}},{"geometry": {"type": "Point", "coordinates": [-71.184852350951246, 42.123348899861107]}, "type": "Feature", "id": 49, "properties": {"LOT_NUMBER": 223, "Number_Handicap_Spaces_2009": 4, "ParkingRate": "$4.00", "LOT_TYPE": "Commuter Rail", "Number_Parking_Spaces_2009": 542, "STATION": "SHARON", "Owner": "Town of Sharon", "FacilityType": "Surface Lot", "Number_Bicyle_Spaces_2009": 8}},{"geometry": {"type": "Point", "coordinates": [-71.355763196237902, 41.898304044809976]}, "type": "Feature", "id": 50, "properties": {"LOT_NUMBER": 220, "Number_Handicap_Spaces_2009": 14, "ParkingRate": "$4.00", "LOT_TYPE": "Commuter Rail", "Number_Parking_Spaces_2009": 567, "STATION": "SOUTH ATTLEBORO", "Owner": "AIM Parking", "FacilityType": "Honor Box", "Number_Bicyle_Spaces_2009": 2}},{"geometry": {"type": "Point", "coordinates": [-71.281614284853262, 42.593399537657312]}, "type": "Feature", "id": 51, "properties": {"LOT_NUMBER": 166, "Number_Handicap_Spaces_2009": 13, "ParkingRate": "$4.00", "LOT_TYPE": "Commuter Rail", "Number_Parking_Spaces_2009": 541, "STATION": "NORTH BILLERICA", "Owner": "Lowell Regional Transit Authority", "FacilityType": "Garage", "Number_Bicyle_Spaces_2009": 14}},{"geometry": {"type": "Point", "coordinates": [-71.647673679163788, 42.545079660575212]}, "type": "Feature", "id": 52, "properties": {"LOT_NUMBER": 174, "Number_Handicap_Spaces_2009": 2, "ParkingRate": "Free", "LOT_TYPE": "Commuter Rail", "Number_Parking_Spaces_2009": 25, "STATION": "SHIRLEY", "Owner": "Town of Shirley", "FacilityType": "Off-Street", "Number_Bicyle_Spaces_2009": 0}},{"geometry": {"type": "Point", "coordinates": [-71.271927861445235, 42.321838200959029]}, "type": "Feature", "id": 53, "properties": {"LOT_NUMBER": 193, "Number_Handicap_Spaces_2009": 4, "ParkingRate": "$4.50", "LOT_TYPE": "Commuter Rail", "Number_Parking_Spaces_2009": 199, "STATION": "WELLESLEY FARMS", "Owner": "City of Wellesley", "FacilityType": "Surface Lot", "Number_Bicyle_Spaces_2009": 16}},{"geometry": {"type": "Point", "coordinates": [-71.277304338676913, 42.309773212634525]}, "type": "Feature", "id": 54, "properties": {"LOT_NUMBER": 192, "Number_Handicap_Spaces_2009": 0, "ParkingRate": "$4.50", "LOT_TYPE": "Commuter Rail", "Number_Parking_Spaces_2009": 51, "STATION": "WELLESLEY HILLS", "Owner": "City of Wellesley", "FacilityType": "Surface Lot", "Number_Bicyle_Spaces_2009": 0}},{"geometry": {"type": "Point", "coordinates": [-71.294339696211964, 42.296890791785877]}, "type": "Feature", "id": 55, "properties": {"LOT_NUMBER": 191, "Number_Handicap_Spaces_2009": 2, "ParkingRate": "$4.50", "LOT_TYPE": "Commuter Rail", "Number_Parking_Spaces_2009": 224, "STATION": "WELLESLEY SQUARE", "Owner": "City of Wellesley", "FacilityType": "Surface Lot", "Number_Bicyle_Spaces_2009": 0}},{"geometry": {"type": "Point", "coordinates": [-71.391539767135967, 42.282528410045359]}, "type": "Feature", "id": 56, "properties": {"LOT_NUMBER": 189, "Number_Handicap_Spaces_2009": 4, "ParkingRate": "$4.00", "LOT_TYPE": "Commuter Rail", "Number_Parking_Spaces_2009": 178, "STATION": "WEST NATICK", "Owner": "Central Parking", "FacilityType": "Honor Box", "Number_Bicyle_Spaces_2009": 5}},{"geometry": {"type": "Point", "coordinates": [-71.196881831103596, 42.196718835056949]}, "type": "Feature", "id": 57, "properties": {"LOT_NUMBER": 213, "Number_Handicap_Spaces_2009": 8, "ParkingRate": "$4.00", "LOT_TYPE": "Commuter Rail", "Number_Parking_Spaces_2009": 393, "STATION": "NORWOOD DEPOT", "Owner": "AIM Parking", "FacilityType": "Honor Box", "Number_Bicyle_Spaces_2009": 0}},{"geometry": {"type": "Point", "coordinates": [-71.39606525786192, 42.083574253416039]}, "type": "Feature", "id": 58, "properties": {"LOT_NUMBER": 207, "Number_Handicap_Spaces_2009": 3, "ParkingRate": "$4.00", "LOT_TYPE": "Commuter Rail", "Number_Parking_Spaces_2009": 173, "STATION": "FRANKLIN / DEAN COLL", "Owner": "AIM Parking", "FacilityType": "Honor Box", "Number_Bicyle_Spaces_2009": 7}},{"geometry": {"type": "Point", "coordinates": [-71.251308170617449, 42.34568322993713]}, "type": "Feature", "id": 59, "properties": {"LOT_NUMBER": 194, "Number_Handicap_Spaces_2009": 0, "ParkingRate": "Free", "LOT_TYPE": "Commuter Rail", "Number_Parking_Spaces_2009": 35, "STATION": "AUBURNDALE", "Owner": "MassPike", "FacilityType": "Off-Street", "Number_Bicyle_Spaces_2009": 0}},{"geometry": {"type": "Point", "coordinates": [-71.220758081244767, 42.03275127840827]}, "type": "Feature", "id": 60, "properties": {"LOT_NUMBER": 222, "Number_Handicap_Spaces_2009": 9, "ParkingRate": "$4.00", "LOT_TYPE": "Commuter Rail", "Number_Parking_Spaces_2009": 806, "STATION": "MANSFIELD", "Owner": "Town of Mansfield", "FacilityType": "Surface Lot", "Number_Bicyle_Spaces_2009": 12}},{"geometry": {"type": "Point", "coordinates": [-71.237868033324617, 42.281137712842401]}, "type": "Feature", "id": 61, "properties": {"LOT_NUMBER": 199, "Number_Handicap_Spaces_2009": 2, "ParkingRate": "$4.00", "LOT_TYPE": "Commuter Rail", "Number_Parking_Spaces_2009": 36, "STATION": "NEEDHAM CENTER", "Owner": "Town of Needham", "FacilityType": "Surface Lot", "Number_Bicyle_Spaces_2009": 6}},{"geometry": {"type": "Point", "coordinates": [-71.260028733803097, 42.362160729798788]}, "type": "Feature", "id": 62, "properties": {"LOT_NUMBER": 184, "Number_Handicap_Spaces_2009": 3, "ParkingRate": "$4.00", "LOT_TYPE": "Commuter Rail", "Number_Parking_Spaces_2009": 70, "STATION": "BRANDEIS / ROBERTS", "Owner": "Central Parking", "FacilityType": "Honor Box", "Number_Bicyle_Spaces_2009": 8}},{"geometry": {"type": "Point", "coordinates": [-71.32583837152697, 42.414745929707166]}, "type": "Feature", "id": 63, "properties": {"LOT_NUMBER": 180, "Number_Handicap_Spaces_2009": 0, "ParkingRate": "$3.00", "LOT_TYPE": "Commuter Rail", "Number_Parking_Spaces_2009": 161, "STATION": "LINCOLN", "Owner": "Town of Lincoln", "FacilityType": "Surface Lot", "Number_Bicyle_Spaces_2009": 21}},{"geometry": {"type": "Point", "coordinates": [-71.323953806177272, 42.120626635063807]}, "type": "Feature", "id": 64, "properties": {"LOT_NUMBER": 208, "Number_Handicap_Spaces_2009": 11, "ParkingRate": "$4.00", "LOT_TYPE": "Commuter Rail", "Number_Parking_Spaces_2009": 532, "STATION": "NORFOLK", "Owner": "AIM Parking", "FacilityType": "Honor Box", "Number_Bicyle_Spaces_2009": 8}},{"geometry": {"type": "Point", "coordinates": [-71.158994825051764, 42.233296816439733]}, "type": "Feature", "id": 65, "properties": {"LOT_NUMBER": 216, "Number_Handicap_Spaces_2009": 0, "ParkingRate": "Free", "LOT_TYPE": "Commuter Rail", "Number_Parking_Spaces_2009": 45, "STATION": "ENDICOTT", "Owner": "Town of Dedham", "FacilityType": "Surface Lot", "Number_Bicyle_Spaces_2009": 0}},{"geometry": {"type": "Point", "coordinates": [-71.075219834599892, 42.426867613238571]}, "type": "Feature", "id": 66, "properties": {"LOT_NUMBER": 24, "Number_Handicap_Spaces_2009": 4, "ParkingRate": "$5.50", "LOT_TYPE": "Both", "Number_Parking_Spaces_2009": 188, "STATION": "MALDEN CENTER", "Owner": "Five Star Parking", "FacilityType": "Surface Lot", "Number_Bicyle_Spaces_2009": 0}},{"geometry": {"type": "Point", "coordinates": [-71.00067319136285, 42.207755533051547]}, "type": "Feature", "id": 67, "properties": {"LOT_NUMBER": 22, "Number_Handicap_Spaces_2009": 22, "ParkingRate": "$7.00", "LOT_TYPE": "Both", "Number_Parking_Spaces_2009": 1322, "STATION": "BRAINTREE", "Owner": "LAZ Parking", "FacilityType": "Garage", "Number_Bicyle_Spaces_2009": 30}},{"geometry": {"type": "Point", "coordinates": [-71.027025500726126, 42.156280404201503]}, "type": "Feature", "id": 68, "properties": {"LOT_NUMBER": 230, "Number_Handicap_Spaces_2009": 14, "ParkingRate": "$4.00", "LOT_TYPE": "Commuter Rail", "Number_Parking_Spaces_2009": 369, "STATION": "HOLBROOK / RANDOLPH", "Owner": "LAZ Parking", "FacilityType": "Honor Box", "Number_Bicyle_Spaces_2009": 8}},{"geometry": {"type": "Point", "coordinates": [-71.021442183081589, 42.106699083474815]}, "type": "Feature", "id": 69, "properties": {"LOT_NUMBER": 231, "Number_Handicap_Spaces_2009": 12, "ParkingRate": "$4.00", "LOT_TYPE": "Commuter Rail", "Number_Parking_Spaces_2009": 347, "STATION": "MONTELLO", "Owner": "LAZ Parking", "FacilityType": "Honor Box", "Number_Bicyle_Spaces_2009": 16}},{"geometry": {"type": "Point", "coordinates": [-71.014887563364468, 42.084416646588465]}, "type": "Feature", "id": 70, "properties": {"LOT_NUMBER": 232, "Number_Handicap_Spaces_2009": 10, "ParkingRate": "$1.00", "LOT_TYPE": "Commuter Rail", "Number_Parking_Spaces_2009": 200, "STATION": "BROCKTON", "Owner": "City of Brockton", "FacilityType": "Surface Lot", "Number_Bicyle_Spaces_2009": 8}},{"geometry": {"type": "Point", "coordinates": [-71.011282791487332, 42.060669346967138]}, "type": "Feature", "id": 71, "properties": {"LOT_NUMBER": 233, "Number_Handicap_Spaces_2009": 11, "ParkingRate": "$4.00", "LOT_TYPE": "Commuter Rail", "Number_Parking_Spaces_2009": 535, "STATION": "CAMPELLO", "Owner": "LAZ Parking", "FacilityType": "Honor Box", "Number_Bicyle_Spaces_2009": 8}},{"geometry": {"type": "Point", "coordinates": [-70.964875218883662, 41.985252559138864]}, "type": "Feature", "id": 72, "properties": {"LOT_NUMBER": 234, "Number_Handicap_Spaces_2009": 10, "ParkingRate": "$4.00", "LOT_TYPE": "Commuter Rail", "Number_Parking_Spaces_2009": 504, "STATION": "BRIDGEWATER", "Owner": "LAZ Parking", "FacilityType": "Honor Box", "Number_Bicyle_Spaces_2009": 24}},{"geometry": {"type": "Point", "coordinates": [-70.954106196455569, 42.154778096785719]}, "type": "Feature", "id": 73, "properties": {"LOT_NUMBER": 235, "Number_Handicap_Spaces_2009": 9, "ParkingRate": "$4.00", "LOT_TYPE": "Commuter Rail", "Number_Parking_Spaces_2009": 543, "STATION": "SOUTH WEYMOUTH", "Owner": "LAZ Parking", "FacilityType": "Honor Box", "Number_Bicyle_Spaces_2009": 10}},{"geometry": {"type": "Point", "coordinates": [-70.934810165825454, 42.106652647904461]}, "type": "Feature", "id": 74, "properties": {"LOT_NUMBER": 236, "Number_Handicap_Spaces_2009": 9, "ParkingRate": "$4.00", "LOT_TYPE": "Commuter Rail", "Number_Parking_Spaces_2009": 405, "STATION": "ABINGTON", "Owner": "LAZ Parking", "FacilityType": "Honor Box", "Number_Bicyle_Spaces_2009": 8}},{"geometry": {"type": "Point", "coordinates": [-70.923039190467449, 42.082618879820799]}, "type": "Feature", "id": 75, "properties": {"LOT_NUMBER": 237, "Number_Handicap_Spaces_2009": 7, "ParkingRate": "$4.00", "LOT_TYPE": "Commuter Rail", "Number_Parking_Spaces_2009": 208, "STATION": "WHITMAN", "Owner": "LAZ Parking", "FacilityType": "Honor Box", "Number_Bicyle_Spaces_2009": 8}},{"geometry": {"type": "Point", "coordinates": [-70.882308098609229, 42.044429209836935]}, "type": "Feature", "id": 76, "properties": {"LOT_NUMBER": 238, "Number_Handicap_Spaces_2009": 8, "ParkingRate": "$4.00", "LOT_TYPE": "Commuter Rail", "Number_Parking_Spaces_2009": 482, "STATION": "HANSON", "Owner": "LAZ Parking", "FacilityType": "Honor Box", "Number_Bicyle_Spaces_2009": 8}},{"geometry": {"type": "Point", "coordinates": [-70.824702192316238, 42.014551509885756]}, "type": "Feature", "id": 77, "properties": {"LOT_NUMBER": 239, "Number_Handicap_Spaces_2009": 10, "ParkingRate": "$4.00", "LOT_TYPE": "Commuter Rail", "Number_Parking_Spaces_2009": 402, "STATION": "HALIFAX", "Owner": "LAZ Parking", "FacilityType": "Honor Box", "Number_Bicyle_Spaces_2009": 8}},{"geometry": {"type": "Point", "coordinates": [-70.723030216998893, 41.977626308164353]}, "type": "Feature", "id": 78, "properties": {"LOT_NUMBER": 240, "Number_Handicap_Spaces_2009": 25, "ParkingRate": "$4.00", "LOT_TYPE": "Commuter Rail", "Number_Parking_Spaces_2009": 1039, "STATION": "KINGSTON / ROUTE 3", "Owner": "LAZ Parking", "FacilityType": "Honor Box", "Number_Bicyle_Spaces_2009": 0}},{"geometry": {"type": "Point", "coordinates": [-70.689732267981341, 41.980865102658441]}, "type": "Feature", "id": 79, "properties": {"LOT_NUMBER": 241, "Number_Handicap_Spaces_2009": 4, "ParkingRate": "$4.00", "LOT_TYPE": "Commuter Rail", "Number_Parking_Spaces_2009": 96, "STATION": "PLYMOUTH", "Owner": "LAZ Parking", "FacilityType": "Honor Box", "Number_Bicyle_Spaces_2009": 8}},{"geometry": {"type": "Point", "coordinates": [-70.919471049104331, 41.878029900898667]}, "type": "Feature", "id": 80, "properties": {"LOT_NUMBER": 242, "Number_Handicap_Spaces_2009": 14, "ParkingRate": "$4.00", "LOT_TYPE": "Commuter Rail", "Number_Parking_Spaces_2009": 769, "STATION": "MIDDLEBOROUGH / LAKEVILLE", "Owner": "LAZ Parking", "FacilityType": "Honor Box", "Number_Bicyle_Spaces_2009": 8}},{"geometry": {"type": "Point", "coordinates": [-71.482260692596682, 42.261712096586209]}, "type": "Feature", "id": 81, "properties": {"LOT_NUMBER": 244, "Number_Handicap_Spaces_2009": 16, "ParkingRate": "$4.00", "LOT_TYPE": "Commuter Rail", "Number_Parking_Spaces_2009": 678, "STATION": "ASHLAND", "Owner": "Central Parking", "FacilityType": "Honor Box", "Number_Bicyle_Spaces_2009": 0}},{"geometry": {"type": "Point", "coordinates": [-71.524556623629181, 42.266615782109895]}, "type": "Feature", "id": 82, "properties": {"LOT_NUMBER": 245, "Number_Handicap_Spaces_2009": 8, "ParkingRate": "$4.00", "LOT_TYPE": "Commuter Rail", "Number_Parking_Spaces_2009": 364, "STATION": "SOUTHBOROUGH", "Owner": "Central Parking", "FacilityType": "Honor Box", "Number_Bicyle_Spaces_2009": 0}},{"geometry": {"type": "Point", "coordinates": [-71.685956972567411, 42.246870290851042]}, "type": "Feature", "id": 83, "properties": {"LOT_NUMBER": 247, "Number_Handicap_Spaces_2009": 7, "ParkingRate": "$4.00", "LOT_TYPE": "Commuter Rail", "Number_Parking_Spaces_2009": 373, "STATION": "GRAFTON", "Owner": "Central Parking", "FacilityType": "Honor Box", "Number_Bicyle_Spaces_2009": 8}},{"geometry": {"type": "Point", "coordinates": [-71.792490819485792, 42.261808684220163]}, "type": "Feature", "id": 84, "properties": {"LOT_NUMBER": 249, "Number_Handicap_Spaces_2009": 9, "ParkingRate": "$8.25", "LOT_TYPE": "Commuter Rail", "Number_Parking_Spaces_2009": 500, "STATION": "WORCESTER", "Owner": "City of Worcester", "FacilityType": "Garage", "Number_Bicyle_Spaces_2009": 5}},{"geometry": {"type": "Point", "coordinates": [-71.289141346189353, 42.385585443874589]}, "type": "Feature", "id": 85, "properties": {"LOT_NUMBER": 250, "Number_Handicap_Spaces_2009": 0, "ParkingRate": "Free", "LOT_TYPE": "Commuter Rail", "Number_Parking_Spaces_2009": 6, "STATION": "HASTINGS", "Owner": "Town of Weston", "FacilityType": "Off-Street", "Number_Bicyle_Spaces_2009": 0}},{"geometry": {"type": "Point", "coordinates": [-70.859528795406177, 42.727135164062055]}, "type": "Feature", "id": 86, "properties": {"LOT_NUMBER": 251, "Number_Handicap_Spaces_2009": 8, "ParkingRate": "$4.00", "LOT_TYPE": "Commuter Rail", "Number_Parking_Spaces_2009": 282, "STATION": "ROWLEY", "Owner": "LAZ Parking", "FacilityType": "Honor Box", "Number_Bicyle_Spaces_2009": 11}},{"geometry": {"type": "Point", "coordinates": [-70.87877412499904, 42.797497882621741]}, "type": "Feature", "id": 87, "properties": {"LOT_NUMBER": 252, "Number_Handicap_Spaces_2009": 24, "ParkingRate": "$4.00", "LOT_TYPE": "Commuter Rail", "Number_Parking_Spaces_2009": 814, "STATION": "NEWBURYPORT", "Owner": "LAZ Parking", "FacilityType": "Honor Box", "Number_Bicyle_Spaces_2009": 22}},{"geometry": {"type": "Point", "coordinates": [-71.086568632932341, 42.773500016555737]}, "type": "Feature", "id": 88, "properties": {"LOT_NUMBER": 253, "Number_Handicap_Spaces_2009": 6, "ParkingRate": "$4.00", "LOT_TYPE": "Commuter Rail", "Number_Parking_Spaces_2009": 159, "STATION": "HAVERHILL", "Owner": "Five Star Parking", "FacilityType": "Honor Box", "Number_Bicyle_Spaces_2009": 0}},{"geometry": {"type": "Point", "coordinates": [-71.588791160553271, 42.559219940020533]}, "type": "Feature", "id": 89, "properties": {"LOT_NUMBER": 256, "Number_Handicap_Spaces_2009": 0, "ParkingRate": "Free", "LOT_TYPE": "Commuter Rail", "Number_Parking_Spaces_2009": 30, "STATION": "AYER", "Owner": "Town of Ayer", "FacilityType": "Surface Lot", "Number_Bicyle_Spaces_2009": 0}},{"geometry": {"type": "Point", "coordinates": [-71.345177084901621, 42.28525222312642]}, "type": "Feature", "id": 90, "properties": {"LOT_NUMBER": 257, "Number_Handicap_Spaces_2009": 4, "ParkingRate": "Permit Req", "LOT_TYPE": "Commuter Rail", "Number_Parking_Spaces_2009": 71, "STATION": "NATICK", "Owner": "Town of Natick", "FacilityType": "Off-Street", "Number_Bicyle_Spaces_2009": 0}},{"geometry": {"type": "Point", "coordinates": [-71.070568348682599, 42.436078023946763]}, "type": "Feature", "id": 91, "properties": {"LOT_NUMBER": 23, "Number_Handicap_Spaces_2009": 13, "ParkingRate": "$5.50", "LOT_TYPE": "Subway", "Number_Parking_Spaces_2009": 788, "STATION": "OAK GROVE", "Owner": "Five Star Parking", "FacilityType": "Honor Box", "Number_Bicyle_Spaces_2009": 42}},{"geometry": {"type": "Point", "coordinates": [-70.992009150155681, 42.413654653352864]}, "type": "Feature", "id": 92, "properties": {"LOT_NUMBER": 41, "Number_Handicap_Spaces_2009": 18, "ParkingRate": "$5.00", "LOT_TYPE": "Subway", "Number_Parking_Spaces_2009": 1257, "STATION": "WONDERLAND", "Owner": "LAZ Parking", "FacilityType": "Surface Lot", "Number_Bicyle_Spaces_2009": 24}},{"geometry": {"type": "Point", "coordinates": [-71.075244446444017, 42.402511082462119]}, "type": "Feature", "id": 93, "properties": {"LOT_NUMBER": 25, "Number_Handicap_Spaces_2009": 22, "ParkingRate": "$5.50", "LOT_TYPE": "Subway", "Number_Parking_Spaces_2009": 1316, "STATION": "WELLINGTON", "Owner": "Five Star Parking", "FacilityType": "Surface Lot", "Number_Bicyle_Spaces_2009": 16}},{"geometry": {"type": "Point", "coordinates": [-70.993095774907246, 42.398723355810766]}, "type": "Feature", "id": 94, "properties": {"LOT_NUMBER": 43, "Number_Handicap_Spaces_2009": 6, "ParkingRate": "$5.00", "LOT_TYPE": "Subway", "Number_Parking_Spaces_2009": 430, "STATION": "BEACHMONT", "Owner": "LAZ Parking", "FacilityType": "Surface Lot", "Number_Bicyle_Spaces_2009": 6}},{"geometry": {"type": "Point", "coordinates": [-71.141959975578914, 42.395636977076215]}, "type": "Feature", "id": 95, "properties": {"LOT_NUMBER": 1, "Number_Handicap_Spaces_2009": 24, "ParkingRate": "$7.00", "LOT_TYPE": "Subway", "Number_Parking_Spaces_2009": 2733, "STATION": "ALEWIFE", "Owner": "Central Parking", "FacilityType": "Garage", "Number_Bicyle_Spaces_2009": 174}},{"geometry": {"type": "Point", "coordinates": [-70.996320308719731, 42.391108876556032]}, "type": "Feature", "id": 96, "properties": {"LOT_NUMBER": 44, "Number_Handicap_Spaces_2009": 4, "ParkingRate": "$5.00", "LOT_TYPE": "Subway", "Number_Parking_Spaces_2009": 110, "STATION": "SUFFOLK DOWNS", "Owner": "LAZ Parking", "FacilityType": "Surface Lot", "Number_Bicyle_Spaces_2009": 12}},{"geometry": {"type": "Point", "coordinates": [-71.001883660367753, 42.386362857077316]}, "type": "Feature", "id": 97, "properties": {"LOT_NUMBER": 45, "Number_Handicap_Spaces_2009": 2, "ParkingRate": "$5.00", "LOT_TYPE": "Subway", "Number_Parking_Spaces_2009": 434, "STATION": "ORIENT HEIGHTS", "Owner": "LAZ Parking", "FacilityType": "Surface Lot", "Number_Bicyle_Spaces_2009": 8}},{"geometry": {"type": "Point", "coordinates": [-71.075850114507702, 42.3841132353894]}, "type": "Feature", "id": 98, "properties": {"LOT_NUMBER": 26, "Number_Handicap_Spaces_2009": 7, "ParkingRate": "$5.50", "LOT_TYPE": "Subway", "Number_Parking_Spaces_2009": 222, "STATION": "SULLIVAN SQUARE", "Owner": "Five Star Parking", "FacilityType": "Surface Lot", "Number_Bicyle_Spaces_2009": 16}},{"geometry": {"type": "Point", "coordinates": [-71.07640203482633, 42.371663238197833]}, "type": "Feature", "id": 99, "properties": {"LOT_NUMBER": 51, "Number_Handicap_Spaces_2009": 0, "ParkingRate": "$5.50", "LOT_TYPE": "Subway", "Number_Parking_Spaces_2009": 347, "STATION": "LECHMERE", "Owner": "Five Star Parking", "FacilityType": "Surface Lot", "Number_Bicyle_Spaces_2009": 0}},{"geometry": {"type": "Point", "coordinates": [-71.253115958746577, 42.335860173611898]}, "type": "Feature", "id": 100, "properties": {"LOT_NUMBER": 95, "Number_Handicap_Spaces_2009": 21, "ParkingRate": "$5.75", "LOT_TYPE": "Subway", "Number_Parking_Spaces_2009": 928, "STATION": "RIVERSIDE", "Owner": "Central Parking", "FacilityType": "Surface Lot", "Number_Bicyle_Spaces_2009": 48}},{"geometry": {"type": "Point", "coordinates": [-71.164822643099114, 42.327024013558137]}, "type": "Feature", "id": 101, "properties": {"LOT_NUMBER": 89, "Number_Handicap_Spaces_2009": 3, "ParkingRate": "$5,50", "LOT_TYPE": "Subway", "Number_Parking_Spaces_2009": 70, "STATION": "CHESTNUT HILL", "Owner": "Central Parking", "FacilityType": "Honor Box", "Number_Bicyle_Spaces_2009": 8}},{"geometry": {"type": "Point", "coordinates": [-71.230446632370715, 42.325939932865111]}, "type": "Feature", "id": 102, "properties": {"LOT_NUMBER": 93, "Number_Handicap_Spaces_2009": 3, "ParkingRate": "$5.50", "LOT_TYPE": "Subway", "Number_Parking_Spaces_2009": 74, "STATION": "WABAN", "Owner": "Central Parking", "FacilityType": "Honor Box", "Number_Bicyle_Spaces_2009": 12}},{"geometry": {"type": "Point", "coordinates": [-71.216558610756579, 42.319159305263042]}, "type": "Feature", "id": 103, "properties": {"LOT_NUMBER": 92, "Number_Handicap_Spaces_2009": 0, "ParkingRate": "$5.50", "LOT_TYPE": "Subway", "Number_Parking_Spaces_2009": 55, "STATION": "ELIOT", "Owner": "Central Parking", "FacilityType": "Honor Box", "Number_Bicyle_Spaces_2009": 8}},{"geometry": {"type": "Point", "coordinates": [-71.029781766005456, 42.276100312873858]}, "type": "Feature", "id": 104, "properties": {"LOT_NUMBER": 18, "Number_Handicap_Spaces_2009": 18, "ParkingRate": "$5.00", "LOT_TYPE": "Subway", "Number_Parking_Spaces_2009": 1206, "STATION": "NORTH QUINCY", "Owner": "LAZ Parking", "FacilityType": "Surface Lot", "Number_Bicyle_Spaces_2009": 43}},{"geometry": {"type": "Point", "coordinates": [-71.06701204356429, 42.27019136997324]}, "type": "Feature", "id": 105, "properties": {"LOT_NUMBER": 133, "Number_Handicap_Spaces_2009": 4, "ParkingRate": "$5.00", "LOT_TYPE": "Subway", "Number_Parking_Spaces_2009": 41, "STATION": "MILTON", "Owner": "LAZ Parking", "FacilityType": "Honor Box", "Number_Bicyle_Spaces_2009": 8}},{"geometry": {"type": "Point", "coordinates": [-71.092111275115357, 42.268205247349442]}, "type": "Feature", "id": 106, "properties": {"LOT_NUMBER": 137, "Number_Handicap_Spaces_2009": 4, "ParkingRate": "$4.50", "LOT_TYPE": "Subway", "Number_Parking_Spaces_2009": 100, "STATION": "MATTAPAN", "Owner": "Central Parking", "FacilityType": "Honor Box", "Number_Bicyle_Spaces_2009": 8}},{"geometry": {"type": "Point", "coordinates": [-71.019304719330108, 42.266559525622128]}, "type": "Feature", "id": 107, "properties": {"LOT_NUMBER": 19, "Number_Handicap_Spaces_2009": 0, "ParkingRate": "$5.00", "LOT_TYPE": "Subway", "Number_Parking_Spaces_2009": 550, "STATION": "WOLLASTON", "Owner": "LAZ Parking", "FacilityType": "Surface Lot", "Number_Bicyle_Spaces_2009": 30}},{"geometry": {"type": "Point", "coordinates": [-71.007572492663286, 42.232857775641435]}, "type": "Feature", "id": 108, "properties": {"LOT_NUMBER": 21, "Number_Handicap_Spaces_2009": 29, "ParkingRate": "$7.00", "LOT_TYPE": "Subway", "Number_Parking_Spaces_2009": 2538, "STATION": "QUINCY ADAMS", "Owner": "LAZ Parking", "FacilityType": "Garage", "Number_Bicyle_Spaces_2009": 64}},{"geometry": {"type": "Point", "coordinates": [-70.840173665316399, 42.676793309905747]}, "type": "Feature", "id": 109, "properties": {"LOT_NUMBER": 145, "Number_Handicap_Spaces_2009": 4, "ParkingRate": "Free", "LOT_TYPE": "Commuter Rail", "Number_Parking_Spaces_2009": 170, "STATION": "IPSWICH", "Owner": "Town of Ipswich", "FacilityType": "Surface Lot", "Number_Bicyle_Spaces_2009": 8}},{"geometry": {"type": "Point", "coordinates": [-71.142937627047274, 42.516259455656396]}, "type": "Feature", "id": 110, "properties": {"LOT_NUMBER": 168, "Number_Handicap_Spaces_2009": 24, "ParkingRate": "$4.00", "LOT_TYPE": "Commuter Rail", "Number_Parking_Spaces_2009": 1541, "STATION": "ANDERSON / WOBURN", "Owner": "MassPort", "FacilityType": "Garage", "Number_Bicyle_Spaces_2009": 0}},{"geometry": {"type": "Point", "coordinates": [-71.158032734568209, 42.701598645529401]}, "type": "Feature", "id": 111, "properties": {"LOT_NUMBER": 155, "Number_Handicap_Spaces_2009": 5, "ParkingRate": "$3.00", "LOT_TYPE": "Commuter Rail", "Number_Parking_Spaces_2009": 400, "STATION": "LAWRENCE", "Owner": "Merrimack Valley RTA", "FacilityType": "Garage", "Number_Bicyle_Spaces_2009": 0}},{"geometry": {"type": "Point", "coordinates": [-70.667167472078617, 42.61649591018319]}, "type": "Feature", "id": 112, "properties": {"LOT_NUMBER": 139, "Number_Handicap_Spaces_2009": 0, "ParkingRate": "$4.00", "LOT_TYPE": "Commuter Rail", "Number_Parking_Spaces_2009": 100, "STATION": "GLOUCESTER", "Owner": "LAZ Parking", "FacilityType": "Honor Box", "Number_Bicyle_Spaces_2009": 5}},{"geometry": {"type": "Point", "coordinates": [-71.739200041750095, 42.539969640171861]}, "type": "Feature", "id": 113, "properties": {"LOT_NUMBER": 173, "Number_Handicap_Spaces_2009": 0, "ParkingRate": "$2.00", "LOT_TYPE": "Commuter Rail", "Number_Parking_Spaces_2009": 140, "STATION": "NORTH LEOMINSTER", "Owner": "Montachusett Regional Transit Authority", "FacilityType": "Garage", "Number_Bicyle_Spaces_2009": 0}},{"geometry": {"type": "Point", "coordinates": [-71.79180071220064, 42.580380524156034]}, "type": "Feature", "id": 114, "properties": {"LOT_NUMBER": 172, "Number_Handicap_Spaces_2009": 6, "ParkingRate": "$3.00", "LOT_TYPE": "Commuter Rail", "Number_Parking_Spaces_2009": 400, "STATION": "FITCHBURG", "Owner": "Montachusett Regional Transit Authority", "FacilityType": "Garage", "Number_Bicyle_Spaces_2009": 20}},{"geometry": {"type": "Point", "coordinates": [-71.647618112422549, 42.270038168763293]}, "type": "Feature", "id": 115, "properties": {"LOT_NUMBER": 246, "Number_Handicap_Spaces_2009": 8, "ParkingRate": "$4.00", "LOT_TYPE": "Commuter Rail", "Number_Parking_Spaces_2009": 443, "STATION": "WESTBOROUGH", "Owner": "Central Parking", "FacilityType": "Honor Box", "Number_Bicyle_Spaces_2009": 4}},{"geometry": {"type": "Point", "coordinates": [-71.063271797277693, 42.365960508298386]}, "type": "Feature", "id": 116, "properties": {"LOT_NUMBER": 254, "Number_Handicap_Spaces_2009": 38, "ParkingRate": "$25.00", "LOT_TYPE": "Commuter Rail", "Number_Parking_Spaces_2009": 1275, "STATION": "NORTH STATION", "Owner": "Central Parking", "FacilityType": "Garage", "Number_Bicyle_Spaces_2009": 20}},{"geometry": {"type": "Point", "coordinates": [-71.114469931272225, 42.299144963471178]}, "type": "Feature", "id": 117, "properties": {"LOT_NUMBER": 255, "Number_Handicap_Spaces_2009": 5, "ParkingRate": "$6.00", "LOT_TYPE": "Both", "Number_Parking_Spaces_2009": 206, "STATION": "FOREST HILLS", "Owner": "AIM Parking", "FacilityType": "Surface Lot", "Number_Bicyle_Spaces_2009": 32}},{"geometry": {"type": "Point", "coordinates": [-71.240850874111487, 42.332044839392438]}, "type": "Feature", "id": 118, "properties": {"LOT_NUMBER": 94, "Number_Handicap_Spaces_2009": 16, "ParkingRate": "$6.00", "LOT_TYPE": "Subway", "Number_Parking_Spaces_2009": 548, "STATION": "WOODLAND", "Owner": "Central Parking", "FacilityType": "Garage", "Number_Bicyle_Spaces_2009": 16}},{"geometry": {"type": "Point", "coordinates": [-71.234108329129199, 42.347747071419356]}, "type": "Feature", "id": 119, "properties": {"LOT_NUMBER": 195, "Number_Handicap_Spaces_2009": 3, "ParkingRate": "Free", "LOT_TYPE": "Commuter Rail", "Number_Parking_Spaces_2009": 45, "STATION": "WEST NEWTON", "Owner": "City of Newton", "FacilityType": "Surface Lot", "Number_Bicyle_Spaces_2009": 0}},{"geometry": {"type": "Point", "coordinates": [-70.837316198737909, 42.243331730730112]}, "type": "Feature", "id": 120, "properties": {"LOT_NUMBER": 258, "Number_Handicap_Spaces_2009": 10, "ParkingRate": "$4.00", "LOT_TYPE": "Commuter Rail", "Number_Parking_Spaces_2009": 410, "STATION": "COHASSET", "Owner": "LAZ Parking", "FacilityType": "Honor Box", "Number_Bicyle_Spaces_2009": 0}},{"geometry": {"type": "Point", "coordinates": [-70.868301983242617, 42.245225096333527]}, "type": "Feature", "id": 121, "properties": {"LOT_NUMBER": 259, "Number_Handicap_Spaces_2009": 9, "ParkingRate": "$4.00", "LOT_TYPE": "Commuter Rail", "Number_Parking_Spaces_2009": 495, "STATION": "NANTASKET", "Owner": "LAZ Parking", "FacilityType": "Honor Box", "Number_Bicyle_Spaces_2009": 0}},{"geometry": {"type": "Point", "coordinates": [-70.788274658668783, 42.21983038904969]}, "type": "Feature", "id": 122, "properties": {"LOT_NUMBER": 260, "Number_Handicap_Spaces_2009": 12, "ParkingRate": "$4.00", "LOT_TYPE": "Commuter Rail", "Number_Parking_Spaces_2009": 253, "STATION": "NORTH SCITUATE", "Owner": "LAZ Parking", "FacilityType": "Honor Box", "Number_Bicyle_Spaces_2009": 0}},{"geometry": {"type": "Point", "coordinates": [-70.90312043065299, 42.236067611062836]}, "type": "Feature", "id": 123, "properties": {"LOT_NUMBER": 261, "Number_Handicap_Spaces_2009": 7, "ParkingRate": "$4.00", "LOT_TYPE": "Commuter Rail", "Number_Parking_Spaces_2009": 214, "STATION": "WEST HINGHAM", "Owner": "LAZ Parking", "FacilityType": "Honor Box", "Number_Bicyle_Spaces_2009": 0}},{"geometry": {"type": "Point", "coordinates": [-70.967131582070905, 42.222466193848184]}, "type": "Feature", "id": 124, "properties": {"LOT_NUMBER": 262, "Number_Handicap_Spaces_2009": 13, "ParkingRate": "$4.00", "LOT_TYPE": "Commuter Rail", "Number_Parking_Spaces_2009": 290, "STATION": "WEYMOUTH LANDING", "Owner": "LAZ Parking", "FacilityType": "Honor Box", "Number_Bicyle_Spaces_2009": 0}},{"geometry": {"type": "Point", "coordinates": [-70.921922318607329, 42.218683651698832]}, "type": "Feature", "id": 125, "properties": {"LOT_NUMBER": 263, "Number_Handicap_Spaces_2009": 8, "ParkingRate": "$4.00", "LOT_TYPE": "Commuter Rail", "Number_Parking_Spaces_2009": 335, "STATION": "EAST WEYMOUTH", "Owner": "LAZ Parking", "FacilityType": "Honor Box", "Number_Bicyle_Spaces_2009": 0}},{"geometry": {"type": "Point", "coordinates": [-70.745105555354669, 42.178342977941725]}, "type": "Feature", "id": 126, "properties": {"LOT_NUMBER": 264, "Number_Handicap_Spaces_2009": 22, "ParkingRate": "$4.00", "LOT_TYPE": "Commuter Rail", "Number_Parking_Spaces_2009": 1000, "STATION": "GREENBUSH", "Owner": "LAZ Parking", "FacilityType": "Honor Box", "Number_Bicyle_Spaces_2009": 0}},{"geometry": {"type": "Point", "coordinates": [-71.063460137697803, 42.272211357306745]}, "type": "Feature", "id": 127, "properties": {"LOT_NUMBER": 132, "Number_Handicap_Spaces_2009": 0, "ParkingRate": "Free", "LOT_TYPE": "Subway", "Number_Parking_Spaces_2009": 60, "STATION": "BUTLER", "Owner": "Unknown", "FacilityType": "Off-Street", "Number_Bicyle_Spaces_2009": 0}},{"geometry": {"type": "Point", "coordinates": [-71.0558697899896, 42.34987157007]}, "type": "Feature", "id": 128, "properties": {"LOT_NUMBER": 265, "Number_Handicap_Spaces_2009": 8, "ParkingRate": "$30.00", "LOT_TYPE": "Both", "Number_Parking_Spaces_2009": 226, "STATION": "SOUTH STATION", "Owner": "LAZ Parking", "FacilityType": "Garage", "Number_Bicyle_Spaces_2009": 8}},{"geometry": {"type": "Point", "coordinates": [-71.184612080340898, 42.363060948035937]}, "type": "Feature", "id": 129, "properties": {"LOT_NUMBER": 266, "Number_Handicap_Spaces_2009": 0, "ParkingRate": "$5.00", "LOT_TYPE": "Commuter Bus", "Number_Parking_Spaces_2009": 200, "STATION": "WATERTOWN YARD", "Owner": "Central Parking", "FacilityType": "Honor Box", "Number_Bicyle_Spaces_2009": 0}},{"geometry": {"type": "Point", "coordinates": [-70.918571857466404, 42.304341623892505]}, "type": "Feature", "id": 130, "properties": {"LOT_NUMBER": 267, "Number_Handicap_Spaces_2009": 0, "ParkingRate": "Free", "LOT_TYPE": "Commuter Boat", "Number_Parking_Spaces_2009": 100, "STATION": "PEMBERTON POINT", "Owner": "Town of Hull", "FacilityType": "Off-Street", "Number_Bicyle_Spaces_2009": 0}},{"geometry": {"type": "Point", "coordinates": [-70.919455702988571, 42.251296198284287]}, "type": "Feature", "id": 131, "properties": {"LOT_NUMBER": 268, "Number_Handicap_Spaces_2009": 10, "ParkingRate": "$3.00", "LOT_TYPE": "Commuter Boat", "Number_Parking_Spaces_2009": 1841, "STATION": "HEWITTS COVE", "Owner": "LAZ Parking", "FacilityType": "Surface Lot", "Number_Bicyle_Spaces_2009": 0}},{"geometry": {"type": "Point", "coordinates": [-70.971155631945408, 42.244241029497175]}, "type": "Feature", "id": 132, "properties": {"LOT_NUMBER": 269, "Number_Handicap_Spaces_2009": 10, "ParkingRate": "$3.00", "LOT_TYPE": "Commuter Boat", "Number_Parking_Spaces_2009": 350, "STATION": "FORE RIVER SHIPYARD", "Owner": "LAZ Parking", "FacilityType": "Surface Lot", "Number_Bicyle_Spaces_2009": 0}},{"geometry": {"type": "Point", "coordinates": [-71.005527335899259, 42.25195278396771]}, "type": "Feature", "id": 133, "properties": {"LOT_NUMBER": 20, "Number_Handicap_Spaces_2009": 16, "ParkingRate": "$7.00", "LOT_TYPE": "Both", "Number_Parking_Spaces_2009": 872, "STATION": "QUINCY CENTER", "Owner": "LAZ Parking", "FacilityType": "Garage", "Number_Bicyle_Spaces_2009": 20}},{"geometry": {"type": "Point", "coordinates": [-71.257303172166488, 42.145131717275355]}, "type": "Feature", "id": 134, "properties": {"LOT_NUMBER": 209, "Number_Handicap_Spaces_2009": 4, "ParkingRate": "$4.00", "LOT_TYPE": "Commuter Rail", "Number_Parking_Spaces_2009": 343, "STATION": "WALPOLE", "Owner": "AIM Parking", "FacilityType": "Honor Box", "Number_Bicyle_Spaces_2009": 5}},{"geometry": {"type": "Point", "coordinates": [-71.183890082602787, 42.220854586342881]}, "type": "Feature", "id": 135, "properties": {"LOT_NUMBER": 214, "Number_Handicap_Spaces_2009": 1, "ParkingRate": "$4.00", "LOT_TYPE": "Commuter Rail", "Number_Parking_Spaces_2009": 39, "STATION": "ISLINGTON", "Owner": "AIM Parking", "FacilityType": "Honor Box", "Number_Bicyle_Spaces_2009": 0}},{"geometry": {"type": "Point", "coordinates": [-71.133096781239374, 42.238534013342019]}, "type": "Feature", "id": 136, "properties": {"LOT_NUMBER": 217, "Number_Handicap_Spaces_2009": 15, "ParkingRate": "$4.00", "LOT_TYPE": "Commuter Rail", "Number_Parking_Spaces_2009": 347, "STATION": "READVILLE", "Owner": "AIM Parking", "FacilityType": "Honor Box", "Number_Bicyle_Spaces_2009": 0}},{"geometry": {"type": "Point", "coordinates": [-71.125102145742744, 42.255119846073001]}, "type": "Feature", "id": 137, "properties": {"LOT_NUMBER": 218, "Number_Handicap_Spaces_2009": 4, "ParkingRate": "$4.00", "LOT_TYPE": "Commuter Rail", "Number_Parking_Spaces_2009": 121, "STATION": "HYDE PARK", "Owner": "AIM Parking", "FacilityType": "Honor Box", "Number_Bicyle_Spaces_2009": 10}},{"geometry": {"type": "Point", "coordinates": [-71.12008410283218, 42.253105291123916]}, "type": "Feature", "id": 138, "properties": {"LOT_NUMBER": 228, "Number_Handicap_Spaces_2009": 0, "ParkingRate": "$4.00", "LOT_TYPE": "Commuter Rail", "Number_Parking_Spaces_2009": 50, "STATION": "FAIRMOUNT", "Owner": "AIM Parking", "FacilityType": "Honor Box", "Number_Bicyle_Spaces_2009": 0}}]}