{"type":"FeatureCollection","features":[{"geometry": {"type": "Point", "coordinates": [-71.141959975578999, 42.39563697707576]}, "type": "Feature", "id": 1, "properties": {"LOT_NUMBER": 1, "NUMHPSP06": 24, "LOT_TYPE": "Subway", "STATION": "ALEWIFE", "NUMBIKSP06": 174, "NUMPKSP06": "2595"}},{"geometry": {"type": "Point", "coordinates": [-70.996320308719845, 42.391108876555585]}, "type": "Feature", "id": 2, "properties": {"LOT_NUMBER": 44, "NUMHPSP06": 4, "LOT_TYPE": "Subway", "STATION": "SUFFOLK DOWNS", "NUMBIKSP06": 12, "NUMPKSP06": "110"}},{"geometry": {"type": "Point", "coordinates": [-71.001883660367909, 42.386362857076861]}, "type": "Feature", "id": 3, "properties": {"LOT_NUMBER": 45, "NUMHPSP06": 2, "LOT_TYPE": "Subway", "STATION": "ORIENT HEIGHTS", "NUMBIKSP06": 8, "NUMPKSP06": "434"}},{"geometry": {"type": "Point", "coordinates": [-71.07585011450783, 42.384113235388924]}, "type": "Feature", "id": 4, "properties": {"LOT_NUMBER": 26, "NUMHPSP06": 7, "LOT_TYPE": "Subway", "STATION": "SULLIVAN", "NUMBIKSP06": 16, "NUMPKSP06": "222"}},{"geometry": {"type": "Point", "coordinates": [-71.076402034826486, 42.371663238197385]}, "type": "Feature", "id": 5, "properties": {"LOT_NUMBER": 51, "NUMHPSP06": 0, "LOT_TYPE": "Subway", "STATION": "LECHMERE", "NUMBIKSP06": 0, "NUMPKSP06": "328"}},{"geometry": {"type": "Point", "coordinates": [-71.253115958746704, 42.335860173611422]}, "type": "Feature", "id": 6, "properties": {"LOT_NUMBER": 95, "NUMHPSP06": 21, "LOT_TYPE": "Subway", "STATION": "RIVERSIDE", "NUMBIKSP06": 48, "NUMPKSP06": "925"}},{"geometry": {"type": "Point", "coordinates": [-71.164822643099214, 42.327024013557683]}, "type": "Feature", "id": 7, "properties": {"LOT_NUMBER": 89, "NUMHPSP06": 3, "LOT_TYPE": "Subway", "STATION": "CHESTNUT HILL", "NUMBIKSP06": 8, "NUMPKSP06": "70"}},{"geometry": {"type": "Point", "coordinates": [-71.230446632370871, 42.325939932864642]}, "type": "Feature", "id": 8, "properties": {"LOT_NUMBER": 93, "NUMHPSP06": 3, "LOT_TYPE": "Subway", "STATION": "WABAN", "NUMBIKSP06": 12, "NUMPKSP06": "74"}},{"geometry": {"type": "Point", "coordinates": [-71.216558610756678, 42.319159305262581]}, "type": "Feature", "id": 9, "properties": {"LOT_NUMBER": 92, "NUMHPSP06": 0, "LOT_TYPE": "Subway", "STATION": "ELIOT", "NUMBIKSP06": 8, "NUMPKSP06": "55"}},{"geometry": {"type": "Point", "coordinates": [-71.029781766005584, 42.276100312873382]}, "type": "Feature", "id": 10, "properties": {"LOT_NUMBER": 18, "NUMHPSP06": 26, "LOT_TYPE": "Subway", "STATION": "NORTH QUINCY", "NUMBIKSP06": 43, "NUMPKSP06": "1206"}},{"geometry": {"type": "Point", "coordinates": [-71.062942316730314, 42.272823659153893]}, "type": "Feature", "id": 11, "properties": {"LOT_NUMBER": 132, "NUMHPSP06": 0, "LOT_TYPE": "Subway", "STATION": "BUTLER", "NUMBIKSP06": 0, "NUMPKSP06": "60"}},{"geometry": {"type": "Point", "coordinates": [-71.067012043564404, 42.270191369972785]}, "type": "Feature", "id": 12, "properties": {"LOT_NUMBER": 133, "NUMHPSP06": 4, "LOT_TYPE": "Subway", "STATION": "MILTON", "NUMBIKSP06": 8, "NUMPKSP06": "41"}},{"geometry": {"type": "Point", "coordinates": [-71.092111275115471, 42.268205247348995]}, "type": "Feature", "id": 13, "properties": {"LOT_NUMBER": 137, "NUMHPSP06": 4, "LOT_TYPE": "Subway", "STATION": "MATTAPAN", "NUMBIKSP06": 8, "NUMPKSP06": "216"}},{"geometry": {"type": "Point", "coordinates": [-71.019304719330208, 42.266559525621659]}, "type": "Feature", "id": 14, "properties": {"LOT_NUMBER": 19, "NUMHPSP06": 0, "LOT_TYPE": "Subway", "STATION": "WOLLASTON", "NUMBIKSP06": 30, "NUMPKSP06": "550"}},{"geometry": {"type": "Point", "coordinates": [-71.007572492663371, 42.232857775640987]}, "type": "Feature", "id": 15, "properties": {"LOT_NUMBER": 21, "NUMHPSP06": 29, "LOT_TYPE": "Subway", "STATION": "QUINCY ADAMS", "NUMBIKSP06": 64, "NUMPKSP06": "2378"}},{"geometry": {"type": "Point", "coordinates": [-70.84017366531647, 42.676793309905271]}, "type": "Feature", "id": 16, "properties": {"LOT_NUMBER": 145, "NUMHPSP06": 4, "LOT_TYPE": "Commuter Rail", "STATION": "IPSWICH", "NUMBIKSP06": 8, "NUMPKSP06": "170"}},{"geometry": {"type": "Point", "coordinates": [-71.14293762704736, 42.516259455655913]}, "type": "Feature", "id": 17, "properties": {"LOT_NUMBER": 168, "NUMHPSP06": 24, "LOT_TYPE": "Commuter Rail", "STATION": "ANDERSON / WOBURN", "NUMBIKSP06": 0, "NUMPKSP06": "2000"}},{"geometry": {"type": "Point", "coordinates": [-71.15803273456828, 42.701598645528946]}, "type": "Feature", "id": 18, "properties": {"LOT_NUMBER": 155, "NUMHPSP06": 5, "LOT_TYPE": "Commuter Rail", "STATION": "LAWRENCE", "NUMBIKSP06": 0, "NUMPKSP06": "400"}},{"geometry": {"type": "Point", "coordinates": [-70.667167472078745, 42.616495910182728]}, "type": "Feature", "id": 19, "properties": {"LOT_NUMBER": 139, "NUMHPSP06": 4, "LOT_TYPE": "Commuter Rail", "STATION": "GLOUCESTER", "NUMBIKSP06": 5, "NUMPKSP06": "100"}},{"geometry": {"type": "Point", "coordinates": [-71.739200041750181, 42.539969640171414]}, "type": "Feature", "id": 20, "properties": {"LOT_NUMBER": 173, "NUMHPSP06": 4, "LOT_TYPE": "Commuter Rail", "STATION": "NORTH LEOMINSTER", "NUMBIKSP06": 0, "NUMPKSP06": "140"}},{"geometry": {"type": "Point", "coordinates": [-71.791800712200754, 42.580380524155579]}, "type": "Feature", "id": 21, "properties": {"LOT_NUMBER": 172, "NUMHPSP06": 10, "LOT_TYPE": "Commuter Rail", "STATION": "FITCHBURG", "NUMBIKSP06": 20, "NUMPKSP06": "400"}},{"geometry": {"type": "Point", "coordinates": [-71.647618112422606, 42.270038168762845]}, "type": "Feature", "id": 22, "properties": {"LOT_NUMBER": 246, "NUMHPSP06": 8, "LOT_TYPE": "Commuter Rail", "STATION": "WESTBOROUGH", "NUMBIKSP06": 4, "NUMPKSP06": "443"}},{"geometry": {"type": "Point", "coordinates": [-71.063271797277778, 42.365960508297917]}, "type": "Feature", "id": 23, "properties": {"LOT_NUMBER": 254, "NUMHPSP06": 38, "LOT_TYPE": "Commuter Rail", "STATION": "NORTH STATION", "NUMBIKSP06": 20, "NUMPKSP06": "1275"}},{"geometry": {"type": "Point", "coordinates": [-71.114469931272339, 42.299144963470717]}, "type": "Feature", "id": 24, "properties": {"LOT_NUMBER": 255, "NUMHPSP06": 5, "LOT_TYPE": "Both", "STATION": "FOREST HILLS", "NUMBIKSP06": 32, "NUMPKSP06": "206"}},{"geometry": {"type": "Point", "coordinates": [-71.240850874111558, 42.332044839391983]}, "type": "Feature", "id": 25, "properties": {"LOT_NUMBER": 94, "NUMHPSP06": 16, "LOT_TYPE": "Subway", "STATION": "WOODLAND", "NUMBIKSP06": 16, "NUMPKSP06": "548"}},{"geometry": {"type": "Point", "coordinates": [-71.314737444007633, 42.637025520004556]}, "type": "Feature", "id": 26, "properties": {"LOT_NUMBER": 165, "NUMHPSP06": 7, "LOT_TYPE": "Commuter Rail", "STATION": "LOWELL", "NUMBIKSP06": 18, "NUMPKSP06": "695"}},{"geometry": {"type": "Point", "coordinates": [-71.183928585518856, 42.221240699121758]}, "type": "Feature", "id": 27, "properties": {"LOT_NUMBER": 214, "NUMHPSP06": 1, "LOT_TYPE": "Commuter Rail", "STATION": "ISLINGTON", "NUMBIKSP06": 0, "NUMPKSP06": "39"}},{"geometry": {"type": "Point", "coordinates": [-71.109912064602881, 42.522806131391583]}, "type": "Feature", "id": 28, "properties": {"LOT_NUMBER": 159, "NUMHPSP06": 2, "LOT_TYPE": "Commuter Rail", "STATION": "READING", "NUMBIKSP06": 10, "NUMPKSP06": "113"}},{"geometry": {"type": "Point", "coordinates": [-71.392785863490658, 42.457125493742375]}, "type": "Feature", "id": 29, "properties": {"LOT_NUMBER": 178, "NUMHPSP06": 3, "LOT_TYPE": "Commuter Rail", "STATION": "WEST CONCORD", "NUMBIKSP06": 10, "NUMPKSP06": "146"}},{"geometry": {"type": "Point", "coordinates": [-71.103539352833351, 42.12430291097364]}, "type": "Feature", "id": 30, "properties": {"LOT_NUMBER": 224, "NUMHPSP06": 10, "LOT_TYPE": "Commuter Rail", "STATION": "STOUGHTON", "NUMBIKSP06": 6, "NUMPKSP06": "457"}},{"geometry": {"type": "Point", "coordinates": [-71.199343499778337, 42.187585298425624]}, "type": "Feature", "id": 31, "properties": {"LOT_NUMBER": 212, "NUMHPSP06": 16, "LOT_TYPE": "Commuter Rail", "STATION": "NORWOOD CENTRAL", "NUMBIKSP06": 27, "NUMPKSP06": "782"}},{"geometry": {"type": "Point", "coordinates": [-71.439059598648811, 42.090339383111775]}, "type": "Feature", "id": 32, "properties": {"LOT_NUMBER": 206, "NUMHPSP06": 15, "LOT_TYPE": "Commuter Rail", "STATION": "FORGE PARK / 495", "NUMBIKSP06": 14, "NUMPKSP06": "716"}},{"geometry": {"type": "Point", "coordinates": [-71.419181601039398, 42.276234654897316]}, "type": "Feature", "id": 33, "properties": {"LOT_NUMBER": 188, "NUMHPSP06": 8, "LOT_TYPE": "Commuter Rail", "STATION": "FRAMINGHAM", "NUMBIKSP06": 10, "NUMPKSP06": "166"}},{"geometry": {"type": "Point", "coordinates": [-71.457703196220493, 42.460841216814622]}, "type": "Feature", "id": 34, "properties": {"LOT_NUMBER": 177, "NUMHPSP06": 6, "LOT_TYPE": "Commuter Rail", "STATION": "SOUTH ACTON", "NUMBIKSP06": 44, "NUMPKSP06": "287"}},{"geometry": {"type": "Point", "coordinates": [-71.148170534749738, 42.211083156195478]}, "type": "Feature", "id": 35, "properties": {"LOT_NUMBER": 227, "NUMHPSP06": 44, "LOT_TYPE": "Commuter Rail", "STATION": "ROUTE 128", "NUMBIKSP06": 0, "NUMPKSP06": "2589"}},{"geometry": {"type": "Point", "coordinates": [-71.235454609693662, 42.273348628846605]}, "type": "Feature", "id": 36, "properties": {"LOT_NUMBER": 200, "NUMHPSP06": 4, "LOT_TYPE": "Commuter Rail", "STATION": "NEEDHAM JUNCTION", "NUMBIKSP06": 6, "NUMPKSP06": "175"}},{"geometry": {"type": "Point", "coordinates": [-71.236413228311235, 42.293704980940738]}, "type": "Feature", "id": 37, "properties": {"LOT_NUMBER": 198, "NUMHPSP06": 1, "LOT_TYPE": "Commuter Rail", "STATION": "NEEDHAM HEIGHTS", "NUMBIKSP06": 6, "NUMPKSP06": "243"}},{"geometry": {"type": "Point", "coordinates": [-71.235584077624765, 42.374411862985525]}, "type": "Feature", "id": 38, "properties": {"LOT_NUMBER": 185, "NUMHPSP06": 4, "LOT_TYPE": "Commuter Rail", "STATION": "WALTHAM", "NUMBIKSP06": 8, "NUMPKSP06": "50"}},{"geometry": {"type": "Point", "coordinates": [-70.896617976277355, 42.524631150713617]}, "type": "Feature", "id": 39, "properties": {"LOT_NUMBER": 149, "NUMHPSP06": 8, "LOT_TYPE": "Commuter Rail", "STATION": "SALEM", "NUMBIKSP06": 5, "NUMPKSP06": "340"}},{"geometry": {"type": "Point", "coordinates": [-71.357079561628154, 42.456409689161909]}, "type": "Feature", "id": 40, "properties": {"LOT_NUMBER": 179, "NUMHPSP06": 2, "LOT_TYPE": "Commuter Rail", "STATION": "CONCORD", "NUMBIKSP06": 10, "NUMPKSP06": "86"}},{"geometry": {"type": "Point", "coordinates": [-71.5022062809348, 42.519044607822089]}, "type": "Feature", "id": 41, "properties": {"LOT_NUMBER": 176, "NUMHPSP06": 0, "LOT_TYPE": "Commuter Rail", "STATION": "LITTLETON / 495", "NUMBIKSP06": 0, "NUMPKSP06": "47"}},{"geometry": {"type": "Point", "coordinates": [-71.154360928636066, 42.163298978457675]}, "type": "Feature", "id": 42, "properties": {"LOT_NUMBER": 226, "NUMHPSP06": 11, "LOT_TYPE": "Commuter Rail", "STATION": "CANTON JUNCTION", "NUMBIKSP06": 0, "NUMPKSP06": "764"}},{"geometry": {"type": "Point", "coordinates": [-71.285477635282376, 41.940932968449488]}, "type": "Feature", "id": 43, "properties": {"LOT_NUMBER": 221, "NUMHPSP06": 16, "LOT_TYPE": "Commuter Rail", "STATION": "ATTLEBORO", "NUMBIKSP06": 28, "NUMPKSP06": "780"}},{"geometry": {"type": "Point", "coordinates": [-71.173722991783563, 42.226609102880943]}, "type": "Feature", "id": 44, "properties": {"LOT_NUMBER": 215, "NUMHPSP06": 11, "LOT_TYPE": "Commuter Rail", "STATION": "DEDHAM CORP CTR", "NUMBIKSP06": 0, "NUMPKSP06": "497"}},{"geometry": {"type": "Point", "coordinates": [-71.133225882085952, 42.238573999192624]}, "type": "Feature", "id": 45, "properties": {"LOT_NUMBER": 217, "NUMHPSP06": 15, "LOT_TYPE": "Commuter Rail", "STATION": "READVILLE", "NUMBIKSP06": 0, "NUMPKSP06": "354"}},{"geometry": {"type": "Point", "coordinates": [-70.885558063184391, 42.547936616382927]}, "type": "Feature", "id": 46, "properties": {"LOT_NUMBER": 148, "NUMHPSP06": 8, "LOT_TYPE": "Commuter Rail", "STATION": "BEVERLY DEPOT", "NUMBIKSP06": 0, "NUMPKSP06": "200"}},{"geometry": {"type": "Point", "coordinates": [-71.174569545643877, 42.547616761773071]}, "type": "Feature", "id": 47, "properties": {"LOT_NUMBER": 167, "NUMHPSP06": 7, "LOT_TYPE": "Commuter Rail", "STATION": "WILMINGTON", "NUMBIKSP06": 0, "NUMPKSP06": "191"}},{"geometry": {"type": "Point", "coordinates": [-71.159387594454202, 42.569529876340191]}, "type": "Feature", "id": 48, "properties": {"LOT_NUMBER": 158, "NUMHPSP06": 0, "LOT_TYPE": "Commuter Rail", "STATION": "NORTH WILMINGTON", "NUMBIKSP06": 0, "NUMPKSP06": "20"}},{"geometry": {"type": "Point", "coordinates": [-71.077158206785427, 42.504102368415815]}, "type": "Feature", "id": 49, "properties": {"LOT_NUMBER": 160, "NUMHPSP06": 6, "LOT_TYPE": "Commuter Rail", "STATION": "WAKEFIELD", "NUMBIKSP06": 6, "NUMPKSP06": "117"}},{"geometry": {"type": "Point", "coordinates": [-71.144991525505645, 42.658827598769953]}, "type": "Feature", "id": 50, "properties": {"LOT_NUMBER": 156, "NUMHPSP06": 4, "LOT_TYPE": "Commuter Rail", "STATION": "ANDOVER", "NUMBIKSP06": 6, "NUMPKSP06": "152"}},{"geometry": {"type": "Point", "coordinates": [-71.088999361928799, 42.766789070809352]}, "type": "Feature", "id": 51, "properties": {"LOT_NUMBER": 154, "NUMHPSP06": 9, "LOT_TYPE": "Commuter Rail", "STATION": "BRADFORD", "NUMBIKSP06": 12, "NUMPKSP06": "303"}},{"geometry": {"type": "Point", "coordinates": [-71.137695633917588, 42.450654322731467]}, "type": "Feature", "id": 52, "properties": {"LOT_NUMBER": 169, "NUMHPSP06": 2, "LOT_TYPE": "Commuter Rail", "STATION": "WINCHESTER CENTER", "NUMBIKSP06": 27, "NUMPKSP06": "237"}},{"geometry": {"type": "Point", "coordinates": [-71.067230445674639, 42.483225408645183]}, "type": "Feature", "id": 53, "properties": {"LOT_NUMBER": 161, "NUMHPSP06": 0, "LOT_TYPE": "Commuter Rail", "STATION": "GREENWOOD", "NUMBIKSP06": 6, "NUMPKSP06": "6"}},{"geometry": {"type": "Point", "coordinates": [-71.068413975834872, 42.469525808470969]}, "type": "Feature", "id": 54, "properties": {"LOT_NUMBER": 162, "NUMHPSP06": 2, "LOT_TYPE": "Commuter Rail", "STATION": "MELROSE / HIGHLANDS", "NUMBIKSP06": 0, "NUMPKSP06": "77"}},{"geometry": {"type": "Point", "coordinates": [-71.069512082050437, 42.451685334650165]}, "type": "Feature", "id": 55, "properties": {"LOT_NUMBER": 164, "NUMHPSP06": 1, "LOT_TYPE": "Commuter Rail", "STATION": "WYOMING HILL", "NUMBIKSP06": 0, "NUMPKSP06": "28"}},{"geometry": {"type": "Point", "coordinates": [-71.140744323146961, 42.444532170612113]}, "type": "Feature", "id": 56, "properties": {"LOT_NUMBER": 170, "NUMHPSP06": 0, "LOT_TYPE": "Commuter Rail", "STATION": "WEDGEMERE", "NUMBIKSP06": 0, "NUMPKSP06": "103"}},{"geometry": {"type": "Point", "coordinates": [-70.945631955253859, 42.462402919970089]}, "type": "Feature", "id": 57, "properties": {"LOT_NUMBER": 151, "NUMHPSP06": 23, "LOT_TYPE": "Commuter Rail", "STATION": "LYNN / CENTRAL SQUARE", "NUMBIKSP06": 14, "NUMPKSP06": "965"}},{"geometry": {"type": "Point", "coordinates": [-70.922417413087331, 42.473557440422155]}, "type": "Feature", "id": 58, "properties": {"LOT_NUMBER": 150, "NUMHPSP06": 6, "LOT_TYPE": "Commuter Rail", "STATION": "SWAMPSCOTT", "NUMBIKSP06": 0, "NUMPKSP06": "131"}},{"geometry": {"type": "Point", "coordinates": [-70.869391854473236, 42.561880107650119]}, "type": "Feature", "id": 59, "properties": {"LOT_NUMBER": 144, "NUMHPSP06": 3, "LOT_TYPE": "Commuter Rail", "STATION": "MONTSERRAT", "NUMBIKSP06": 7, "NUMPKSP06": "116"}},{"geometry": {"type": "Point", "coordinates": [-70.811916688534779, 42.561681256137554]}, "type": "Feature", "id": 60, "properties": {"LOT_NUMBER": 142, "NUMHPSP06": 1, "LOT_TYPE": "Commuter Rail", "STATION": "BEVERLY FARMS", "NUMBIKSP06": 7, "NUMPKSP06": "25"}},{"geometry": {"type": "Point", "coordinates": [-70.769031880639403, 42.573925671539136]}, "type": "Feature", "id": 61, "properties": {"LOT_NUMBER": 141, "NUMHPSP06": 6, "LOT_TYPE": "Commuter Rail", "STATION": "MANCHESTER", "NUMBIKSP06": 7, "NUMPKSP06": "71"}},{"geometry": {"type": "Point", "coordinates": [-70.705330342429193, 42.611839781007816]}, "type": "Feature", "id": 62, "properties": {"LOT_NUMBER": 140, "NUMHPSP06": 2, "LOT_TYPE": "Commuter Rail", "STATION": "WEST GLOUCESTER", "NUMBIKSP06": 7, "NUMPKSP06": "44"}},{"geometry": {"type": "Point", "coordinates": [-70.626752244874368, 42.655881555480065]}, "type": "Feature", "id": 63, "properties": {"LOT_NUMBER": 138, "NUMHPSP06": 0, "LOT_TYPE": "Commuter Rail", "STATION": "ROCKPORT", "NUMBIKSP06": 7, "NUMPKSP06": "88"}},{"geometry": {"type": "Point", "coordinates": [-70.884060515047722, 42.583655157648948]}, "type": "Feature", "id": 64, "properties": {"LOT_NUMBER": 147, "NUMHPSP06": 3, "LOT_TYPE": "Commuter Rail", "STATION": "NORTH BEVERLY", "NUMBIKSP06": 0, "NUMPKSP06": "87"}},{"geometry": {"type": "Point", "coordinates": [-70.874490405070702, 42.609652765320391]}, "type": "Feature", "id": 65, "properties": {"LOT_NUMBER": 146, "NUMHPSP06": 6, "LOT_TYPE": "Commuter Rail", "STATION": "HAMILTON / WENHAM", "NUMBIKSP06": 0, "NUMPKSP06": "194"}},{"geometry": {"type": "Point", "coordinates": [-71.281768308524732, 42.378153876022495]}, "type": "Feature", "id": 66, "properties": {"LOT_NUMBER": 183, "NUMHPSP06": 0, "LOT_TYPE": "Commuter Rail", "STATION": "KENDAL GREEN", "NUMBIKSP06": 0, "NUMPKSP06": "57"}},{"geometry": {"type": "Point", "coordinates": [-71.216122479560127, 42.276133250642339]}, "type": "Feature", "id": 67, "properties": {"LOT_NUMBER": 201, "NUMHPSP06": 8, "LOT_TYPE": "Commuter Rail", "STATION": "HERSEY", "NUMBIKSP06": 11, "NUMPKSP06": "322"}},{"geometry": {"type": "Point", "coordinates": [-71.160109995591341, 42.281107180489435]}, "type": "Feature", "id": 68, "properties": {"LOT_NUMBER": 202, "NUMHPSP06": 2, "LOT_TYPE": "Commuter Rail", "STATION": "WEST ROXBURY", "NUMBIKSP06": 8, "NUMPKSP06": "62"}},{"geometry": {"type": "Point", "coordinates": [-71.153736552177548, 42.285222009769058]}, "type": "Feature", "id": 69, "properties": {"LOT_NUMBER": 203, "NUMHPSP06": 6, "LOT_TYPE": "Commuter Rail", "STATION": "HIGHLAND", "NUMBIKSP06": 0, "NUMPKSP06": "175"}},{"geometry": {"type": "Point", "coordinates": [-71.145870822937326, 42.28670390600611]}, "type": "Feature", "id": 70, "properties": {"LOT_NUMBER": 204, "NUMHPSP06": 2, "LOT_TYPE": "Commuter Rail", "STATION": "BELLEVUE", "NUMBIKSP06": 8, "NUMPKSP06": "37"}},{"geometry": {"type": "Point", "coordinates": [-71.14655016447071, 42.156933458652688]}, "type": "Feature", "id": 71, "properties": {"LOT_NUMBER": 225, "NUMHPSP06": 4, "LOT_TYPE": "Commuter Rail", "STATION": "CANTON CENTER", "NUMBIKSP06": 10, "NUMPKSP06": "215"}},{"geometry": {"type": "Point", "coordinates": [-71.184852350951317, 42.123348899860673]}, "type": "Feature", "id": 72, "properties": {"LOT_NUMBER": 223, "NUMHPSP06": 4, "LOT_TYPE": "Commuter Rail", "STATION": "SHARON", "NUMBIKSP06": 8, "NUMPKSP06": "542"}},{"geometry": {"type": "Point", "coordinates": [-71.355763196238044, 41.898304044809514]}, "type": "Feature", "id": 73, "properties": {"LOT_NUMBER": 220, "NUMHPSP06": 14, "LOT_TYPE": "Commuter Rail", "STATION": "SOUTH ATTLEBORO", "NUMBIKSP06": 2, "NUMPKSP06": "567"}},{"geometry": {"type": "Point", "coordinates": [-71.281614284853418, 42.593399537656822]}, "type": "Feature", "id": 74, "properties": {"LOT_NUMBER": 166, "NUMHPSP06": 13, "LOT_TYPE": "Commuter Rail", "STATION": "NORTH BILLERICA", "NUMBIKSP06": 14, "NUMPKSP06": "541"}},{"geometry": {"type": "Point", "coordinates": [-71.647673679163859, 42.545079660574743]}, "type": "Feature", "id": 75, "properties": {"LOT_NUMBER": 174, "NUMHPSP06": 2, "LOT_TYPE": "Commuter Rail", "STATION": "SHIRLEY", "NUMBIKSP06": 0, "NUMPKSP06": "25"}},{"geometry": {"type": "Point", "coordinates": [-71.277304338677027, 42.30977321263407]}, "type": "Feature", "id": 76, "properties": {"LOT_NUMBER": 192, "NUMHPSP06": 0, "LOT_TYPE": "Commuter Rail", "STATION": "WELLESLEY HILLS", "NUMBIKSP06": 0, "NUMPKSP06": "51"}},{"geometry": {"type": "Point", "coordinates": [-71.294339696212063, 42.296890791785415]}, "type": "Feature", "id": 77, "properties": {"LOT_NUMBER": 191, "NUMHPSP06": 2, "LOT_TYPE": "Commuter Rail", "STATION": "WELLESLEY SQUARE", "NUMBIKSP06": 0, "NUMPKSP06": "224"}},{"geometry": {"type": "Point", "coordinates": [-71.391539767136067, 42.282528410044904]}, "type": "Feature", "id": 78, "properties": {"LOT_NUMBER": 189, "NUMHPSP06": 4, "LOT_TYPE": "Commuter Rail", "STATION": "WEST NATICK", "NUMBIKSP06": 5, "NUMPKSP06": "178"}},{"geometry": {"type": "Point", "coordinates": [-71.119015560633954, 42.254134815385292]}, "type": "Feature", "id": 79, "properties": {"LOT_NUMBER": 228, "NUMHPSP06": 0, "LOT_TYPE": "Commuter Rail", "STATION": "FAIRMOUNT", "NUMBIKSP06": 0, "NUMPKSP06": "27"}},{"geometry": {"type": "Point", "coordinates": [-71.196881831103696, 42.196718835056473]}, "type": "Feature", "id": 80, "properties": {"LOT_NUMBER": 213, "NUMHPSP06": 8, "LOT_TYPE": "Commuter Rail", "STATION": "NORWOOD DEPOT", "NUMBIKSP06": 0, "NUMPKSP06": "227"}},{"geometry": {"type": "Point", "coordinates": [-71.396065257862006, 42.083574253415556]}, "type": "Feature", "id": 81, "properties": {"LOT_NUMBER": 207, "NUMHPSP06": 3, "LOT_TYPE": "Commuter Rail", "STATION": "FRANKLIN / DEAN COLL", "NUMBIKSP06": 7, "NUMPKSP06": "173"}},{"geometry": {"type": "Point", "coordinates": [-71.229406760746798, 42.348205521697722]}, "type": "Feature", "id": 82, "properties": {"LOT_NUMBER": 195, "NUMHPSP06": 3, "LOT_TYPE": "Commuter Rail", "STATION": "WEST NEWTON", "NUMBIKSP06": 0, "NUMPKSP06": "45"}},{"geometry": {"type": "Point", "coordinates": [-71.251308170617577, 42.345683229936668]}, "type": "Feature", "id": 83, "properties": {"LOT_NUMBER": 194, "NUMHPSP06": 0, "LOT_TYPE": "Commuter Rail", "STATION": "AUBURNDALE", "NUMBIKSP06": 0, "NUMPKSP06": "30"}},{"geometry": {"type": "Point", "coordinates": [-71.220758081244838, 42.032751278407822]}, "type": "Feature", "id": 84, "properties": {"LOT_NUMBER": 222, "NUMHPSP06": 9, "LOT_TYPE": "Commuter Rail", "STATION": "MANSFIELD", "NUMBIKSP06": 12, "NUMPKSP06": "806"}},{"geometry": {"type": "Point", "coordinates": [-71.237868033324716, 42.281137712841932]}, "type": "Feature", "id": 85, "properties": {"LOT_NUMBER": 199, "NUMHPSP06": 2, "LOT_TYPE": "Commuter Rail", "STATION": "NEEDHAM CENTER", "NUMBIKSP06": 6, "NUMPKSP06": "36"}},{"geometry": {"type": "Point", "coordinates": [-71.325838371527041, 42.414745929706712]}, "type": "Feature", "id": 86, "properties": {"LOT_NUMBER": 180, "NUMHPSP06": 0, "LOT_TYPE": "Commuter Rail", "STATION": "LINCOLN", "NUMBIKSP06": 21, "NUMPKSP06": "161"}},{"geometry": {"type": "Point", "coordinates": [-71.323953806177386, 42.120626635063353]}, "type": "Feature", "id": 87, "properties": {"LOT_NUMBER": 208, "NUMHPSP06": 11, "LOT_TYPE": "Commuter Rail", "STATION": "NORFOLK", "NUMBIKSP06": 8, "NUMPKSP06": "530"}},{"geometry": {"type": "Point", "coordinates": [-71.15899482505192, 42.233296816439264]}, "type": "Feature", "id": 88, "properties": {"LOT_NUMBER": 216, "NUMHPSP06": 0, "LOT_TYPE": "Commuter Rail", "STATION": "ENDICOTT", "NUMBIKSP06": 0, "NUMPKSP06": "45"}},{"geometry": {"type": "Point", "coordinates": [-71.125202472713141, 42.255145056073943]}, "type": "Feature", "id": 89, "properties": {"LOT_NUMBER": 218, "NUMHPSP06": 4, "LOT_TYPE": "Commuter Rail", "STATION": "HYDE PARK", "NUMBIKSP06": 10, "NUMPKSP06": "121"}},{"geometry": {"type": "Point", "coordinates": [-71.075219834600006, 42.426867613238109]}, "type": "Feature", "id": 90, "properties": {"LOT_NUMBER": 24, "NUMHPSP06": 4, "LOT_TYPE": "Both", "STATION": "MALDEN CENTER", "NUMBIKSP06": 0, "NUMPKSP06": "188"}},{"geometry": {"type": "Point", "coordinates": [-71.000673191362964, 42.207755533051092]}, "type": "Feature", "id": 91, "properties": {"LOT_NUMBER": 22, "NUMHPSP06": 22, "LOT_TYPE": "Both", "STATION": "BRAINTREE", "NUMBIKSP06": 30, "NUMPKSP06": "1281"}}]}