{"type":"FeatureCollection","features":[{"geometry": {"type": "Point", "coordinates": [-69.964509982924525, 41.262041528236949]}, "type": "Feature", "id": 1, "properties": {"ENC_PC": "02564", "PA_FIPS": "61940", "NTLINK_ID": "743384871", "STATE": "MA", "COUNTY": "FERRY", "CTYFIPS": "019", "PA_NAME": "SIASCONSET", "PC_NAME": "SIASCONSET", "POSTALCODE": "02564", "STFIPS": "25", "PC_TYPE": "PO BOX", "ACCURACY": "PC"}},{"geometry": {"type": "Point", "coordinates": [-70.104599934025217, 41.276651529435782]}, "type": "Feature", "id": 2, "properties": {"ENC_PC": "02554", "PA_FIPS": "43755", "NTLINK_ID": "31018543", "STATE": "MA", "COUNTY": "FERRY", "CTYFIPS": "019", "PA_NAME": "NANTUCKET", "PC_NAME": "NANTUCKET", "POSTALCODE": "02554", "STFIPS": "25", "PC_TYPE": "NON UNIQUE", "ACCURACY": "PC"}},{"geometry": {"type": "Point", "coordinates": [-70.786009708602776, 41.330081538888749]}, "type": "Feature", "id": 3, "properties": {"ENC_PC": "02535", "PA_FIPS": "40290", "NTLINK_ID": "31020056", "STATE": "MA", "COUNTY": "CHELAN", "CTYFIPS": "007", "PA_NAME": "MENEMSHA", "PC_NAME": "MENEMSHA", "POSTALCODE": "02552", "STFIPS": "25", "PC_TYPE": "PO BOX", "ACCURACY": "S"}},{"geometry": {"type": "Point", "coordinates": [-70.74416972302744, 41.353371532135839]}, "type": "Feature", "id": 4, "properties": {"ENC_PC": "02535", "PA_FIPS": "13765", "NTLINK_ID": "89710575", "STATE": "MA", "COUNTY": "CHELAN", "CTYFIPS": "007", "PA_NAME": "CHILMARK", "PC_NAME": "CHILMARK", "POSTALCODE": "02535", "STFIPS": "25", "PC_TYPE": "NON UNIQUE", "ACCURACY": "PC"}},{"geometry": {"type": "Point", "coordinates": [-70.522289792553224, 41.382841520665167]}, "type": "Feature", "id": 5, "properties": {"ENC_PC": "02539", "PA_FIPS": "21115", "NTLINK_ID": "89689811", "STATE": "MA", "COUNTY": "CHELAN", "CTYFIPS": "007", "PA_NAME": "EDGARTOWN", "PC_NAME": "EDGARTOWN", "POSTALCODE": "02539", "STFIPS": "25", "PC_TYPE": "NON UNIQUE", "ACCURACY": "PC"}},{"geometry": {"type": "Point", "coordinates": [-70.600399766096444, 41.411361517104012]}, "type": "Feature", "id": 6, "properties": {"ENC_PC": "02539", "PA_FIPS": "50425", "NTLINK_ID": "31017376", "STATE": "MA", "COUNTY": "CHELAN", "CTYFIPS": "007", "PA_NAME": "OAK BLUFFS", "PC_NAME": "OAK BLUFFS", "POSTALCODE": "02557", "STFIPS": "25", "PC_TYPE": "NON UNIQUE", "ACCURACY": "CS"}},{"geometry": {"type": "Point", "coordinates": [-70.604259763080293, 41.44256151106493]}, "type": "Feature", "id": 7, "properties": {"ENC_PC": "02568", "PA_FIPS": "71970", "NTLINK_ID": "31075304", "STATE": "MA", "COUNTY": "CHELAN", "CTYFIPS": "007", "PA_NAME": "VINEYARD HAVEN", "PC_NAME": "VINEYARD HAVEN", "POSTALCODE": "02568", "STFIPS": "25", "PC_TYPE": "NON UNIQUE", "ACCURACY": "PC"}},{"geometry": {"type": "Point", "coordinates": [-70.601159763533261, 41.453901509304835]}, "type": "Feature", "id": 8, "properties": {"ENC_PC": "02568", "PA_FIPS": "75645", "NTLINK_ID": "31017145", "STATE": "MA", "COUNTY": "CHELAN", "CTYFIPS": "007", "PA_NAME": "WEST CHOP", "PC_NAME": "WEST CHOP", "POSTALCODE": "02573", "STFIPS": "25", "PC_TYPE": "PO BOX", "ACCURACY": "S"}},{"geometry": {"type": "Point", "coordinates": [-70.754279711804074, 41.48484150667516]}, "type": "Feature", "id": 9, "properties": {"ENC_PC": "02713", "PA_FIPS": "16110", "NTLINK_ID": "31016565", "STATE": "MA", "COUNTY": "CHELAN", "CTYFIPS": "007", "PA_NAME": "CUTTYHUNK", "PC_NAME": "CUTTYHUNK", "POSTALCODE": "02713", "STFIPS": "25", "PC_TYPE": "PO BOX", "ACCURACY": "PC"}},{"geometry": {"type": "Point", "coordinates": [-71.072959605992011, 41.520941509395008]}, "type": "Feature", "id": 10, "properties": {"ENC_PC": "02791", "PA_FIPS": "77640", "NTLINK_ID": "92860758", "STATE": "MA", "COUNTY": "BENTON", "CTYFIPS": "005", "PA_NAME": "WESTPORT POINT", "PC_NAME": "WESTPORT POINT", "POSTALCODE": "02791", "STFIPS": "25", "PC_TYPE": "PO BOX", "ACCURACY": "PC"}},{"geometry": {"type": "Point", "coordinates": [-70.66250974084592, 41.527491495811844]}, "type": "Feature", "id": 11, "properties": {"ENC_PC": "02543", "PA_FIPS": "81245", "NTLINK_ID": "31016384", "STATE": "MA", "COUNTY": "ADAMS", "CTYFIPS": "001", "PA_NAME": "WOODS HOLE", "PC_NAME": "WOODS HOLE", "POSTALCODE": "02543", "STFIPS": "25", "PC_TYPE": "NON UNIQUE", "ACCURACY": "PC"}},{"geometry": {"type": "Point", "coordinates": [-70.617949753622199, 41.553301488960059]}, "type": "Feature", "id": 12, "properties": {"ENC_PC": "02540", "PA_FIPS": "23070", "NTLINK_ID": "31015759", "STATE": "MA", "COUNTY": "ADAMS", "CTYFIPS": "001", "PA_NAME": "FALMOUTH", "PC_NAME": "FALMOUTH", "POSTALCODE": "02541", "STFIPS": "25", "PC_TYPE": "PO BOX", "ACCURACY": "S"}},{"geometry": {"type": "Point", "coordinates": [-70.979889634792457, 41.562539966422086]}, "type": "Feature", "id": 13, "properties": {"ENC_PC": "02748", "PA_FIPS": "63585", "NTLINK_ID": "763935229", "STATE": "MA", "COUNTY": "BENTON", "CTYFIPS": "005", "PA_NAME": "SOUTH DARTMOUTH", "PC_NAME": "SOUTH DARTMOUTH", "POSTALCODE": "02748", "STFIPS": "25", "PC_TYPE": "NON UNIQUE", "ACCURACY": "PC"}},{"geometry": {"type": "Point", "coordinates": [-70.61935975126552, 41.563251488200812]}, "type": "Feature", "id": 14, "properties": {"ENC_PC": "02540", "PA_FIPS": "23070", "NTLINK_ID": "31015484", "STATE": "MA", "COUNTY": "ADAMS", "CTYFIPS": "001", "PA_NAME": "FALMOUTH", "PC_NAME": "FALMOUTH", "POSTALCODE": "02540", "STFIPS": "25", "PC_TYPE": "NON UNIQUE", "ACCURACY": "PC"}},{"geometry": {"type": "Point", "coordinates": [-70.563499770236447, 41.581651481952356]}, "type": "Feature", "id": 15, "properties": {"ENC_PC": "02536", "PA_FIPS": "18980", "NTLINK_ID": "31027712", "STATE": "MA", "COUNTY": "ADAMS", "CTYFIPS": "001", "PA_NAME": "EAST FALMOUTH", "PC_NAME": "EAST FALMOUTH", "POSTALCODE": "02536", "STFIPS": "25", "PC_TYPE": "NON UNIQUE", "ACCURACY": "PC"}},{"geometry": {"type": "Point", "coordinates": [-70.635749744652301, 41.59245148342039]}, "type": "Feature", "id": 16, "properties": {"ENC_PC": "02540", "PA_FIPS": "75960", "NTLINK_ID": "31082405", "STATE": "MA", "COUNTY": "ADAMS", "CTYFIPS": "001", "PA_NAME": "WEST FALMOUTH", "PC_NAME": "WEST FALMOUTH", "POSTALCODE": "02574", "STFIPS": "25", "PC_TYPE": "PO BOX", "ACCURACY": "S"}},{"geometry": {"type": "Point", "coordinates": [-70.940969643978008, 41.604081488877831]}, "type": "Feature", "id": 17, "properties": {"ENC_PC": "02748", "PC_TYPE": "PO BOX", "NTLINK_ID": "31032627", "STATE": "MA", "COUNTY": "BENTON", "CTYFIPS": "005", "PA_NAME": "DARTMOUTH", "PC_NAME": "DARTMOUTH", "POSTALCODE": "02714", "STFIPS": "25", "ACCURACY": "S"}},{"geometry": {"type": "Point", "coordinates": [-70.915559652076027, 41.611491486821549]}, "type": "Feature", "id": 18, "properties": {"ENC_PC": "02744", "PA_FIPS": "45000", "NTLINK_ID": "31032345", "STATE": "MA", "COUNTY": "BENTON", "CTYFIPS": "005", "PA_NAME": "NEW BEDFORD", "PC_NAME": "NEW BEDFORD", "POSTALCODE": "02744", "STFIPS": "25", "PC_TYPE": "NON UNIQUE", "ACCURACY": "PC"}},{"geometry": {"type": "Point", "coordinates": [-70.485249793190803, 41.611891474435943]}, "type": "Feature", "id": 19, "properties": {"ENC_PC": "02649", "PA_FIPS": "39065", "NTLINK_ID": "89701329", "STATE": "MA", "COUNTY": "ADAMS", "CTYFIPS": "001", "PA_NAME": "MASHPEE", "PC_NAME": "MASHPEE", "POSTALCODE": "02649", "STFIPS": "25", "PC_TYPE": "NON UNIQUE", "ACCURACY": "PC"}},{"geometry": {"type": "Point", "coordinates": [-71.086829596594427, 41.61866149099194]}, "type": "Feature", "id": 20, "properties": {"ENC_PC": "02790", "PC_TYPE": "NON UNIQUE", "NTLINK_ID": "89689356", "STATE": "MA", "COUNTY": "BENTON", "CTYFIPS": "005", "PA_NAME": "WESTPORT", "PC_NAME": "WESTPORT", "POSTALCODE": "02790", "STFIPS": "25", "ACCURACY": "PC"}},{"geometry": {"type": "Point", "coordinates": [-70.440409807822476, 41.626661470424651]}, "type": "Feature", "id": 21, "properties": {"ENC_PC": "02635", "PA_FIPS": "15515", "NTLINK_ID": "31013473", "STATE": "MA", "COUNTY": "ADAMS", "CTYFIPS": "001", "PA_NAME": "COTUIT", "PC_NAME": "COTUIT", "POSTALCODE": "02635", "STFIPS": "25", "PC_TYPE": "NON UNIQUE", "ACCURACY": "PC"}},{"geometry": {"type": "Point", "coordinates": [-70.302849852963789, 41.631991465194965]}, "type": "Feature", "id": 22, "properties": {"ENC_PC": "02647", "PA_FIPS": "31890", "NTLINK_ID": "31013247", "STATE": "MA", "COUNTY": "ADAMS", "CTYFIPS": "001", "PA_NAME": "HYANNIS PORT", "PC_NAME": "HYANNIS PORT", "POSTALCODE": "02647", "STFIPS": "25", "PC_TYPE": "PO BOX", "ACCURACY": "PC"}},{"geometry": {"type": "Point", "coordinates": [-70.8106446863857, 41.634313955647414]}, "type": "Feature", "id": 23, "properties": {"ENC_PC": "02739", "PA_FIPS": "39415", "NTLINK_ID": "92864130", "STATE": "MA", "COUNTY": "GARFIELD", "CTYFIPS": "023", "PA_NAME": "MATTAPOISETT", "PC_NAME": "MATTAPOISETT", "POSTALCODE": "02739", "STFIPS": "25", "PC_TYPE": "NON UNIQUE", "ACCURACY": "PC"}},{"geometry": {"type": "Point", "coordinates": [-70.383699825880683, 41.634431466507444]}, "type": "Feature", "id": 24, "properties": {"ENC_PC": "02655", "PA_FIPS": "51510", "NTLINK_ID": "31030334", "STATE": "MA", "COUNTY": "ADAMS", "CTYFIPS": "001", "PA_NAME": "OSTERVILLE", "PC_NAME": "OSTERVILLE", "POSTALCODE": "02655", "STFIPS": "25", "PC_TYPE": "NON UNIQUE", "ACCURACY": "PC"}},{"geometry": {"type": "Point", "coordinates": [-70.936899643728665, 41.635291483247968]}, "type": "Feature", "id": 25, "properties": {"ENC_PC": "02740", "PA_FIPS": "45000", "NTLINK_ID": "31052290", "STATE": "MA", "COUNTY": "BENTON", "CTYFIPS": "005", "PA_NAME": "NEW BEDFORD", "PC_NAME": "NEW BEDFORD", "POSTALCODE": "02740", "STFIPS": "25", "PC_TYPE": "NON UNIQUE", "ACCURACY": "PC"}},{"geometry": {"type": "Point", "coordinates": [-70.883859662484781, 41.635811481425101]}, "type": "Feature", "id": 26, "properties": {"ENC_PC": "02719", "PA_FIPS": "22165", "NTLINK_ID": "92860335", "STATE": "MA", "COUNTY": "BENTON", "CTYFIPS": "005", "PA_NAME": "FAIRHAVEN", "PC_NAME": "FAIRHAVEN", "POSTALCODE": "02719", "STFIPS": "25", "PC_TYPE": "NON UNIQUE", "ACCURACY": "PC"}},{"geometry": {"type": "Point", "coordinates": [-70.927229646946785, 41.636281482696681]}, "type": "Feature", "id": 27, "properties": {"ENC_PC": "02740", "PA_FIPS": "45000", "NTLINK_ID": "31052140", "STATE": "MA", "COUNTY": "BENTON", "CTYFIPS": "005", "PA_NAME": "NEW BEDFORD", "PC_NAME": "NEW BEDFORD", "POSTALCODE": "02741", "STFIPS": "25", "PC_TYPE": "PO BOX", "ACCURACY": "S"}},{"geometry": {"type": "Point", "coordinates": [-70.927229646946785, 41.636281482696681]}, "type": "Feature", "id": 28, "properties": {"ENC_PC": "02740", "PA_FIPS": "45000", "NTLINK_ID": "31052140", "STATE": "MA", "COUNTY": "BENTON", "CTYFIPS": "005", "PA_NAME": "NEW BEDFORD", "PC_NAME": "NEW BEDFORD", "POSTALCODE": "02742", "STFIPS": "25", "PC_TYPE": "PO BOX", "ACCURACY": "S"}},{"geometry": {"type": "Point", "coordinates": [-70.318929846442614, 41.639241464298259]}, "type": "Feature", "id": 29, "properties": {"ENC_PC": "02601", "PA_FIPS": "76590", "NTLINK_ID": "31084565", "STATE": "MA", "COUNTY": "ADAMS", "CTYFIPS": "001", "PA_NAME": "WEST HYANNISPORT", "PC_NAME": "WEST HYANNISPORT", "POSTALCODE": "02672", "STFIPS": "25", "PC_TYPE": "PO BOX", "ACCURACY": "S"}},{"geometry": {"type": "Point", "coordinates": [-70.627969744634655, 41.641091472061191]}, "type": "Feature", "id": 30, "properties": {"ENC_PC": "02556", "PA_FIPS": "47730", "NTLINK_ID": "31027699", "STATE": "MA", "COUNTY": "ADAMS", "CTYFIPS": "001", "PA_NAME": "NORTH FALMOUTH", "PC_NAME": "NORTH FALMOUTH", "POSTALCODE": "02556", "STFIPS": "25", "PC_TYPE": "NON UNIQUE", "ACCURACY": "PC"}},{"geometry": {"type": "Point", "coordinates": [-70.994779626469068, 41.641631483137253]}, "type": "Feature", "id": 31, "properties": {"ENC_PC": "02747", "PA_FIPS": "47450", "NTLINK_ID": "135530640", "STATE": "MA", "COUNTY": "BENTON", "CTYFIPS": "005", "PA_NAME": "NORTH DARTMOUTH", "PC_NAME": "NORTH DARTMOUTH", "POSTALCODE": "02747", "STFIPS": "25", "PC_TYPE": "NON UNIQUE", "ACCURACY": "PC"}},{"geometry": {"type": "Point", "coordinates": [-70.612179749671768, 41.650371470774417]}, "type": "Feature", "id": 32, "properties": {"ENC_PC": "02556", "PA_FIPS": "61975", "NTLINK_ID": "31011992", "STATE": "MA", "COUNTY": "ADAMS", "CTYFIPS": "001", "PA_NAME": "SILVER BEACH", "PC_NAME": "SILVER BEACH", "POSTALCODE": "02565", "STFIPS": "25", "PC_TYPE": "PO BOX", "ACCURACY": "S"}},{"geometry": {"type": "Point", "coordinates": [-70.28092985874099, 41.651621460317074]}, "type": "Feature", "id": 33, "properties": {"ENC_PC": "02601", "PA_FIPS": "12890", "NTLINK_ID": "31011292", "STATE": "MA", "COUNTY": "BENTON", "CTYFIPS": "005", "PA_NAME": "CHARTLEY", "PC_NAME": "CHARTLEY", "POSTALCODE": "02712", "STFIPS": "25", "PC_TYPE": "PO BOX", "ACCURACY": "S"}},{"geometry": {"type": "Point", "coordinates": [-70.296579853405362, 41.655091461043128]}, "type": "Feature", "id": 34, "properties": {"ENC_PC": "02601", "PA_FIPS": "31820", "NTLINK_ID": "31010920", "STATE": "MA", "COUNTY": "ADAMS", "CTYFIPS": "001", "PA_NAME": "HYANNIS", "PC_NAME": "HYANNIS", "POSTALCODE": "02601", "STFIPS": "25", "PC_TYPE": "NON UNIQUE", "ACCURACY": "PC"}},{"geometry": {"type": "Point", "coordinates": [-70.240489872040811, 41.656901458543523]}, "type": "Feature", "id": 35, "properties": {"ENC_PC": "02673", "PA_FIPS": "78795", "NTLINK_ID": "31021539", "STATE": "MA", "COUNTY": "ADAMS", "CTYFIPS": "001", "PA_NAME": "WEST YARMOUTH", "PC_NAME": "WEST YARMOUTH", "POSTALCODE": "02673", "STFIPS": "25", "PC_TYPE": "NON UNIQUE", "ACCURACY": "PC"}},{"geometry": {"type": "Point", "coordinates": [-70.348299835728142, 41.65704146137729]}, "type": "Feature", "id": 36, "properties": {"ENC_PC": "02632", "PA_FIPS": "12085", "NTLINK_ID": "772406598", "STATE": "MA", "COUNTY": "ADAMS", "CTYFIPS": "001", "PA_NAME": "CENTERVILLE", "PC_NAME": "CENTERVILLE", "POSTALCODE": "02634", "STFIPS": "25", "PC_TYPE": "PO BOX", "ACCURACY": "S"}},{"geometry": {"type": "Point", "coordinates": [-70.571089762683073, 41.659221467075184]}, "type": "Feature", "id": 37, "properties": {"ENC_PC": "02542", "PA_FIPS": "10015", "NTLINK_ID": "31010536", "STATE": "MA", "COUNTY": "ADAMS", "CTYFIPS": "001", "PA_NAME": "BUZZARDS BAY", "PC_NAME": "BUZZARDS BAY", "POSTALCODE": "02542", "STFIPS": "25", "PC_TYPE": "NON UNIQUE", "ACCURACY": "PC"}},{"geometry": {"type": "Point", "coordinates": [-70.347239836553783, 41.659461461487801]}, "type": "Feature", "id": 38, "properties": {"ENC_PC": "02632", "PA_FIPS": "12085", "NTLINK_ID": "31010344", "STATE": "MA", "COUNTY": "ADAMS", "CTYFIPS": "001", "PA_NAME": "CENTERVILLE", "PC_NAME": "CENTERVILLE", "POSTALCODE": "02632", "STFIPS": "25", "PC_TYPE": "NON UNIQUE", "ACCURACY": "PC"}},{"geometry": {"type": "Point", "coordinates": [-70.932189645246609, 41.660201478229368]}, "type": "Feature", "id": 39, "properties": {"ENC_PC": "02746", "PA_FIPS": "45000", "NTLINK_ID": "31049702", "STATE": "MA", "COUNTY": "BENTON", "CTYFIPS": "005", "PA_NAME": "NEW BEDFORD", "PC_NAME": "NEW BEDFORD", "POSTALCODE": "02746", "STFIPS": "25", "PC_TYPE": "NON UNIQUE", "ACCURACY": "PC"}},{"geometry": {"type": "Point", "coordinates": [-70.165809897168629, 41.661091455722577]}, "type": "Feature", "id": 40, "properties": {"ENC_PC": "02670", "PA_FIPS": "75820", "NTLINK_ID": "31010017", "STATE": "MA", "COUNTY": "ADAMS", "CTYFIPS": "001", "PA_NAME": "WEST DENNIS", "PC_NAME": "WEST DENNIS", "POSTALCODE": "02670", "STFIPS": "25", "PC_TYPE": "NON UNIQUE", "ACCURACY": "PC"}},{"geometry": {"type": "Point", "coordinates": [-70.133629905679399, 41.663181454829612]}, "type": "Feature", "id": 41, "properties": {"ENC_PC": "02639", "PA_FIPS": "16810", "NTLINK_ID": "31009592", "STATE": "MA", "COUNTY": "ADAMS", "CTYFIPS": "001", "PA_NAME": "DENNIS PORT", "PC_NAME": "DENNIS PORT", "POSTALCODE": "02639", "STFIPS": "25", "PC_TYPE": "NON UNIQUE", "ACCURACY": "PC"}},{"geometry": {"type": "Point", "coordinates": [-70.609949750341585, 41.664671467040414]}, "type": "Feature", "id": 42, "properties": {"ENC_PC": "02534", "PA_FIPS": "11805", "NTLINK_ID": "728183811", "STATE": "MA", "COUNTY": "ADAMS", "CTYFIPS": "001", "PA_NAME": "CATAUMET", "PC_NAME": "CATAUMET", "POSTALCODE": "02534", "STFIPS": "25", "PC_TYPE": "PO BOX", "ACCURACY": "PC"}},{"geometry": {"type": "Point", "coordinates": [-70.111179914045167, 41.665381453402532]}, "type": "Feature", "id": 43, "properties": {"ENC_PC": "02671", "PA_FIPS": "76450", "NTLINK_ID": "31029897", "STATE": "MA", "COUNTY": "ADAMS", "CTYFIPS": "001", "PA_NAME": "WEST HARWICH", "PC_NAME": "WEST HARWICH", "POSTALCODE": "02671", "STFIPS": "25", "PC_TYPE": "NON UNIQUE", "ACCURACY": "PC"}},{"geometry": {"type": "Point", "coordinates": [-70.41611981340408, 41.667511461836142]}, "type": "Feature", "id": 44, "properties": {"ENC_PC": "02648", "PA_FIPS": "38995", "NTLINK_ID": "31027641", "STATE": "MA", "COUNTY": "ADAMS", "CTYFIPS": "001", "PA_NAME": "MARSTONS MILLS", "PC_NAME": "MARSTONS MILLS", "POSTALCODE": "02648", "STFIPS": "25", "PC_TYPE": "NON UNIQUE", "ACCURACY": "PC"}},{"geometry": {"type": "Point", "coordinates": [-70.075119924956326, 41.669811451158694]}, "type": "Feature", "id": 45, "properties": {"ENC_PC": "02646", "PA_FIPS": "29090", "NTLINK_ID": "92854851", "STATE": "MA", "COUNTY": "ADAMS", "CTYFIPS": "001", "PA_NAME": "HARWICH PORT", "PC_NAME": "HARWICH PORT", "POSTALCODE": "02646", "STFIPS": "25", "PC_TYPE": "NON UNIQUE", "ACCURACY": "PC"}},{"geometry": {"type": "Point", "coordinates": [-70.197169884162577, 41.670241454562174]}, "type": "Feature", "id": 46, "properties": {"ENC_PC": "02664", "PA_FIPS": "66035", "NTLINK_ID": "31019822", "STATE": "MA", "COUNTY": "ADAMS", "CTYFIPS": "001", "PA_NAME": "SOUTH YARMOUTH", "PC_NAME": "SOUTH YARMOUTH", "POSTALCODE": "02664", "STFIPS": "25", "PC_TYPE": "NON UNIQUE", "ACCURACY": "PC"}},{"geometry": {"type": "Point", "coordinates": [-70.041409937466383, 41.677921449174789]}, "type": "Feature", "id": 47, "properties": {"ENC_PC": "02645", "PA_FIPS": "64320", "NTLINK_ID": "31085610", "STATE": "MA", "COUNTY": "ADAMS", "CTYFIPS": "001", "PA_NAME": "SOUTH HARWICH", "PC_NAME": "SOUTH HARWICH", "POSTALCODE": "02661", "STFIPS": "25", "PC_TYPE": "PO BOX", "ACCURACY": "S"}},{"geometry": {"type": "Point", "coordinates": [-70.024059941200079, 41.679331447901788]}, "type": "Feature", "id": 48, "properties": {"ENC_PC": "02659", "PA_FIPS": "63515", "NTLINK_ID": "31007178", "STATE": "MA", "COUNTY": "ADAMS", "CTYFIPS": "001", "PA_NAME": "SOUTH CHATHAM", "PC_NAME": "SOUTH CHATHAM", "POSTALCODE": "02659", "STFIPS": "25", "PC_TYPE": "NON UNIQUE", "ACCURACY": "PC"}},{"geometry": {"type": "Point", "coordinates": [-70.512569781396905, 41.683061461049441]}, "type": "Feature", "id": 49, "properties": {"ENC_PC": "02644", "PA_FIPS": "24190", "NTLINK_ID": "31078407", "STATE": "MA", "COUNTY": "ADAMS", "CTYFIPS": "001", "PA_NAME": "FORESTDALE", "PC_NAME": "FORESTDALE", "POSTALCODE": "02644", "STFIPS": "25", "PC_TYPE": "NON UNIQUE", "ACCURACY": "PC"}},{"geometry": {"type": "Point", "coordinates": [-71.17507956351325, 41.684421480054951]}, "type": "Feature", "id": 50, "properties": {"ENC_PC": "02724", "PA_FIPS": "23000", "NTLINK_ID": "31047745", "STATE": "MA", "COUNTY": "BENTON", "CTYFIPS": "005", "PA_NAME": "FALL RIVER", "PC_NAME": "FALL RIVER", "POSTALCODE": "02724", "STFIPS": "25", "PC_TYPE": "NON UNIQUE", "ACCURACY": "PC"}},{"geometry": {"type": "Point", "coordinates": [-69.977999955855509, 41.685981445625565]}, "type": "Feature", "id": 51, "properties": {"ENC_PC": "02633", "PA_FIPS": "12960", "NTLINK_ID": "31006349", "STATE": "MA", "COUNTY": "ADAMS", "CTYFIPS": "001", "PA_NAME": "CHATHAM", "PC_NAME": "CHATHAM", "POSTALCODE": "02633", "STFIPS": "25", "PC_TYPE": "NON UNIQUE", "ACCURACY": "PC"}},{"geometry": {"type": "Point", "coordinates": [-71.155429570987906, 41.686741479926553]}, "type": "Feature", "id": 52, "properties": {"ENC_PC": "02721", "PA_FIPS": "23000", "NTLINK_ID": "31047409", "STATE": "MA", "COUNTY": "BENTON", "CTYFIPS": "005", "PA_NAME": "FALL RIVER", "PC_NAME": "FALL RIVER", "POSTALCODE": "02721", "STFIPS": "25", "PC_TYPE": "NON UNIQUE", "ACCURACY": "PC"}},{"geometry": {"type": "Point", "coordinates": [-70.757784699583212, 41.690715109683644]}, "type": "Feature", "id": 53, "properties": {"ENC_PC": "02738", "PA_FIPS": "38505", "NTLINK_ID": "31030924", "STATE": "MA", "COUNTY": "GARFIELD", "CTYFIPS": "023", "PA_NAME": "MARION", "PC_NAME": "MARION", "POSTALCODE": "02738", "STFIPS": "25", "PC_TYPE": "NON UNIQUE", "ACCURACY": "PC"}},{"geometry": {"type": "Point", "coordinates": [-71.132579578503609, 41.693111478020725]}, "type": "Feature", "id": 54, "properties": {"ENC_PC": "02723", "PA_FIPS": "23000", "NTLINK_ID": "31083172", "STATE": "MA", "COUNTY": "BENTON", "CTYFIPS": "005", "PA_NAME": "FALL RIVER", "PC_NAME": "FALL RIVER", "POSTALCODE": "02723", "STFIPS": "25", "PC_TYPE": "NON UNIQUE", "ACCURACY": "PC"}},{"geometry": {"type": "Point", "coordinates": [-70.608879749374253, 41.693261462042592]}, "type": "Feature", "id": 55, "properties": {"ENC_PC": "02559", "PA_FIPS": "54450", "NTLINK_ID": "31006311", "STATE": "MA", "COUNTY": "ADAMS", "CTYFIPS": "001", "PA_NAME": "POCASSET", "PC_NAME": "POCASSET", "POSTALCODE": "02559", "STFIPS": "25", "PC_TYPE": "NON UNIQUE", "ACCURACY": "PC"}},{"geometry": {"type": "Point", "coordinates": [-70.935659641776013, 41.693561470719501]}, "type": "Feature", "id": 56, "properties": {"ENC_PC": "02745", "PA_FIPS": "45000", "NTLINK_ID": "31046571", "STATE": "MA", "COUNTY": "BENTON", "CTYFIPS": "005", "PA_NAME": "NEW BEDFORD", "PC_NAME": "NEW BEDFORD", "POSTALCODE": "02745", "STFIPS": "25", "PC_TYPE": "NON UNIQUE", "ACCURACY": "PC"}},{"geometry": {"type": "Point", "coordinates": [-70.90937965145983, 41.697351470235859]}, "type": "Feature", "id": 57, "properties": {"ENC_PC": "02743", "PA_FIPS": "00485", "NTLINK_ID": "825523338", "STATE": "MA", "COUNTY": "BENTON", "CTYFIPS": "005", "PA_NAME": "ACUSHNET", "PC_NAME": "ACUSHNET", "POSTALCODE": "02743", "STFIPS": "25", "PC_TYPE": "NON UNIQUE", "ACCURACY": "PC"}},{"geometry": {"type": "Point", "coordinates": [-70.298709849830558, 41.699651451273795]}, "type": "Feature", "id": 58, "properties": {"ENC_PC": "02630", "PA_FIPS": "03600", "NTLINK_ID": "31026592", "STATE": "MA", "COUNTY": "ADAMS", "CTYFIPS": "001", "PA_NAME": "BARNSTABLE", "PC_NAME": "BARNSTABLE", "POSTALCODE": "02630", "STFIPS": "25", "PC_TYPE": "NON UNIQUE", "ACCURACY": "PC"}},{"geometry": {"type": "Point", "coordinates": [-71.149309570839961, 41.699811476181559]}, "type": "Feature", "id": 59, "properties": {"ENC_PC": "02720", "PA_FIPS": "23000", "NTLINK_ID": "31046098", "STATE": "MA", "COUNTY": "BENTON", "CTYFIPS": "005", "PA_NAME": "FALL RIVER", "PC_NAME": "FALL RIVER", "POSTALCODE": "02722", "STFIPS": "25", "PC_TYPE": "PO BOX", "ACCURACY": "T"}},{"geometry": {"type": "Point", "coordinates": [-70.05781993003616, 41.700931444072943]}, "type": "Feature", "id": 60, "properties": {"ENC_PC": "02645", "PA_FIPS": "28985", "NTLINK_ID": "31005135", "STATE": "MA", "COUNTY": "ADAMS", "CTYFIPS": "001", "PA_NAME": "HARWICH", "PC_NAME": "HARWICH", "POSTALCODE": "02645", "STFIPS": "25", "PC_TYPE": "NON UNIQUE", "ACCURACY": "PC"}},{"geometry": {"type": "Point", "coordinates": [-70.376049825706744, 41.7015814536364]}, "type": "Feature", "id": 61, "properties": {"ENC_PC": "02668", "PA_FIPS": "74805", "NTLINK_ID": "31005553", "STATE": "MA", "COUNTY": "ADAMS", "CTYFIPS": "001", "PA_NAME": "WEST BARNSTABLE", "PC_NAME": "WEST BARNSTABLE", "POSTALCODE": "02668", "STFIPS": "25", "PC_TYPE": "NON UNIQUE", "ACCURACY": "PC"}},{"geometry": {"type": "Point", "coordinates": [-70.272499859621206, 41.702401450884537]}, "type": "Feature", "id": 62, "properties": {"ENC_PC": "02637", "PA_FIPS": "15970", "NTLINK_ID": "744664681", "STATE": "MA", "COUNTY": "ADAMS", "CTYFIPS": "001", "PA_NAME": "CUMMAQUID", "PC_NAME": "CUMMAQUID", "POSTALCODE": "02637", "STFIPS": "25", "PC_TYPE": "PO BOX", "ACCURACY": "PC"}},{"geometry": {"type": "Point", "coordinates": [-69.966089959574489, 41.702741441903711]}, "type": "Feature", "id": 63, "properties": {"ENC_PC": "02650", "PA_FIPS": "47275", "NTLINK_ID": "92854127", "STATE": "MA", "COUNTY": "ADAMS", "CTYFIPS": "001", "PA_NAME": "NORTH CHATHAM", "PC_NAME": "NORTH CHATHAM", "POSTALCODE": "02650", "STFIPS": "25", "PC_TYPE": "NON UNIQUE", "ACCURACY": "PC"}},{"geometry": {"type": "Point", "coordinates": [-70.223109875310655, 41.705651449060184]}, "type": "Feature", "id": 64, "properties": {"ENC_PC": "02675", "PA_FIPS": "82595", "NTLINK_ID": "31024049", "STATE": "MA", "COUNTY": "ADAMS", "CTYFIPS": "001", "PA_NAME": "YARMOUTH PORT", "PC_NAME": "YARMOUTH PORT", "POSTALCODE": "02675", "STFIPS": "25", "PC_TYPE": "NON UNIQUE", "ACCURACY": "PC"}},{"geometry": {"type": "Point", "coordinates": [-70.158499896600119, 41.709281445944882]}, "type": "Feature", "id": 65, "properties": {"ENC_PC": "02660", "PA_FIPS": "63655", "NTLINK_ID": "31027892", "STATE": "MA", "COUNTY": "ADAMS", "CTYFIPS": "001", "PA_NAME": "SOUTH DENNIS", "PC_NAME": "SOUTH DENNIS", "POSTALCODE": "02660", "STFIPS": "25", "PC_TYPE": "NON UNIQUE", "ACCURACY": "PC"}},{"geometry": {"type": "Point", "coordinates": [-70.614269745832772, 41.719351457765441]}, "type": "Feature", "id": 66, "properties": {"ENC_PC": "02559", "PA_FIPS": "42670", "NTLINK_ID": "744335117", "STATE": "MA", "COUNTY": "ADAMS", "CTYFIPS": "001", "PA_NAME": "MONUMENT BEACH", "PC_NAME": "MONUMENT BEACH", "POSTALCODE": "02553", "STFIPS": "25", "PC_TYPE": "PO BOX", "ACCURACY": "S"}},{"geometry": {"type": "Point", "coordinates": [-71.138539574043165, 41.71957147270254]}, "type": "Feature", "id": 67, "properties": {"ENC_PC": "02720", "PA_FIPS": "23000", "NTLINK_ID": "31044574", "STATE": "MA", "COUNTY": "BENTON", "CTYFIPS": "005", "PA_NAME": "FALL RIVER", "PC_NAME": "FALL RIVER", "POSTALCODE": "02720", "STFIPS": "25", "PC_TYPE": "NON UNIQUE", "ACCURACY": "PC"}},{"geometry": {"type": "Point", "coordinates": [-71.176769561230756, 41.722951472920215]}, "type": "Feature", "id": 68, "properties": {"ENC_PC": "02725", "PA_FIPS": "62465", "NTLINK_ID": "764258873", "STATE": "MA", "COUNTY": "BENTON", "CTYFIPS": "005", "PA_NAME": "SOMERSET", "PC_NAME": "SOMERSET", "POSTALCODE": "02725", "STFIPS": "25", "PC_TYPE": "NON UNIQUE", "ACCURACY": "PC"}},{"geometry": {"type": "Point", "coordinates": [-70.479559790886782, 41.725161452145827]}, "type": "Feature", "id": 69, "properties": {"ENC_PC": "02563", "PA_FIPS": "59700", "NTLINK_ID": "814635169", "STATE": "MA", "COUNTY": "ADAMS", "CTYFIPS": "001", "PA_NAME": "SANDWICH", "PC_NAME": "SANDWICH", "POSTALCODE": "02563", "STFIPS": "25", "PC_TYPE": "NON UNIQUE", "ACCURACY": "PC"}},{"geometry": {"type": "Point", "coordinates": [-70.436759802572865, 41.728961449460137]}, "type": "Feature", "id": 70, "properties": {"ENC_PC": "02537", "PA_FIPS": "20380", "NTLINK_ID": "31003507", "STATE": "MA", "COUNTY": "ADAMS", "CTYFIPS": "001", "PA_NAME": "EAST SANDWICH", "PC_NAME": "EAST SANDWICH", "POSTALCODE": "02537", "STFIPS": "25", "PC_TYPE": "NON UNIQUE", "ACCURACY": "PC"}},{"geometry": {"type": "Point", "coordinates": [-70.193919883525439, 41.735081442678094]}, "type": "Feature", "id": 71, "properties": {"ENC_PC": "02638", "PA_FIPS": "16740", "NTLINK_ID": "89714736", "STATE": "MA", "COUNTY": "ADAMS", "CTYFIPS": "001", "PA_NAME": "DENNIS", "PC_NAME": "DENNIS", "POSTALCODE": "02638", "STFIPS": "25", "PC_TYPE": "NON UNIQUE", "ACCURACY": "PC"}},{"geometry": {"type": "Point", "coordinates": [-70.160409894686282, 41.742871438947063]}, "type": "Feature", "id": 72, "properties": {"ENC_PC": "02641", "PA_FIPS": "18840", "NTLINK_ID": "31029957", "STATE": "MA", "COUNTY": "ADAMS", "CTYFIPS": "001", "PA_NAME": "EAST DENNIS", "PC_NAME": "EAST DENNIS", "POSTALCODE": "02641", "STFIPS": "25", "PC_TYPE": "PO BOX", "ACCURACY": "PC"}},{"geometry": {"type": "Point", "coordinates": [-70.660769729129669, 41.742941453976741]}, "type": "Feature", "id": 73, "properties": {"ENC_PC": "02558", "PA_FIPS": "51160", "NTLINK_ID": "31002449", "STATE": "MA", "COUNTY": "GARFIELD", "CTYFIPS": "023", "PA_NAME": "ONSET", "PC_NAME": "ONSET", "POSTALCODE": "02558", "STFIPS": "25", "PC_TYPE": "PO BOX", "ACCURACY": "PC"}},{"geometry": {"type": "Point", "coordinates": [-71.210119548606627, 41.744971470373528]}, "type": "Feature", "id": 74, "properties": {"ENC_PC": "02777", "PA_FIPS": "68715", "NTLINK_ID": "92821891", "STATE": "MA", "COUNTY": "BENTON", "CTYFIPS": "005", "PA_NAME": "SWANSEA", "PC_NAME": "SWANSEA", "POSTALCODE": "02777", "STFIPS": "25", "PC_TYPE": "NON UNIQUE", "ACCURACY": "PC"}},{"geometry": {"type": "Point", "coordinates": [-70.609639746338971, 41.746611451709349]}, "type": "Feature", "id": 75, "properties": {"ENC_PC": "02532", "PA_FIPS": "10015", "NTLINK_ID": "31001900", "STATE": "MA", "COUNTY": "ADAMS", "CTYFIPS": "001", "PA_NAME": "BUZZARDS BAY", "PC_NAME": "BUZZARDS BAY", "POSTALCODE": "02532", "STFIPS": "25", "PC_TYPE": "NON UNIQUE", "ACCURACY": "PC"}},{"geometry": {"type": "Point", "coordinates": [-70.072349923008161, 41.750661435464075]}, "type": "Feature", "id": 76, "properties": {"ENC_PC": "02631", "PA_FIPS": "07945", "NTLINK_ID": "31001364", "STATE": "MA", "COUNTY": "ADAMS", "CTYFIPS": "001", "PA_NAME": "BREWSTER", "PC_NAME": "BREWSTER", "POSTALCODE": "02631", "STFIPS": "25", "PC_TYPE": "NON UNIQUE", "ACCURACY": "PC"}},{"geometry": {"type": "Point", "coordinates": [-70.713409711528428, 41.752481453336529]}, "type": "Feature", "id": 77, "properties": {"ENC_PC": "02571", "PA_FIPS": "72950", "NTLINK_ID": "31084008", "STATE": "MA", "COUNTY": "GARFIELD", "CTYFIPS": "023", "PA_NAME": "WAREHAM", "PC_NAME": "WAREHAM", "POSTALCODE": "02571", "STFIPS": "25", "PC_TYPE": "NON UNIQUE", "ACCURACY": "PC"}},{"geometry": {"type": "Point", "coordinates": [-69.99096994922823, 41.752851432867104]}, "type": "Feature", "id": 78, "properties": {"ENC_PC": "02653", "PA_FIPS": "64880", "NTLINK_ID": "31001332", "STATE": "MA", "COUNTY": "ADAMS", "CTYFIPS": "001", "PA_NAME": "SOUTH ORLEANS", "PC_NAME": "SOUTH ORLEANS", "POSTALCODE": "02662", "STFIPS": "25", "PC_TYPE": "PO BOX", "ACCURACY": "S"}},{"geometry": {"type": "Point", "coordinates": [-71.14889956979853, 41.754901466559325]}, "type": "Feature", "id": 79, "properties": {"ENC_PC": "02726", "PA_FIPS": "62465", "NTLINK_ID": "31074467", "STATE": "MA", "COUNTY": "BENTON", "CTYFIPS": "005", "PA_NAME": "SOMERSET", "PC_NAME": "SOMERSET", "POSTALCODE": "02726", "STFIPS": "25", "PC_TYPE": "NON UNIQUE", "ACCURACY": "PC"}},{"geometry": {"type": "Point", "coordinates": [-70.841789669412847, 41.758811456088502]}, "type": "Feature", "id": 80, "properties": {"ENC_PC": "02770", "PA_FIPS": "57565", "NTLINK_ID": "135528911", "STATE": "MA", "COUNTY": "GARFIELD", "CTYFIPS": "023", "PA_NAME": "ROCHESTER", "PC_NAME": "ROCHESTER", "POSTALCODE": "02770", "STFIPS": "25", "PC_TYPE": "NON UNIQUE", "ACCURACY": "PC"}},{"geometry": {"type": "Point", "coordinates": [-70.961029630158009, 41.764691457776223]}, "type": "Feature", "id": 81, "properties": {"ENC_PC": "02717", "PA_FIPS": "19120", "NTLINK_ID": "92831442", "STATE": "MA", "COUNTY": "BENTON", "CTYFIPS": "005", "PA_NAME": "EAST FREETOWN", "PC_NAME": "EAST FREETOWN", "POSTALCODE": "02717", "STFIPS": "25", "PC_TYPE": "NON UNIQUE", "ACCURACY": "PC"}},{"geometry": {"type": "Point", "coordinates": [-70.539449767616262, 41.773421444478835]}, "type": "Feature", "id": 82, "properties": {"ENC_PC": "02563", "PA_FIPS": "58965", "NTLINK_ID": "92861050", "STATE": "MA", "COUNTY": "ADAMS", "CTYFIPS": "001", "PA_NAME": "SAGAMORE", "PC_NAME": "SAGAMORE", "POSTALCODE": "02561", "STFIPS": "25", "PC_TYPE": "PO BOX", "ACCURACY": "PC"}},{"geometry": {"type": "Point", "coordinates": [-70.759889696271472, 41.775251450852906]}, "type": "Feature", "id": 83, "properties": {"ENC_PC": "02576", "PA_FIPS": "78410", "NTLINK_ID": "772387760", "STATE": "MA", "COUNTY": "GARFIELD", "CTYFIPS": "023", "PA_NAME": "WEST WAREHAM", "PC_NAME": "WEST WAREHAM", "POSTALCODE": "02576", "STFIPS": "25", "PC_TYPE": "NON UNIQUE", "ACCURACY": "PC"}},{"geometry": {"type": "Point", "coordinates": [-70.650089730376521, 41.777661446564615]}, "type": "Feature", "id": 84, "properties": {"ENC_PC": "02538", "PA_FIPS": "20765", "NTLINK_ID": "92845678", "STATE": "MA", "COUNTY": "GARFIELD", "CTYFIPS": "023", "PA_NAME": "EAST WAREHAM", "PC_NAME": "EAST WAREHAM", "POSTALCODE": "02538", "STFIPS": "25", "PC_TYPE": "NON UNIQUE", "ACCURACY": "PC"}},{"geometry": {"type": "Point", "coordinates": [-69.978339951882006, 41.780531426484245]}, "type": "Feature", "id": 85, "properties": {"ENC_PC": "02653", "PA_FIPS": "51405", "NTLINK_ID": "31000474", "STATE": "MA", "COUNTY": "ADAMS", "CTYFIPS": "001", "PA_NAME": "ORLEANS", "PC_NAME": "ORLEANS", "POSTALCODE": "02653", "STFIPS": "25", "PC_TYPE": "NON UNIQUE", "ACCURACY": "PC"}},{"geometry": {"type": "Point", "coordinates": [-70.534239768216381, 41.789621440451498]}, "type": "Feature", "id": 86, "properties": {"ENC_PC": "02562", "PA_FIPS": "59000", "NTLINK_ID": "31073202", "STATE": "MA", "COUNTY": "ADAMS", "CTYFIPS": "001", "PA_NAME": "SAGAMORE BEACH", "PC_NAME": "SAGAMORE BEACH", "POSTALCODE": "02562", "STFIPS": "25", "PC_TYPE": "NON UNIQUE", "ACCURACY": "PC"}},{"geometry": {"type": "Point", "coordinates": [-71.060569594601859, 41.797001455493209]}, "type": "Feature", "id": 87, "properties": {"ENC_PC": "02702", "PA_FIPS": "02340", "NTLINK_ID": "766604111", "STATE": "MA", "COUNTY": "BENTON", "CTYFIPS": "005", "PA_NAME": "ASSONET", "PC_NAME": "ASSONET", "POSTALCODE": "02702", "STFIPS": "25", "PC_TYPE": "NON UNIQUE", "ACCURACY": "PC"}},{"geometry": {"type": "Point", "coordinates": [-71.14270956809014, 41.81545145462507]}, "type": "Feature", "id": 88, "properties": {"ENC_PC": "02715", "PA_FIPS": "16915", "NTLINK_ID": "753965783", "STATE": "MA", "COUNTY": "BENTON", "CTYFIPS": "005", "PA_NAME": "DIGHTON", "PC_NAME": "DIGHTON", "POSTALCODE": "02715", "STFIPS": "25", "PC_TYPE": "NON UNIQUE", "ACCURACY": "PC"}},{"geometry": {"type": "Point", "coordinates": [-71.078559587031975, 41.834441448798664]}, "type": "Feature", "id": 89, "properties": {"ENC_PC": "02779", "PA_FIPS": "05245", "NTLINK_ID": "31041551", "STATE": "MA", "COUNTY": "BENTON", "CTYFIPS": "005", "PA_NAME": "BERKLEY", "PC_NAME": "BERKLEY", "POSTALCODE": "02779", "STFIPS": "25", "PC_TYPE": "NON UNIQUE", "ACCURACY": "PC"}},{"geometry": {"type": "Point", "coordinates": [-70.95533962820582, 41.837401444898283]}, "type": "Feature", "id": 90, "properties": {"ENC_PC": "02347", "PA_FIPS": "33885", "NTLINK_ID": "778233848", "STATE": "MA", "COUNTY": "GARFIELD", "CTYFIPS": "023", "PA_NAME": "LAKEVILLE", "PC_NAME": "LAKEVILLE", "POSTALCODE": "02347", "STFIPS": "25", "PC_TYPE": "NON UNIQUE", "ACCURACY": "PC"}},{"geometry": {"type": "Point", "coordinates": [-71.324019507921946, 41.839511455143771]}, "type": "Feature", "id": 91, "properties": {"ENC_PC": "02771", "PA_FIPS": "60680", "NTLINK_ID": "92859982", "STATE": "MA", "COUNTY": "BENTON", "CTYFIPS": "005", "PA_NAME": "SEEKONK", "PC_NAME": "SEEKONK", "POSTALCODE": "02771", "STFIPS": "25", "PC_TYPE": "NON UNIQUE", "ACCURACY": "PC"}},{"geometry": {"type": "Point", "coordinates": [-69.987309946110813, 41.841611415991729]}, "type": "Feature", "id": 92, "properties": {"ENC_PC": "02642", "PA_FIPS": "19260", "NTLINK_ID": "31022564", "STATE": "MA", "COUNTY": "ADAMS", "CTYFIPS": "001", "PA_NAME": "EASTHAM", "PC_NAME": "EASTHAM", "POSTALCODE": "02642", "STFIPS": "25", "PC_TYPE": "NON UNIQUE", "ACCURACY": "PC"}},{"geometry": {"type": "Point", "coordinates": [-71.249619530357307, 41.844511451538828]}, "type": "Feature", "id": 93, "properties": {"ENC_PC": "02769", "PA_FIPS": "56340", "NTLINK_ID": "753680111", "STATE": "MA", "COUNTY": "BENTON", "CTYFIPS": "005", "PA_NAME": "REHOBOTH", "PC_NAME": "REHOBOTH", "POSTALCODE": "02769", "STFIPS": "25", "PC_TYPE": "NON UNIQUE", "ACCURACY": "PC"}},{"geometry": {"type": "Point", "coordinates": [-71.149529562878598, 41.856291446339867]}, "type": "Feature", "id": 94, "properties": {"ENC_PC": "02764", "PA_FIPS": "47520", "NTLINK_ID": "31072079", "STATE": "MA", "COUNTY": "BENTON", "CTYFIPS": "005", "PA_NAME": "NORTH DIGHTON", "PC_NAME": "NORTH DIGHTON", "POSTALCODE": "02764", "STFIPS": "25", "PC_TYPE": "NON UNIQUE", "ACCURACY": "PC"}},{"geometry": {"type": "Point", "coordinates": [-71.019749604370773, 41.868901439642613]}, "type": "Feature", "id": 95, "properties": {"ENC_PC": "02718", "PA_FIPS": "20555", "NTLINK_ID": "31061020", "STATE": "MA", "COUNTY": "BENTON", "CTYFIPS": "005", "PA_NAME": "EAST TAUNTON", "PC_NAME": "EAST TAUNTON", "POSTALCODE": "02718", "STFIPS": "25", "PC_TYPE": "NON UNIQUE", "ACCURACY": "PC"}},{"geometry": {"type": "Point", "coordinates": [-70.940259631160998, 41.879381435705831]}, "type": "Feature", "id": 96, "properties": {"ENC_PC": "02347", "PA_FIPS": "33885", "NTLINK_ID": "135529532", "STATE": "MA", "COUNTY": "GARFIELD", "CTYFIPS": "023", "PA_NAME": "LAKEVILLE", "PC_NAME": "MIDDLEBOROUGH", "POSTALCODE": "02348", "STFIPS": "25", "PC_TYPE": "UNIQUE ORGANIZATION", "ACCURACY": "S"}},{"geometry": {"type": "Point", "coordinates": [-70.770169686503223, 41.885281429341873]}, "type": "Feature", "id": 97, "properties": {"ENC_PC": "02330", "PA_FIPS": "11630", "NTLINK_ID": "31071383", "STATE": "MA", "COUNTY": "GARFIELD", "CTYFIPS": "023", "PA_NAME": "CARVER", "PC_NAME": "CARVER", "POSTALCODE": "02330", "STFIPS": "25", "PC_TYPE": "NON UNIQUE", "ACCURACY": "PC"}},{"geometry": {"type": "Point", "coordinates": [-70.898819643374239, 41.897411431234374]}, "type": "Feature", "id": 98, "properties": {"ENC_PC": "02346", "PA_FIPS": "40780", "NTLINK_ID": "31058630", "STATE": "MA", "COUNTY": "GARFIELD", "CTYFIPS": "023", "PA_NAME": "MIDDLEBORO", "PC_NAME": "MIDDLEBORO", "POSTALCODE": "02346", "STFIPS": "25", "PC_TYPE": "NON UNIQUE", "ACCURACY": "PC"}},{"geometry": {"type": "Point", "coordinates": [-70.963839621921622, 41.897871433069561]}, "type": "Feature", "id": 99, "properties": {"ENC_PC": "02346", "PA_FIPS": "40780", "NTLINK_ID": "31058748", "STATE": "MA", "COUNTY": "GARFIELD", "CTYFIPS": "023", "PA_NAME": "MIDDLEBORO", "PC_NAME": "MIDDLEBOROUGH", "POSTALCODE": "02349", "STFIPS": "25", "PC_TYPE": "UNIQUE ORGANIZATION", "ACCURACY": "S"}},{"geometry": {"type": "Point", "coordinates": [-70.959689623703113, 41.904281430350075]}, "type": "Feature", "id": 100, "properties": {"ENC_PC": "02346", "PA_FIPS": "40780", "NTLINK_ID": "836314450", "STATE": "MA", "COUNTY": "GARFIELD", "CTYFIPS": "023", "PA_NAME": "MIDDLEBORO", "PC_NAME": "AETNA LIFE & CASUALTY CO", "POSTALCODE": "02344", "STFIPS": "25", "PC_TYPE": "UNIQUE ORGANIZATION", "ACCURACY": "S"}},{"geometry": {"type": "Point", "coordinates": [-70.629169732229968, 41.905721421393821]}, "type": "Feature", "id": 101, "properties": {"ENC_PC": "02360", "PA_FIPS": "54275", "NTLINK_ID": "836610671", "STATE": "MA", "COUNTY": "GARFIELD", "CTYFIPS": "023", "PA_NAME": "PLYMOUTH", "PC_NAME": "PLYMOUTH", "POSTALCODE": "02360", "STFIPS": "25", "PC_TYPE": "NON UNIQUE", "ACCURACY": "PC"}},{"geometry": {"type": "Point", "coordinates": [-71.104769574841441, 41.906021435316099]}, "type": "Feature", "id": 102, "properties": {"ENC_PC": "02780", "PA_FIPS": "69170", "NTLINK_ID": "31081460", "STATE": "MA", "COUNTY": "BENTON", "CTYFIPS": "005", "PA_NAME": "TAUNTON", "PC_NAME": "TAUNTON", "POSTALCODE": "02780", "STFIPS": "25", "PC_TYPE": "NON UNIQUE", "ACCURACY": "PC"}},{"geometry": {"type": "Point", "coordinates": [-70.02667993024788, 41.914951402300773]}, "type": "Feature", "id": 103, "properties": {"ENC_PC": "02663", "PA_FIPS": "65650", "NTLINK_ID": "845660623", "STATE": "MA", "COUNTY": "ADAMS", "CTYFIPS": "001", "PA_NAME": "SOUTH WELLFLEET", "PC_NAME": "SOUTH WELLFLEET", "POSTALCODE": "02663", "STFIPS": "25", "PC_TYPE": "PO BOX", "ACCURACY": "PC"}},{"geometry": {"type": "Point", "coordinates": [-70.554519756201643, 41.916321417193572]}, "type": "Feature", "id": 104, "properties": {"ENC_PC": "02360", "PA_FIPS": "38050", "NTLINK_ID": "31069931", "STATE": "MA", "COUNTY": "GARFIELD", "CTYFIPS": "023", "PA_NAME": "MANOMET", "PC_NAME": "MANOMET", "POSTALCODE": "02345", "STFIPS": "25", "PC_TYPE": "PO BOX", "ACCURACY": "S"}},{"geometry": {"type": "Point", "coordinates": [-70.019819931465506, 41.927531399161012]}, "type": "Feature", "id": 105, "properties": {"ENC_PC": "02667", "PA_FIPS": "74350", "NTLINK_ID": "31110448", "STATE": "MA", "COUNTY": "ADAMS", "CTYFIPS": "001", "PA_NAME": "WELLFLEET", "PC_NAME": "WELLFLEET", "POSTALCODE": "02667", "STFIPS": "25", "PC_TYPE": "NON UNIQUE", "ACCURACY": "PC"}},{"geometry": {"type": "Point", "coordinates": [-71.042659594850051, 41.927631428849224]}, "type": "Feature", "id": 106, "properties": {"ENC_PC": "02767", "PA_FIPS": "56025", "NTLINK_ID": "815843219", "STATE": "MA", "COUNTY": "BENTON", "CTYFIPS": "005", "PA_NAME": "RAYNHAM", "PC_NAME": "RAYNHAM", "POSTALCODE": "02767", "STFIPS": "25", "PC_TYPE": "NON UNIQUE", "ACCURACY": "PC"}},{"geometry": {"type": "Point", "coordinates": [-71.30399950818267, 41.929701436728642]}, "type": "Feature", "id": 107, "properties": {"ENC_PC": "02703", "PA_FIPS": "02690", "NTLINK_ID": "22162989", "STATE": "MA", "COUNTY": "BENTON", "CTYFIPS": "005", "PA_NAME": "ATTLEBORO", "PC_NAME": "ATTLEBORO", "POSTALCODE": "02703", "STFIPS": "25", "PC_TYPE": "NON UNIQUE", "ACCURACY": "PC"}},{"geometry": {"type": "Point", "coordinates": [-70.562039751823747, 41.932801414494136]}, "type": "Feature", "id": 108, "properties": {"ENC_PC": "02360", "PA_FIPS": "79355", "NTLINK_ID": "31069274", "STATE": "MA", "COUNTY": "GARFIELD", "CTYFIPS": "023", "PA_NAME": "WHITE HORSE BEACH", "PC_NAME": "WHITE HORSE BEACH", "POSTALCODE": "02381", "STFIPS": "25", "PC_TYPE": "PO BOX", "ACCURACY": "S"}},{"geometry": {"type": "Point", "coordinates": [-71.126219566263629, 41.947751428560558]}, "type": "Feature", "id": 109, "properties": {"ENC_PC": "02780", "PA_FIPS": "69170", "NTLINK_ID": "89700553", "STATE": "MA", "COUNTY": "BENTON", "CTYFIPS": "005", "PA_NAME": "TAUNTON", "PC_NAME": "CHADWICKS", "POSTALCODE": "02783", "STFIPS": "25", "PC_TYPE": "UNIQUE ORGANIZATION", "ACCURACY": "S"}},{"geometry": {"type": "Point", "coordinates": [-70.663929717278251, 41.955771412917265]}, "type": "Feature", "id": 110, "properties": {"ENC_PC": "02360", "PA_FIPS": "54275", "NTLINK_ID": "31039580", "STATE": "MA", "COUNTY": "GARFIELD", "CTYFIPS": "023", "PA_NAME": "PLYMOUTH", "PC_NAME": "PLYMOUTH", "POSTALCODE": "02361", "STFIPS": "25", "PC_TYPE": "PO BOX", "ACCURACY": "S"}},{"geometry": {"type": "Point", "coordinates": [-70.808639670669095, 41.960141415404003]}, "type": "Feature", "id": 111, "properties": {"ENC_PC": "02367", "PA_FIPS": "54380", "NTLINK_ID": "836206089", "STATE": "MA", "COUNTY": "GARFIELD", "CTYFIPS": "023", "PA_NAME": "PLYMPTON", "PC_NAME": "PLYMPTON", "POSTALCODE": "02367", "STFIPS": "25", "PC_TYPE": "NON UNIQUE", "ACCURACY": "PC"}},{"geometry": {"type": "Point", "coordinates": [-71.308959504047905, 41.968451429028512]}, "type": "Feature", "id": 112, "properties": {"ENC_PC": "02763", "PA_FIPS": "02725", "NTLINK_ID": "22129017", "STATE": "MA", "COUNTY": "BENTON", "CTYFIPS": "005", "PA_NAME": "ATTLEBORO FALLS", "PC_NAME": "ATTLEBORO FALLS", "POSTALCODE": "02763", "STFIPS": "25", "PC_TYPE": "NON UNIQUE", "ACCURACY": "PC"}},{"geometry": {"type": "Point", "coordinates": [-71.190719543710088, 41.97112142478224]}, "type": "Feature", "id": 113, "properties": {"ENC_PC": "02766", "PA_FIPS": "49935", "NTLINK_ID": "31057482", "STATE": "MA", "COUNTY": "BENTON", "CTYFIPS": "005", "PA_NAME": "NORTON", "PC_NAME": "NORTON", "POSTALCODE": "02766", "STFIPS": "25", "PC_TYPE": "NON UNIQUE", "ACCURACY": "PC"}},{"geometry": {"type": "Point", "coordinates": [-71.329759497618397, 41.975571429092682]}, "type": "Feature", "id": 114, "properties": {"ENC_PC": "02760", "PA_FIPS": "46505", "NTLINK_ID": "22128972", "STATE": "MA", "COUNTY": "BENTON", "CTYFIPS": "005", "PA_NAME": "NORTH ATTLEBORO", "PC_NAME": "NORTH ATTLEBORO", "POSTALCODE": "02760", "STFIPS": "25", "PC_TYPE": "NON UNIQUE", "ACCURACY": "PC"}},{"geometry": {"type": "Point", "coordinates": [-70.971719614895477, 41.980611416998563]}, "type": "Feature", "id": 115, "properties": {"ENC_PC": "02324", "PA_FIPS": "08050", "NTLINK_ID": "31057272", "STATE": "MA", "COUNTY": "GARFIELD", "CTYFIPS": "023", "PA_NAME": "BRIDGEWATER", "PC_NAME": "BRIDGEWATER", "POSTALCODE": "02324", "STFIPS": "25", "PC_TYPE": "NON UNIQUE", "ACCURACY": "PC"}},{"geometry": {"type": "Point", "coordinates": [-71.332709495993939, 41.981201426634307]}, "type": "Feature", "id": 116, "properties": {"ENC_PC": "02760", "PA_FIPS": "46505", "NTLINK_ID": "22128855", "STATE": "MA", "COUNTY": "BENTON", "CTYFIPS": "005", "PA_NAME": "NORTH ATTLEBORO", "PC_NAME": "NORTH ATTLEBORO", "POSTALCODE": "02761", "STFIPS": "25", "PC_TYPE": "PO BOX", "ACCURACY": "S"}},{"geometry": {"type": "Point", "coordinates": [-70.972919614621375, 41.987351415453332]}, "type": "Feature", "id": 117, "properties": {"ENC_PC": "02324", "PA_FIPS": "08050", "NTLINK_ID": "31057139", "STATE": "MA", "COUNTY": "GARFIELD", "CTYFIPS": "023", "PA_NAME": "BRIDGEWATER", "PC_NAME": "BRIDGEWATER STATE COLLEGE", "POSTALCODE": "02325", "STFIPS": "25", "PC_TYPE": "UNIQUE ORGANIZATION", "ACCURACY": "S"}},{"geometry": {"type": "Point", "coordinates": [-70.737889692297259, 41.990541408129907]}, "type": "Feature", "id": 118, "properties": {"ENC_PC": "02364", "PA_FIPS": "33185", "NTLINK_ID": "31038896", "STATE": "MA", "COUNTY": "GARFIELD", "CTYFIPS": "023", "PA_NAME": "KINGSTON", "PC_NAME": "KINGSTON", "POSTALCODE": "02364", "STFIPS": "25", "PC_TYPE": "NON UNIQUE", "ACCURACY": "PC"}},{"geometry": {"type": "Point", "coordinates": [-70.050269917011533, 41.991761387940663]}, "type": "Feature", "id": 119, "properties": {"ENC_PC": "02666", "PA_FIPS": "70570", "NTLINK_ID": "744133715", "STATE": "MA", "COUNTY": "ADAMS", "CTYFIPS": "001", "PA_NAME": "TRURO", "PC_NAME": "TRURO", "POSTALCODE": "02666", "STFIPS": "25", "PC_TYPE": "PO BOX", "ACCURACY": "PC"}},{"geometry": {"type": "Point", "coordinates": [-70.85354965222291, 41.998151410311145]}, "type": "Feature", "id": 120, "properties": {"ENC_PC": "02338", "PA_FIPS": "27760", "NTLINK_ID": "31078998", "STATE": "MA", "COUNTY": "GARFIELD", "CTYFIPS": "023", "PA_NAME": "HALIFAX", "PC_NAME": "HALIFAX", "POSTALCODE": "02338", "STFIPS": "25", "PC_TYPE": "NON UNIQUE", "ACCURACY": "PC"}},{"geometry": {"type": "Point", "coordinates": [-71.324949497617865, 42.011871421859752]}, "type": "Feature", "id": 121, "properties": {"ENC_PC": "02762", "PA_FIPS": "54065", "NTLINK_ID": "22116675", "STATE": "MA", "COUNTY": "FRANKLIN", "CTYFIPS": "021", "PA_NAME": "PLAINVILLE", "PC_NAME": "PLAINVILLE", "POSTALCODE": "02762", "STFIPS": "25", "PC_TYPE": "NON UNIQUE", "ACCURACY": "PC"}},{"geometry": {"type": "Point", "coordinates": [-70.843769655597697, 42.016981405963485]}, "type": "Feature", "id": 122, "properties": {"ENC_PC": "02338", "PA_FIPS": "42005", "NTLINK_ID": "31079669", "STATE": "MA", "COUNTY": "GARFIELD", "CTYFIPS": "023", "PA_NAME": "MONPONSETT", "PC_NAME": "MONPONSETT", "POSTALCODE": "02350", "STFIPS": "25", "PC_TYPE": "PO BOX", "ACCURACY": "S"}},{"geometry": {"type": "Point", "coordinates": [-71.215179533391051, 42.023121415701418]}, "type": "Feature", "id": 123, "properties": {"ENC_PC": "02048", "PA_FIPS": "38190", "NTLINK_ID": "22114474", "STATE": "MA", "COUNTY": "BENTON", "CTYFIPS": "005", "PA_NAME": "MANSFIELD", "PC_NAME": "MANSFIELD", "POSTALCODE": "02048", "STFIPS": "25", "PC_TYPE": "NON UNIQUE", "ACCURACY": "PC"}},{"geometry": {"type": "Point", "coordinates": [-71.020079596555235, 42.024091409836068]}, "type": "Feature", "id": 124, "properties": {"ENC_PC": "02379", "PA_FIPS": "75225", "NTLINK_ID": "135529641", "STATE": "MA", "COUNTY": "GARFIELD", "CTYFIPS": "023", "PA_NAME": "WEST BRIDGEWATER", "PC_NAME": "WEST BRIDGEWATER", "POSTALCODE": "02379", "STFIPS": "25", "PC_TYPE": "NON UNIQUE", "ACCURACY": "PC"}},{"geometry": {"type": "Point", "coordinates": [-71.525039430902083, 42.025471424928853]}, "type": "Feature", "id": 125, "properties": {"ENC_PC": "01504", "PA_FIPS": "05980", "NTLINK_ID": "39993142", "STATE": "MA", "COUNTY": "GRAYS HARBOR", "CTYFIPS": "027", "PA_NAME": "BLACKSTONE", "PC_NAME": "BLACKSTONE", "POSTALCODE": "01504", "STFIPS": "25", "PC_TYPE": "NON UNIQUE", "ACCURACY": "PC"}},{"geometry": {"type": "Point", "coordinates": [-71.096289572641894, 42.026331411796463]}, "type": "Feature", "id": 126, "properties": {"ENC_PC": "02375", "PA_FIPS": "63725", "NTLINK_ID": "22109604", "STATE": "MA", "COUNTY": "BENTON", "CTYFIPS": "005", "PA_NAME": "SOUTH EASTON", "PC_NAME": "SOUTH EASTON", "POSTALCODE": "02375", "STFIPS": "25", "PC_TYPE": "NON UNIQUE", "ACCURACY": "PC"}},{"geometry": {"type": "Point", "coordinates": [-71.11739956346905, 42.026721412731952]}, "type": "Feature", "id": 127, "properties": {"ENC_PC": "02375", "PA_FIPS": "25450", "NTLINK_ID": "764492192", "STATE": "MA", "COUNTY": "BENTON", "CTYFIPS": "005", "PA_NAME": "EASTON", "PC_NAME": "EASTON", "POSTALCODE": "02334", "STFIPS": "25", "PC_TYPE": "PO BOX", "ACCURACY": "S"}},{"geometry": {"type": "Point", "coordinates": [-72.616839073295282, 42.031291457962588]}, "type": "Feature", "id": 128, "properties": {"ENC_PC": "01001", "PA_FIPS": "67000", "NTLINK_ID": "92847772", "STATE": "MA", "COUNTY": "ALEUTIANS EAST", "CTYFIPS": "013", "PA_NAME": "SPRINGFIELD", "PC_NAME": "SPRINGFIELD", "POSTALCODE": "01101", "STFIPS": "25", "PC_TYPE": "PO BOX", "ACCURACY": "S"}},{"geometry": {"type": "Point", "coordinates": [-72.616839073295282, 42.031291457962588]}, "type": "Feature", "id": 129, "properties": {"ENC_PC": "01001", "PA_FIPS": "67000", "NTLINK_ID": "92847772", "STATE": "MA", "COUNTY": "ALEUTIANS EAST", "CTYFIPS": "013", "PA_NAME": "SPRINGFIELD", "PC_NAME": "SPRINGFIELD", "POSTALCODE": "01102", "STFIPS": "25", "PC_TYPE": "PO BOX", "ACCURACY": "S"}},{"geometry": {"type": "Point", "coordinates": [-70.943939621838581, 42.031981406434674]}, "type": "Feature", "id": 130, "properties": {"ENC_PC": "02333", "PA_FIPS": "18420", "NTLINK_ID": "22106766", "STATE": "MA", "COUNTY": "GARFIELD", "CTYFIPS": "023", "PA_NAME": "EAST BRIDGEWATER", "PC_NAME": "EAST BRIDGEWATER", "POSTALCODE": "02333", "STFIPS": "25", "PC_TYPE": "NON UNIQUE", "ACCURACY": "PC"}},{"geometry": {"type": "Point", "coordinates": [-70.083599903784616, 42.033371380845168]}, "type": "Feature", "id": 131, "properties": {"ENC_PC": "02652", "PA_FIPS": "49515", "NTLINK_ID": "30998865", "STATE": "MA", "COUNTY": "ADAMS", "CTYFIPS": "001", "PA_NAME": "NORTH TRURO", "PC_NAME": "NORTH TRURO", "POSTALCODE": "02652", "STFIPS": "25", "PC_TYPE": "PO BOX", "ACCURACY": "PC"}},{"geometry": {"type": "Point", "coordinates": [-71.578559412142667, 42.035011425424919]}, "type": "Feature", "id": 132, "properties": {"ENC_PC": "01529", "PA_FIPS": "41620", "NTLINK_ID": "40021372", "STATE": "MA", "COUNTY": "GRAYS HARBOR", "CTYFIPS": "027", "PA_NAME": "MILLVILLE", "PC_NAME": "MILLVILLE", "POSTALCODE": "01529", "STFIPS": "25", "PC_TYPE": "NON UNIQUE", "ACCURACY": "PC"}},{"geometry": {"type": "Point", "coordinates": [-72.616469072603181, 42.036471457337811]}, "type": "Feature", "id": 133, "properties": {"ENC_PC": "01001", "PA_FIPS": "75505", "NTLINK_ID": "791207003", "STATE": "MA", "COUNTY": "ADAMS", "CTYFIPS": "001", "PA_NAME": "WEST CHATHAM", "PC_NAME": "WEST CHATHAM", "POSTALCODE": "02669", "STFIPS": "25", "PC_TYPE": "PO BOX", "ACCURACY": "S"}},{"geometry": {"type": "Point", "coordinates": [-70.711879697309016, 42.039751397700556]}, "type": "Feature", "id": 134, "properties": {"ENC_PC": "02332", "PA_FIPS": "17860", "NTLINK_ID": "31067383", "STATE": "MA", "COUNTY": "GARFIELD", "CTYFIPS": "023", "PA_NAME": "DUXBURY", "PC_NAME": "DUXBURY", "POSTALCODE": "02332", "STFIPS": "25", "PC_TYPE": "NON UNIQUE", "ACCURACY": "PC"}},{"geometry": {"type": "Point", "coordinates": [-72.616329072120251, 42.042431455918752]}, "type": "Feature", "id": 135, "properties": {"ENC_PC": "01001", "PA_FIPS": "67000", "NTLINK_ID": "791206998", "STATE": "MA", "COUNTY": "ALEUTIANS EAST", "CTYFIPS": "013", "PA_NAME": "SPRINGFIELD", "PC_NAME": "SPRINGFIELD", "POSTALCODE": "01115", "STFIPS": "25", "PC_TYPE": "PO BOX", "ACCURACY": "S"}},{"geometry": {"type": "Point", "coordinates": [-71.865729318370654, 42.048631430269225]}, "type": "Feature", "id": 136, "properties": {"ENC_PC": "01570", "PA_FIPS": "73930", "NTLINK_ID": "39992452", "STATE": "MA", "COUNTY": "GRAYS HARBOR", "CTYFIPS": "027", "PA_NAME": "WEBSTER", "PC_NAME": "WEBSTER", "POSTALCODE": "01570", "STFIPS": "25", "PC_TYPE": "NON UNIQUE", "ACCURACY": "PC"}},{"geometry": {"type": "Point", "coordinates": [-71.916169301078227, 42.050911431643392]}, "type": "Feature", "id": 137, "properties": {"ENC_PC": "01571", "PA_FIPS": "17650", "NTLINK_ID": "811243541", "STATE": "MA", "COUNTY": "GRAYS HARBOR", "CTYFIPS": "027", "PA_NAME": "DUDLEY", "PC_NAME": "DUDLEY", "POSTALCODE": "01571", "STFIPS": "25", "PC_TYPE": "NON UNIQUE", "ACCURACY": "PC"}},{"geometry": {"type": "Point", "coordinates": [-72.565089089854467, 42.051451452875391]}, "type": "Feature", "id": 138, "properties": {"ENC_PC": "01106", "PA_FIPS": "36335", "NTLINK_ID": "22300168", "STATE": "MA", "COUNTY": "ALEUTIANS EAST", "CTYFIPS": "013", "PA_NAME": "LONGMEADOW", "PC_NAME": "LONGMEADOW", "POSTALCODE": "01106", "STFIPS": "25", "PC_TYPE": "NON UNIQUE", "ACCURACY": "PC"}},{"geometry": {"type": "Point", "coordinates": [-72.769719021742688, 42.051641459886874]}, "type": "Feature", "id": 139, "properties": {"ENC_PC": "01077", "PA_FIPS": "65790", "NTLINK_ID": "22200943", "STATE": "MA", "COUNTY": "ALEUTIANS EAST", "CTYFIPS": "013", "PA_NAME": "SOUTHWICK", "PC_NAME": "SOUTHWICK", "POSTALCODE": "01077", "STFIPS": "25", "PC_TYPE": "NON UNIQUE", "ACCURACY": "PC"}},{"geometry": {"type": "Point", "coordinates": [-70.186339869494674, 42.052401379741951]}, "type": "Feature", "id": 140, "properties": {"ENC_PC": "02657", "PA_FIPS": "55535", "NTLINK_ID": "30998710", "STATE": "MA", "COUNTY": "ADAMS", "CTYFIPS": "001", "PA_NAME": "PROVINCETOWN", "PC_NAME": "PROVINCETOWN", "POSTALCODE": "02657", "STFIPS": "25", "PC_TYPE": "NON UNIQUE", "ACCURACY": "PC"}},{"geometry": {"type": "Point", "coordinates": [-72.157859220669593, 42.054161439295321]}, "type": "Feature", "id": 141, "properties": {"ENC_PC": "01521", "PA_FIPS": "30630", "NTLINK_ID": "89655196", "STATE": "MA", "COUNTY": "ALEUTIANS EAST", "CTYFIPS": "013", "PA_NAME": "HOLLAND", "PC_NAME": "HOLLAND", "POSTALCODE": "01521", "STFIPS": "25", "PC_TYPE": "NON UNIQUE", "ACCURACY": "PC"}},{"geometry": {"type": "Point", "coordinates": [-72.553969091357772, 42.055881451421115]}, "type": "Feature", "id": 142, "properties": {"ENC_PC": "01106", "PA_FIPS": "36335", "NTLINK_ID": "767114598", "STATE": "MA", "COUNTY": "ALEUTIANS EAST", "CTYFIPS": "013", "PA_NAME": "LONGMEADOW", "PC_NAME": "LONGMEADOW", "POSTALCODE": "01116", "STFIPS": "25", "PC_TYPE": "PO BOX", "ACCURACY": "S"}},{"geometry": {"type": "Point", "coordinates": [-71.346459487529444, 42.056951413715304]}, "type": "Feature", "id": 143, "properties": {"ENC_PC": "02093", "PA_FIPS": "82280", "NTLINK_ID": "89691846", "STATE": "MA", "COUNTY": "FRANKLIN", "CTYFIPS": "021", "PA_NAME": "WRENTHAM", "PC_NAME": "WRENTHAM", "POSTALCODE": "02093", "STFIPS": "25", "PC_TYPE": "NON UNIQUE", "ACCURACY": "PC"}},{"geometry": {"type": "Point", "coordinates": [-71.113209564627198, 42.05740140705106]}, "type": "Feature", "id": 144, "properties": {"ENC_PC": "02356", "PA_FIPS": "47625", "NTLINK_ID": "92859718", "STATE": "MA", "COUNTY": "BENTON", "CTYFIPS": "005", "PA_NAME": "NORTH EASTON", "PC_NAME": "NORTH EASTON", "POSTALCODE": "02356", "STFIPS": "25", "PC_TYPE": "NON UNIQUE", "ACCURACY": "PC"}},{"geometry": {"type": "Point", "coordinates": [-71.73280936121057, 42.05827142493775]}, "type": "Feature", "id": 145, "properties": {"ENC_PC": "01516", "PA_FIPS": "17265", "NTLINK_ID": "40018716", "STATE": "MA", "COUNTY": "GRAYS HARBOR", "CTYFIPS": "027", "PA_NAME": "DOUGLAS", "PC_NAME": "DOUGLAS", "POSTALCODE": "01516", "STFIPS": "25", "PC_TYPE": "NON UNIQUE", "ACCURACY": "PC"}},{"geometry": {"type": "Point", "coordinates": [-73.314958843910915, 42.058531475887058]}, "type": "Feature", "id": 146, "properties": {"ENC_PC": "01222", "PA_FIPS": "02200", "NTLINK_ID": "89673422", "STATE": "MA", "COUNTY": "ASOTIN", "CTYFIPS": "003", "PA_NAME": "ASHLEY FALLS", "PC_NAME": "ASHLEY FALLS", "POSTALCODE": "01222", "STFIPS": "25", "PC_TYPE": "NON UNIQUE", "ACCURACY": "PC"}},{"geometry": {"type": "Point", "coordinates": [-71.086809572715623, 42.060421405177301]}, "type": "Feature", "id": 147, "properties": {"ENC_PC": "02356", "PA_FIPS": "47625", "NTLINK_ID": "764487303", "STATE": "MA", "COUNTY": "BENTON", "CTYFIPS": "005", "PA_NAME": "NORTH EASTON", "PC_NAME": "STONEHILL COLLEGE", "POSTALCODE": "02357", "STFIPS": "25", "PC_TYPE": "UNIQUE ORGANIZATION", "ACCURACY": "S"}},{"geometry": {"type": "Point", "coordinates": [-72.226739197739235, 42.060581439730328]}, "type": "Feature", "id": 148, "properties": {"ENC_PC": "01081", "PA_FIPS": "72355", "NTLINK_ID": "89678455", "STATE": "MA", "COUNTY": "ALEUTIANS EAST", "CTYFIPS": "013", "PA_NAME": "WALES", "PC_NAME": "WALES", "POSTALCODE": "01081", "STFIPS": "25", "PC_TYPE": "NON UNIQUE", "ACCURACY": "PC"}},{"geometry": {"type": "Point", "coordinates": [-70.867509645158179, 42.06212139791019]}, "type": "Feature", "id": 149, "properties": {"ENC_PC": "02341", "PA_FIPS": "28460", "NTLINK_ID": "31080530", "STATE": "MA", "COUNTY": "GARFIELD", "CTYFIPS": "023", "PA_NAME": "HANSON", "PC_NAME": "HANSON", "POSTALCODE": "02341", "STFIPS": "25", "PC_TYPE": "NON UNIQUE", "ACCURACY": "PC"}},{"geometry": {"type": "Point", "coordinates": [-71.015429595204409, 42.063691402276824]}, "type": "Feature", "id": 150, "properties": {"ENC_PC": "02301", "PA_FIPS": "09000", "NTLINK_ID": "22109944", "STATE": "MA", "COUNTY": "GARFIELD", "CTYFIPS": "023", "PA_NAME": "BROCKTON", "PC_NAME": "BROCKTON", "POSTALCODE": "02304", "STFIPS": "25", "PC_TYPE": "PO BOX", "ACCURACY": "S"}},{"geometry": {"type": "Point", "coordinates": [-71.015429595204409, 42.063691402276824]}, "type": "Feature", "id": 151, "properties": {"ENC_PC": "02301", "PA_FIPS": "09000", "NTLINK_ID": "22109944", "STATE": "MA", "COUNTY": "GARFIELD", "CTYFIPS": "023", "PA_NAME": "BROCKTON", "PC_NAME": "BROCKTON", "POSTALCODE": "02305", "STFIPS": "25", "PC_TYPE": "PO BOX", "ACCURACY": "S"}},{"geometry": {"type": "Point", "coordinates": [-72.600889076743542, 42.064161451205116]}, "type": "Feature", "id": 152, "properties": {"ENC_PC": "01001", "PA_FIPS": "25870", "NTLINK_ID": "22299691", "STATE": "MA", "COUNTY": "ASOTIN", "CTYFIPS": "003", "PA_NAME": "GLENDALE", "PC_NAME": "GLENDALE", "POSTALCODE": "01229", "STFIPS": "25", "PC_TYPE": "PO BOX", "ACCURACY": "S"}},{"geometry": {"type": "Point", "coordinates": [-71.242589522312812, 42.064511408384568]}, "type": "Feature", "id": 153, "properties": {"ENC_PC": "02035", "PA_FIPS": "24750", "NTLINK_ID": "847811387", "STATE": "MA", "COUNTY": "FRANKLIN", "CTYFIPS": "021", "PA_NAME": "FOXBORO", "PC_NAME": "FOXBORO", "POSTALCODE": "02035", "STFIPS": "25", "PC_TYPE": "NON UNIQUE", "ACCURACY": "PC"}},{"geometry": {"type": "Point", "coordinates": [-70.803509666411031, 42.065161395197002]}, "type": "Feature", "id": 154, "properties": {"ENC_PC": "02359", "PA_FIPS": "52595", "NTLINK_ID": "31066618", "STATE": "MA", "COUNTY": "GARFIELD", "CTYFIPS": "023", "PA_NAME": "PEMBROKE", "PC_NAME": "PEMBROKE", "POSTALCODE": "02359", "STFIPS": "25", "PC_TYPE": "NON UNIQUE", "ACCURACY": "PC"}},{"geometry": {"type": "Point", "coordinates": [-72.43142913167766, 42.065341445411221]}, "type": "Feature", "id": 155, "properties": {"ENC_PC": "01036", "PA_FIPS": "28040", "NTLINK_ID": "22337096", "STATE": "MA", "COUNTY": "ALEUTIANS EAST", "CTYFIPS": "013", "PA_NAME": "HAMPDEN", "PC_NAME": "HAMPDEN", "POSTALCODE": "01036", "STFIPS": "25", "PC_TYPE": "NON UNIQUE", "ACCURACY": "PC"}},{"geometry": {"type": "Point", "coordinates": [-72.509169105770951, 42.067151447337991]}, "type": "Feature", "id": 156, "properties": {"ENC_PC": "01028", "PA_FIPS": "19680", "NTLINK_ID": "22299576", "STATE": "MA", "COUNTY": "ALEUTIANS EAST", "CTYFIPS": "013", "PA_NAME": "EAST LONGMEADOW", "PC_NAME": "EAST LONGMEADOW", "POSTALCODE": "01028", "STFIPS": "25", "PC_TYPE": "NON UNIQUE", "ACCURACY": "PC"}},{"geometry": {"type": "Point", "coordinates": [-73.261928860715244, 42.067401472221128]}, "type": "Feature", "id": 157, "properties": {"ENC_PC": "01259", "PA_FIPS": "63830", "NTLINK_ID": "89675470", "STATE": "MA", "COUNTY": "ASOTIN", "CTYFIPS": "003", "PA_NAME": "SOUTHFIELD", "PC_NAME": "SOUTHFIELD", "POSTALCODE": "01259", "STFIPS": "25", "PC_TYPE": "NON UNIQUE", "ACCURACY": "PC"}},{"geometry": {"type": "Point", "coordinates": [-71.477489444391978, 42.068961415167472]}, "type": "Feature", "id": 158, "properties": {"ENC_PC": "02019", "PA_FIPS": "04965", "NTLINK_ID": "22118433", "STATE": "MA", "COUNTY": "FRANKLIN", "CTYFIPS": "021", "PA_NAME": "BELLINGHAM", "PC_NAME": "BELLINGHAM", "POSTALCODE": "02019", "STFIPS": "25", "PC_TYPE": "NON UNIQUE", "ACCURACY": "PC"}},{"geometry": {"type": "Point", "coordinates": [-71.63084939373006, 42.069591418884471]}, "type": "Feature", "id": 159, "properties": {"ENC_PC": "01569", "PA_FIPS": "71585", "NTLINK_ID": "39991807", "STATE": "MA", "COUNTY": "GRAYS HARBOR", "CTYFIPS": "027", "PA_NAME": "UXBRIDGE", "PC_NAME": "UXBRIDGE", "POSTALCODE": "01569", "STFIPS": "25", "PC_TYPE": "NON UNIQUE", "ACCURACY": "PC"}},{"geometry": {"type": "Point", "coordinates": [-72.614439071992322, 42.069621450798252]}, "type": "Feature", "id": 160, "properties": {"ENC_PC": "01001", "PA_FIPS": "09525", "NTLINK_ID": "22299354", "STATE": "MA", "COUNTY": "GARFIELD", "CTYFIPS": "023", "PA_NAME": "BRYANTVILLE", "PC_NAME": "BRYANTVILLE", "POSTALCODE": "02327", "STFIPS": "25", "PC_TYPE": "PO BOX", "ACCURACY": "S"}},{"geometry": {"type": "Point", "coordinates": [-72.673569052540444, 42.070491452124422]}, "type": "Feature", "id": 161, "properties": {"ENC_PC": "01030", "PA_FIPS": "23455", "NTLINK_ID": "22317122", "STATE": "MA", "COUNTY": "ALEUTIANS EAST", "CTYFIPS": "013", "PA_NAME": "FEEDING HILLS", "PC_NAME": "FEEDING HILLS", "POSTALCODE": "01030", "STFIPS": "25", "PC_TYPE": "NON UNIQUE", "ACCURACY": "PC"}},{"geometry": {"type": "Point", "coordinates": [-72.622709068491147, 42.071231450208799]}, "type": "Feature", "id": 162, "properties": {"ENC_PC": "01001", "PA_FIPS": "00765", "NTLINK_ID": "22320586", "STATE": "MA", "COUNTY": "ALEUTIANS EAST", "CTYFIPS": "013", "PA_NAME": "AGAWAM", "PC_NAME": "AGAWAM", "POSTALCODE": "01001", "STFIPS": "25", "PC_TYPE": "NON UNIQUE", "ACCURACY": "PC"}},{"geometry": {"type": "Point", "coordinates": [-72.955858959449088, 42.072441461150582]}, "type": "Feature", "id": 163, "properties": {"ENC_PC": "01034", "PA_FIPS": "26640", "NTLINK_ID": "92833731", "STATE": "MA", "COUNTY": "ALEUTIANS EAST", "CTYFIPS": "013", "PA_NAME": "GRANVILLE", "PC_NAME": "GRANVILLE", "POSTALCODE": "01034", "STFIPS": "25", "PC_TYPE": "NON UNIQUE", "ACCURACY": "PC"}},{"geometry": {"type": "Point", "coordinates": [-72.033969260136033, 42.07296143152918]}, "type": "Feature", "id": 164, "properties": {"ENC_PC": "01550", "PA_FIPS": "63305", "NTLINK_ID": "39991651", "STATE": "MA", "COUNTY": "GRAYS HARBOR", "CTYFIPS": "027", "PA_NAME": "SOUTHBRIDGE", "PC_NAME": "SOUTHBRIDGE", "POSTALCODE": "01550", "STFIPS": "25", "PC_TYPE": "NON UNIQUE", "ACCURACY": "PC"}},{"geometry": {"type": "Point", "coordinates": [-72.614569071267894, 42.073881449688145]}, "type": "Feature", "id": 165, "properties": {"ENC_PC": "01001", "PA_FIPS": "75085", "NTLINK_ID": "22299155", "STATE": "MA", "COUNTY": "CLALLAM", "CTYFIPS": "009", "PA_NAME": "WEST BOXFORD", "PC_NAME": "WEST BOXFORD", "POSTALCODE": "01885", "STFIPS": "25", "PC_TYPE": "PO BOX", "ACCURACY": "S"}},{"geometry": {"type": "Point", "coordinates": [-72.5213591023861, 42.07556144667933]}, "type": "Feature", "id": 166, "properties": {"ENC_PC": "01028", "PA_FIPS": "49585", "NTLINK_ID": "22299081", "STATE": "MA", "COUNTY": "GRAYS HARBOR", "CTYFIPS": "027", "PA_NAME": "NORTH UXBRIDGE", "PC_NAME": "NORTH UXBRIDGE", "POSTALCODE": "01538", "STFIPS": "25", "PC_TYPE": "PO BOX", "ACCURACY": "S"}},{"geometry": {"type": "Point", "coordinates": [-71.034869588664691, 42.079811400361159]}, "type": "Feature", "id": 167, "properties": {"ENC_PC": "02301", "PA_FIPS": "09000", "NTLINK_ID": "22108335", "STATE": "MA", "COUNTY": "GARFIELD", "CTYFIPS": "023", "PA_NAME": "BROCKTON", "PC_NAME": "BROCKTON", "POSTALCODE": "02301", "STFIPS": "25", "PC_TYPE": "NON UNIQUE", "ACCURACY": "PC"}},{"geometry": {"type": "Point", "coordinates": [-72.536959096635158, 42.080221445994098]}, "type": "Feature", "id": 168, "properties": {"ENC_PC": "01028", "PA_FIPS": "56095", "NTLINK_ID": "22298819", "STATE": "MA", "COUNTY": "BENTON", "CTYFIPS": "005", "PA_NAME": "RAYNHAM CENTER", "PC_NAME": "RAYNHAM CENTER", "POSTALCODE": "02768", "STFIPS": "25", "PC_TYPE": "PO BOX", "ACCURACY": "S"}},{"geometry": {"type": "Point", "coordinates": [-70.93848961991219, 42.081321396406068]}, "type": "Feature", "id": 169, "properties": {"ENC_PC": "02382", "PA_FIPS": "79565", "NTLINK_ID": "22107200", "STATE": "MA", "COUNTY": "GARFIELD", "CTYFIPS": "023", "PA_NAME": "WHITMAN", "PC_NAME": "WHITMAN", "POSTALCODE": "02382", "STFIPS": "25", "PC_TYPE": "NON UNIQUE", "ACCURACY": "PC"}},{"geometry": {"type": "Point", "coordinates": [-71.015159596334087, 42.082631398061572]}, "type": "Feature", "id": 170, "properties": {"ENC_PC": "02302", "PA_FIPS": "09000", "NTLINK_ID": "22110682", "STATE": "MA", "COUNTY": "GARFIELD", "CTYFIPS": "023", "PA_NAME": "BROCKTON", "PC_NAME": "BROCKTON", "POSTALCODE": "02303", "STFIPS": "25", "PC_TYPE": "PO BOX", "ACCURACY": "S"}},{"geometry": {"type": "Point", "coordinates": [-72.61931906939941, 42.084831447249861]}, "type": "Feature", "id": 171, "properties": {"ENC_PC": "01001", "PA_FIPS": "20205", "NTLINK_ID": "22298757", "STATE": "MA", "COUNTY": "ADAMS", "CTYFIPS": "001", "PA_NAME": "EAST ORLEANS", "PC_NAME": "EAST ORLEANS", "POSTALCODE": "02643", "STFIPS": "25", "PC_TYPE": "PO BOX", "ACCURACY": "S"}},{"geometry": {"type": "Point", "coordinates": [-72.559129089200496, 42.085031445156716]}, "type": "Feature", "id": 172, "properties": {"ENC_PC": "01108", "PA_FIPS": "67000", "NTLINK_ID": "22298504", "STATE": "MA", "COUNTY": "ALEUTIANS EAST", "CTYFIPS": "013", "PA_NAME": "SPRINGFIELD", "PC_NAME": "SPRINGFIELD", "POSTALCODE": "01108", "STFIPS": "25", "PC_TYPE": "NON UNIQUE", "ACCURACY": "PC"}},{"geometry": {"type": "Point", "coordinates": [-72.563509086238227, 42.087241445069687]}, "type": "Feature", "id": 173, "properties": {"ENC_PC": "01108", "PA_FIPS": "67000", "NTLINK_ID": "22298315", "STATE": "MA", "COUNTY": "ALEUTIANS EAST", "CTYFIPS": "013", "PA_NAME": "SPRINGFIELD", "PC_NAME": "SPRINGFIELD", "POSTALCODE": "01138", "STFIPS": "25", "PC_TYPE": "PO BOX", "ACCURACY": "S"}},{"geometry": {"type": "Point", "coordinates": [-73.460578794866137, 42.088101474495254]}, "type": "Feature", "id": 174, "properties": {"ENC_PC": "01258", "PA_FIPS": "63760", "NTLINK_ID": "89656462", "STATE": "MA", "COUNTY": "ASOTIN", "CTYFIPS": "003", "PA_NAME": "SOUTH EGREMONT", "PC_NAME": "SOUTH EGREMONT", "POSTALCODE": "01258", "STFIPS": "25", "PC_TYPE": "NON UNIQUE", "ACCURACY": "PC"}},{"geometry": {"type": "Point", "coordinates": [-71.002099598580372, 42.088261396601617]}, "type": "Feature", "id": 175, "properties": {"ENC_PC": "02302", "PA_FIPS": "09000", "NTLINK_ID": "22110383", "STATE": "MA", "COUNTY": "GARFIELD", "CTYFIPS": "023", "PA_NAME": "BROCKTON", "PC_NAME": "BROCKTON", "POSTALCODE": "02302", "STFIPS": "25", "PC_TYPE": "NON UNIQUE", "ACCURACY": "PC"}},{"geometry": {"type": "Point", "coordinates": [-72.625319067757289, 42.088601447162368]}, "type": "Feature", "id": 176, "properties": {"ENC_PC": "01001", "PA_FIPS": "62920", "NTLINK_ID": "22316706", "STATE": "MA", "COUNTY": "GRAYS HARBOR", "CTYFIPS": "027", "PA_NAME": "SOUTH BARRE", "PC_NAME": "SOUTH BARRE", "POSTALCODE": "01074", "STFIPS": "25", "PC_TYPE": "PO BOX", "ACCURACY": "S"}},{"geometry": {"type": "Point", "coordinates": [-71.405089466585423, 42.089321409138179]}, "type": "Feature", "id": 177, "properties": {"ENC_PC": "02038", "PA_FIPS": "25100", "NTLINK_ID": "22119439", "STATE": "MA", "COUNTY": "FRANKLIN", "CTYFIPS": "021", "PA_NAME": "FRANKLIN", "PC_NAME": "FRANKLIN", "POSTALCODE": "02038", "STFIPS": "25", "PC_TYPE": "NON UNIQUE", "ACCURACY": "PC"}},{"geometry": {"type": "Point", "coordinates": [-72.528309099032541, 42.093991443434462]}, "type": "Feature", "id": 178, "properties": {"ENC_PC": "01118", "PA_FIPS": "67000", "NTLINK_ID": "22297900", "STATE": "MA", "COUNTY": "ALEUTIANS EAST", "CTYFIPS": "013", "PA_NAME": "SPRINGFIELD", "PC_NAME": "SPRINGFIELD", "POSTALCODE": "01118", "STFIPS": "25", "PC_TYPE": "NON UNIQUE", "ACCURACY": "PC"}},{"geometry": {"type": "Point", "coordinates": [-71.750549353830394, 42.094181418458703]}, "type": "Feature", "id": 179, "properties": {"ENC_PC": "01590", "PA_FIPS": "37910", "NTLINK_ID": "92845105", "STATE": "MA", "COUNTY": "GRAYS HARBOR", "CTYFIPS": "027", "PA_NAME": "MANCHAUG", "PC_NAME": "MANCHAUG", "POSTALCODE": "01526", "STFIPS": "25", "PC_TYPE": "PO BOX", "ACCURACY": "S"}},{"geometry": {"type": "Point", "coordinates": [-72.489179110849022, 42.095961441593197]}, "type": "Feature", "id": 180, "properties": {"ENC_PC": "01128", "PA_FIPS": "67000", "NTLINK_ID": "22268586", "STATE": "MA", "COUNTY": "ALEUTIANS EAST", "CTYFIPS": "013", "PA_NAME": "SPRINGFIELD", "PC_NAME": "SPRINGFIELD", "POSTALCODE": "01128", "STFIPS": "25", "PC_TYPE": "NON UNIQUE", "ACCURACY": "PC"}},{"geometry": {"type": "Point", "coordinates": [-71.548559419054129, 42.096771411637363]}, "type": "Feature", "id": 181, "properties": {"ENC_PC": "01756", "PA_FIPS": "40220", "NTLINK_ID": "40020626", "STATE": "MA", "COUNTY": "GRAYS HARBOR", "CTYFIPS": "027", "PA_NAME": "MENDON", "PC_NAME": "MENDON", "POSTALCODE": "01756", "STFIPS": "25", "PC_TYPE": "NON UNIQUE", "ACCURACY": "PC"}},{"geometry": {"type": "Point", "coordinates": [-71.643529387903556, 42.096901414000151]}, "type": "Feature", "id": 182, "properties": {"ENC_PC": "01569", "PA_FIPS": "35635", "NTLINK_ID": "39990887", "STATE": "MA", "COUNTY": "GRAYS HARBOR", "CTYFIPS": "027", "PA_NAME": "LINWOOD", "PC_NAME": "LINWOOD", "POSTALCODE": "01525", "STFIPS": "25", "PC_TYPE": "PO BOX", "ACCURACY": "S"}},{"geometry": {"type": "Point", "coordinates": [-72.636569062334075, 42.09738144542473]}, "type": "Feature", "id": 183, "properties": {"ENC_PC": "01001", "PA_FIPS": "69695", "NTLINK_ID": "22321193", "STATE": "MA", "COUNTY": "ALEUTIANS EAST", "CTYFIPS": "013", "PA_NAME": "THORNDIKE", "PC_NAME": "THORNDIKE", "POSTALCODE": "01079", "STFIPS": "25", "PC_TYPE": "PO BOX", "ACCURACY": "S"}},{"geometry": {"type": "Point", "coordinates": [-72.635959063109297, 42.097661445681318]}, "type": "Feature", "id": 184, "properties": {"ENC_PC": "01001", "PA_FIPS": "64530", "NTLINK_ID": "22321193", "STATE": "MA", "COUNTY": "ASOTIN", "CTYFIPS": "003", "PA_NAME": "SOUTH LEE", "PC_NAME": "SOUTH LEE", "POSTALCODE": "01260", "STFIPS": "25", "PC_TYPE": "PO BOX", "ACCURACY": "S"}},{"geometry": {"type": "Point", "coordinates": [-72.319489165734865, 42.097941435652245]}, "type": "Feature", "id": 185, "properties": {"ENC_PC": "01057", "PA_FIPS": "42110", "NTLINK_ID": "89678574", "STATE": "MA", "COUNTY": "ALEUTIANS EAST", "CTYFIPS": "013", "PA_NAME": "MONSON", "PC_NAME": "MONSON", "POSTALCODE": "01057", "STFIPS": "25", "PC_TYPE": "NON UNIQUE", "ACCURACY": "PC"}},{"geometry": {"type": "Point", "coordinates": [-70.653399714008799, 42.098201384423888]}, "type": "Feature", "id": 186, "properties": {"ENC_PC": "02050", "PA_FIPS": "50845", "NTLINK_ID": "31065437", "STATE": "MA", "COUNTY": "GARFIELD", "CTYFIPS": "023", "PA_NAME": "OCEAN BLUFF", "PC_NAME": "OCEAN BLUFF", "POSTALCODE": "02065", "STFIPS": "25", "PC_TYPE": "PO BOX", "ACCURACY": "S"}},{"geometry": {"type": "Point", "coordinates": [-71.269709511436119, 42.101471402887832]}, "type": "Feature", "id": 187, "properties": {"ENC_PC": "02071", "PA_FIPS": "65545", "NTLINK_ID": "22115636", "STATE": "MA", "COUNTY": "FRANKLIN", "CTYFIPS": "021", "PA_NAME": "SOUTH WALPOLE", "PC_NAME": "SOUTH WALPOLE", "POSTALCODE": "02071", "STFIPS": "25", "PC_TYPE": "NON UNIQUE", "ACCURACY": "PC"}},{"geometry": {"type": "Point", "coordinates": [-73.36441882424478, 42.102341469348751]}, "type": "Feature", "id": 188, "properties": {"ENC_PC": "01257", "PA_FIPS": "61030", "NTLINK_ID": "89672922", "STATE": "MA", "COUNTY": "ASOTIN", "CTYFIPS": "003", "PA_NAME": "SHEFFIELD", "PC_NAME": "SHEFFIELD", "POSTALCODE": "01257", "STFIPS": "25", "PC_TYPE": "NON UNIQUE", "ACCURACY": "PC"}},{"geometry": {"type": "Point", "coordinates": [-72.590541578499852, 42.10235564757928]}, "type": "Feature", "id": 189, "properties": {"ENC_PC": "01144", "PA_FIPS": "67000", "NTLINK_ID": "778320459", "STATE": "MA", "COUNTY": "ALEUTIANS EAST", "CTYFIPS": "013", "PA_NAME": "SPRINGFIELD", "PC_NAME": "SPRINGFIELD", "POSTALCODE": "01144", "STFIPS": "25", "PC_TYPE": "NON UNIQUE", "ACCURACY": "PC"}},{"geometry": {"type": "Point", "coordinates": [-72.579199081691712, 42.102371443170014]}, "type": "Feature", "id": 190, "properties": {"ENC_PC": "01105", "PA_FIPS": "67000", "NTLINK_ID": "22297051", "STATE": "MA", "COUNTY": "ALEUTIANS EAST", "CTYFIPS": "013", "PA_NAME": "SPRINGFIELD", "PC_NAME": "SPRINGFIELD", "POSTALCODE": "01105", "STFIPS": "25", "PC_TYPE": "NON UNIQUE", "ACCURACY": "PC"}},{"geometry": {"type": "Point", "coordinates": [-72.589399077533457, 42.103161443443561]}, "type": "Feature", "id": 191, "properties": {"ENC_PC": "01103", "PA_FIPS": "67000", "NTLINK_ID": "867669282", "STATE": "MA", "COUNTY": "ALEUTIANS EAST", "CTYFIPS": "013", "PA_NAME": "SPRINGFIELD", "PC_NAME": "SPRINGFIELD", "POSTALCODE": "01103", "STFIPS": "25", "PC_TYPE": "NON UNIQUE", "ACCURACY": "PC"}},{"geometry": {"type": "Point", "coordinates": [-73.126938901748389, 42.103931460812717]}, "type": "Feature", "id": 192, "properties": {"ENC_PC": "01255", "PA_FIPS": "59630", "NTLINK_ID": "89675503", "STATE": "MA", "COUNTY": "ASOTIN", "CTYFIPS": "003", "PA_NAME": "SANDISFIELD", "PC_NAME": "SANDISFIELD", "POSTALCODE": "01255", "STFIPS": "25", "PC_TYPE": "NON UNIQUE", "ACCURACY": "PC"}},{"geometry": {"type": "Point", "coordinates": [-72.62180906826768, 42.106071444592843]}, "type": "Feature", "id": 193, "properties": {"ENC_PC": "01089", "PA_FIPS": "77885", "NTLINK_ID": "778415763", "STATE": "MA", "COUNTY": "ALEUTIANS EAST", "CTYFIPS": "013", "PA_NAME": "WEST SPRINGFIELD", "PC_NAME": "WEST SPRINGFIELD", "POSTALCODE": "01090", "STFIPS": "25", "PC_TYPE": "PO BOX", "ACCURACY": "S"}},{"geometry": {"type": "Point", "coordinates": [-72.597369074713967, 42.106221442692409]}, "type": "Feature", "id": 194, "properties": {"ENC_PC": "01104", "PA_FIPS": "67000", "NTLINK_ID": "22296803", "STATE": "MA", "COUNTY": "ALEUTIANS EAST", "CTYFIPS": "013", "PA_NAME": "SPRINGFIELD", "PC_NAME": "BAYSTATE MEDICAL", "POSTALCODE": "01199", "STFIPS": "25", "PC_TYPE": "UNIQUE ORGANIZATION", "ACCURACY": "S"}},{"geometry": {"type": "Point", "coordinates": [-70.69804969800272, 42.107261383842598]}, "type": "Feature", "id": 195, "properties": {"ENC_PC": "02050", "PA_FIPS": "38820", "NTLINK_ID": "31065157", "STATE": "MA", "COUNTY": "GARFIELD", "CTYFIPS": "023", "PA_NAME": "MARSHFIELD", "PC_NAME": "MARSHFIELD", "POSTALCODE": "02050", "STFIPS": "25", "PC_TYPE": "NON UNIQUE", "ACCURACY": "PC"}},{"geometry": {"type": "Point", "coordinates": [-72.076789245452119, 42.108191426081945]}, "type": "Feature", "id": 196, "properties": {"ENC_PC": "01566", "PA_FIPS": "68120", "NTLINK_ID": "39993825", "STATE": "MA", "COUNTY": "GRAYS HARBOR", "CTYFIPS": "027", "PA_NAME": "STURBRIDGE", "PC_NAME": "STURBRIDGE", "POSTALCODE": "01566", "STFIPS": "25", "PC_TYPE": "NON UNIQUE", "ACCURACY": "PC"}},{"geometry": {"type": "Point", "coordinates": [-71.178109540358804, 42.112651397547864]}, "type": "Feature", "id": 197, "properties": {"ENC_PC": "02067", "PA_FIPS": "60820", "NTLINK_ID": "777785171", "STATE": "MA", "COUNTY": "FRANKLIN", "CTYFIPS": "021", "PA_NAME": "SHARON", "PC_NAME": "SHARON", "POSTALCODE": "02067", "STFIPS": "25", "PC_TYPE": "NON UNIQUE", "ACCURACY": "PC"}},{"geometry": {"type": "Point", "coordinates": [-72.560299086696318, 42.112791439892611]}, "type": "Feature", "id": 198, "properties": {"ENC_PC": "01109", "PA_FIPS": "67000", "NTLINK_ID": "22318290", "STATE": "MA", "COUNTY": "ALEUTIANS EAST", "CTYFIPS": "013", "PA_NAME": "SPRINGFIELD", "PC_NAME": "SPRINGFIELD", "POSTALCODE": "01139", "STFIPS": "25", "PC_TYPE": "PO BOX", "ACCURACY": "S"}},{"geometry": {"type": "Point", "coordinates": [-73.267648856785087, 42.113211463884213]}, "type": "Feature", "id": 199, "properties": {"ENC_PC": "01230", "PA_FIPS": "41550", "NTLINK_ID": "89656520", "STATE": "MA", "COUNTY": "ASOTIN", "CTYFIPS": "003", "PA_NAME": "MILL RIVER", "PC_NAME": "MILL RIVER", "POSTALCODE": "01244", "STFIPS": "25", "PC_TYPE": "PO BOX", "ACCURACY": "S"}},{"geometry": {"type": "Point", "coordinates": [-70.820659657604338, 42.114301386834491]}, "type": "Feature", "id": 200, "properties": {"ENC_PC": "02339", "PA_FIPS": "28250", "NTLINK_ID": "835896911", "STATE": "MA", "COUNTY": "GARFIELD", "CTYFIPS": "023", "PA_NAME": "HANOVER", "PC_NAME": "WEARGUARD", "POSTALCODE": "02340", "STFIPS": "25", "PC_TYPE": "UNIQUE ORGANIZATION", "ACCURACY": "S"}},{"geometry": {"type": "Point", "coordinates": [-72.748809024965823, 42.114351446321777]}, "type": "Feature", "id": 201, "properties": {"ENC_PC": "01085", "PA_FIPS": "76030", "NTLINK_ID": "22315853", "STATE": "MA", "COUNTY": "ALEUTIANS EAST", "CTYFIPS": "013", "PA_NAME": "WESTFIELD", "PC_NAME": "WESTFIELD", "POSTALCODE": "01086", "STFIPS": "25", "PC_TYPE": "PO BOX", "ACCURACY": "S"}},{"geometry": {"type": "Point", "coordinates": [-71.86870931298148, 42.114631418056547]}, "type": "Feature", "id": 202, "properties": {"ENC_PC": "01540", "PA_FIPS": "51790", "NTLINK_ID": "39990406", "STATE": "MA", "COUNTY": "GRAYS HARBOR", "CTYFIPS": "027", "PA_NAME": "OXFORD", "PC_NAME": "OXFORD", "POSTALCODE": "01540", "STFIPS": "25", "PC_TYPE": "NON UNIQUE", "ACCURACY": "PC"}},{"geometry": {"type": "Point", "coordinates": [-72.636619061747169, 42.115221442062705]}, "type": "Feature", "id": 203, "properties": {"ENC_PC": "01089", "PA_FIPS": "77885", "NTLINK_ID": "22315856", "STATE": "MA", "COUNTY": "ALEUTIANS EAST", "CTYFIPS": "013", "PA_NAME": "WEST SPRINGFIELD", "PC_NAME": "WEST SPRINGFIELD", "POSTALCODE": "01089", "STFIPS": "25", "PC_TYPE": "NON UNIQUE", "ACCURACY": "PC"}},{"geometry": {"type": "Point", "coordinates": [-71.332689489504318, 42.11681140191196]}, "type": "Feature", "id": 204, "properties": {"ENC_PC": "02056", "PA_FIPS": "46015", "NTLINK_ID": "92845820", "STATE": "MA", "COUNTY": "FRANKLIN", "CTYFIPS": "021", "PA_NAME": "NORFOLK", "PC_NAME": "NORFOLK", "POSTALCODE": "02056", "STFIPS": "25", "PC_TYPE": "NON UNIQUE", "ACCURACY": "PC"}},{"geometry": {"type": "Point", "coordinates": [-72.551069089705877, 42.116941439702593]}, "type": "Feature", "id": 205, "properties": {"ENC_PC": "01109", "PA_FIPS": "67000", "NTLINK_ID": "788105497", "STATE": "MA", "COUNTY": "ALEUTIANS EAST", "CTYFIPS": "013", "PA_NAME": "SPRINGFIELD", "PC_NAME": "SPRINGFIELD", "POSTALCODE": "01109", "STFIPS": "25", "PC_TYPE": "NON UNIQUE", "ACCURACY": "PC"}},{"geometry": {"type": "Point", "coordinates": [-71.664799380069468, 42.117051411465653]}, "type": "Feature", "id": 206, "properties": {"ENC_PC": "01588", "PA_FIPS": "79495", "NTLINK_ID": "40017610", "STATE": "MA", "COUNTY": "GRAYS HARBOR", "CTYFIPS": "027", "PA_NAME": "WHITINSVILLE", "PC_NAME": "WHITINSVILLE", "POSTALCODE": "01588", "STFIPS": "25", "PC_TYPE": "NON UNIQUE", "ACCURACY": "PC"}},{"geometry": {"type": "Point", "coordinates": [-70.954409613757733, 42.117351390794745]}, "type": "Feature", "id": 207, "properties": {"ENC_PC": "02351", "PA_FIPS": "00135", "NTLINK_ID": "22106148", "STATE": "MA", "COUNTY": "GARFIELD", "CTYFIPS": "023", "PA_NAME": "ABINGTON", "PC_NAME": "ABINGTON", "POSTALCODE": "02351", "STFIPS": "25", "PC_TYPE": "NON UNIQUE", "ACCURACY": "PC"}},{"geometry": {"type": "Point", "coordinates": [-72.548219091732562, 42.11756143957637]}, "type": "Feature", "id": 208, "properties": {"ENC_PC": "01109", "PA_FIPS": "67000", "NTLINK_ID": "22295819", "STATE": "MA", "COUNTY": "ALEUTIANS EAST", "CTYFIPS": "013", "PA_NAME": "SPRINGFIELD", "PC_NAME": "MASS MUTUAL LIFE INS CO", "POSTALCODE": "01111", "STFIPS": "25", "PC_TYPE": "UNIQUE ORGANIZATION", "ACCURACY": "S"}},{"geometry": {"type": "Point", "coordinates": [-72.76432901931328, 42.11950144590265]}, "type": "Feature", "id": 209, "properties": {"ENC_PC": "01085", "PA_FIPS": "54275", "NTLINK_ID": "89697161", "STATE": "MA", "COUNTY": "GARFIELD", "CTYFIPS": "023", "PA_NAME": "PLYMOUTH", "PC_NAME": "PLYMOUTH", "POSTALCODE": "02362", "STFIPS": "25", "PC_TYPE": "PO BOX", "ACCURACY": "S"}},{"geometry": {"type": "Point", "coordinates": [-72.115779232075624, 42.119661424955041]}, "type": "Feature", "id": 210, "properties": {"ENC_PC": "01518", "PA_FIPS": "23840", "NTLINK_ID": "710913556", "STATE": "MA", "COUNTY": "GRAYS HARBOR", "CTYFIPS": "027", "PA_NAME": "FISKDALE", "PC_NAME": "FISKDALE", "POSTALCODE": "01518", "STFIPS": "25", "PC_TYPE": "NON UNIQUE", "ACCURACY": "PC"}},{"geometry": {"type": "Point", "coordinates": [-72.606869071068772, 42.119841440881977]}, "type": "Feature", "id": 211, "properties": {"ENC_PC": "01107", "PA_FIPS": "67000", "NTLINK_ID": "22295589", "STATE": "MA", "COUNTY": "ALEUTIANS EAST", "CTYFIPS": "013", "PA_NAME": "SPRINGFIELD", "PC_NAME": "SPRINGFIELD", "POSTALCODE": "01107", "STFIPS": "25", "PC_TYPE": "NON UNIQUE", "ACCURACY": "PC"}},{"geometry": {"type": "Point", "coordinates": [-70.856339644682606, 42.124361386157013]}, "type": "Feature", "id": 212, "properties": {"ENC_PC": "02339", "PA_FIPS": "28250", "NTLINK_ID": "31038738", "STATE": "MA", "COUNTY": "GARFIELD", "CTYFIPS": "023", "PA_NAME": "HANOVER", "PC_NAME": "HANOVER", "POSTALCODE": "02339", "STFIPS": "25", "PC_TYPE": "NON UNIQUE", "ACCURACY": "PC"}},{"geometry": {"type": "Point", "coordinates": [-71.534539422705691, 42.125531406349154]}, "type": "Feature", "id": 213, "properties": {"ENC_PC": "01747", "PA_FIPS": "30980", "NTLINK_ID": "39990149", "STATE": "MA", "COUNTY": "GRAYS HARBOR", "CTYFIPS": "027", "PA_NAME": "HOPEDALE", "PC_NAME": "HOPEDALE", "POSTALCODE": "01747", "STFIPS": "25", "PC_TYPE": "NON UNIQUE", "ACCURACY": "PC"}},{"geometry": {"type": "Point", "coordinates": [-71.04522958321769, 42.126271391200873]}, "type": "Feature", "id": 214, "properties": {"ENC_PC": "02322", "PA_FIPS": "02970", "NTLINK_ID": "21960152", "STATE": "MA", "COUNTY": "FRANKLIN", "CTYFIPS": "021", "PA_NAME": "AVON", "PC_NAME": "AVON", "POSTALCODE": "02322", "STFIPS": "25", "PC_TYPE": "NON UNIQUE", "ACCURACY": "PC"}},{"geometry": {"type": "Point", "coordinates": [-72.488649110538091, 42.12637143521107]}, "type": "Feature", "id": 215, "properties": {"ENC_PC": "01129", "PA_FIPS": "67000", "NTLINK_ID": "22268036", "STATE": "MA", "COUNTY": "ALEUTIANS EAST", "CTYFIPS": "013", "PA_NAME": "SPRINGFIELD", "PC_NAME": "SPRINGFIELD", "POSTALCODE": "01129", "STFIPS": "25", "PC_TYPE": "NON UNIQUE", "ACCURACY": "PC"}},{"geometry": {"type": "Point", "coordinates": [-71.106839561908089, 42.126671392652156]}, "type": "Feature", "id": 216, "properties": {"ENC_PC": "02072", "PA_FIPS": "67980", "NTLINK_ID": "21960163", "STATE": "MA", "COUNTY": "FRANKLIN", "CTYFIPS": "021", "PA_NAME": "STOUGHTON", "PC_NAME": "STOUGHTON", "POSTALCODE": "02072", "STFIPS": "25", "PC_TYPE": "NON UNIQUE", "ACCURACY": "PC"}},{"geometry": {"type": "Point", "coordinates": [-72.510779102444374, 42.127431435746679]}, "type": "Feature", "id": 217, "properties": {"ENC_PC": "01119", "PA_FIPS": "67000", "NTLINK_ID": "22294856", "STATE": "MA", "COUNTY": "ALEUTIANS EAST", "CTYFIPS": "013", "PA_NAME": "SPRINGFIELD", "PC_NAME": "SPRINGFIELD", "POSTALCODE": "01119", "STFIPS": "25", "PC_TYPE": "NON UNIQUE", "ACCURACY": "PC"}},{"geometry": {"type": "Point", "coordinates": [-72.749099024968842, 42.128831444037417]}, "type": "Feature", "id": 218, "properties": {"ENC_PC": "01085", "PA_FIPS": "76030", "NTLINK_ID": "89672350", "STATE": "MA", "COUNTY": "ALEUTIANS EAST", "CTYFIPS": "013", "PA_NAME": "WESTFIELD", "PC_NAME": "WESTFIELD", "POSTALCODE": "01085", "STFIPS": "25", "PC_TYPE": "NON UNIQUE", "ACCURACY": "PC"}},{"geometry": {"type": "Point", "coordinates": [-72.57433908180856, 42.129801438003462]}, "type": "Feature", "id": 219, "properties": {"ENC_PC": "01104", "PA_FIPS": "67000", "NTLINK_ID": "22294905", "STATE": "MA", "COUNTY": "ALEUTIANS EAST", "CTYFIPS": "013", "PA_NAME": "SPRINGFIELD", "PC_NAME": "SPRINGFIELD", "POSTALCODE": "01104", "STFIPS": "25", "PC_TYPE": "NON UNIQUE", "ACCURACY": "PC"}},{"geometry": {"type": "Point", "coordinates": [-70.911469626572853, 42.129931386158276]}, "type": "Feature", "id": 220, "properties": {"ENC_PC": "02370", "PA_FIPS": "57810", "NTLINK_ID": "21952833", "STATE": "MA", "COUNTY": "GARFIELD", "CTYFIPS": "023", "PA_NAME": "ROCKLAND", "PC_NAME": "ROCKLAND", "POSTALCODE": "02370", "STFIPS": "25", "PC_TYPE": "NON UNIQUE", "ACCURACY": "PC"}},{"geometry": {"type": "Point", "coordinates": [-72.442669124120798, 42.130191432584468]}, "type": "Feature", "id": 221, "properties": {"ENC_PC": "01095", "PA_FIPS": "79705", "NTLINK_ID": "22287720", "STATE": "MA", "COUNTY": "ALEUTIANS EAST", "CTYFIPS": "013", "PA_NAME": "WILBRAHAM", "PC_NAME": "WILBRAHAM", "POSTALCODE": "01095", "STFIPS": "25", "PC_TYPE": "NON UNIQUE", "ACCURACY": "PC"}},{"geometry": {"type": "Point", "coordinates": [-72.199659204557022, 42.133961425000749]}, "type": "Feature", "id": 222, "properties": {"ENC_PC": "01010", "PA_FIPS": "08435", "NTLINK_ID": "89655081", "STATE": "MA", "COUNTY": "ALEUTIANS EAST", "CTYFIPS": "013", "PA_NAME": "BRIMFIELD", "PC_NAME": "BRIMFIELD", "POSTALCODE": "01010", "STFIPS": "25", "PC_TYPE": "NON UNIQUE", "ACCURACY": "PC"}},{"geometry": {"type": "Point", "coordinates": [-71.659849379517709, 42.135161407775229]}, "type": "Feature", "id": 223, "properties": {"ENC_PC": "01534", "PA_FIPS": "48430", "NTLINK_ID": "40009020", "STATE": "MA", "COUNTY": "GARFIELD", "CTYFIPS": "023", "PA_NAME": "NORTH MARSHFIELD", "PC_NAME": "NORTH MARSHFIELD", "POSTALCODE": "02059", "STFIPS": "25", "PC_TYPE": "PO BOX", "ACCURACY": "S"}},{"geometry": {"type": "Point", "coordinates": [-71.96436928132519, 42.138131416682981]}, "type": "Feature", "id": 224, "properties": {"ENC_PC": "01507", "PA_FIPS": "12680", "NTLINK_ID": "39994970", "STATE": "MA", "COUNTY": "GRAYS HARBOR", "CTYFIPS": "027", "PA_NAME": "CHARLTON", "PC_NAME": "CHARLTON", "POSTALCODE": "01507", "STFIPS": "25", "PC_TYPE": "NON UNIQUE", "ACCURACY": "PC"}},{"geometry": {"type": "Point", "coordinates": [-71.970029278862924, 42.138711417528512]}, "type": "Feature", "id": 225, "properties": {"ENC_PC": "01507", "PA_FIPS": "12855", "NTLINK_ID": "39989855", "STATE": "MA", "COUNTY": "GRAYS HARBOR", "CTYFIPS": "027", "PA_NAME": "CHARLTON DEPOT", "PC_NAME": "CHARLTON DEPOT", "POSTALCODE": "01509", "STFIPS": "25", "PC_TYPE": "PO BOX", "ACCURACY": "S"}},{"geometry": {"type": "Point", "coordinates": [-71.74499935284986, 42.143911408131231]}, "type": "Feature", "id": 226, "properties": {"ENC_PC": "01590", "PA_FIPS": "68575", "NTLINK_ID": "39989764", "STATE": "MA", "COUNTY": "GRAYS HARBOR", "CTYFIPS": "027", "PA_NAME": "SUTTON", "PC_NAME": "SUTTON", "POSTALCODE": "01590", "STFIPS": "25", "PC_TYPE": "NON UNIQUE", "ACCURACY": "PC"}},{"geometry": {"type": "Point", "coordinates": [-72.608359068928081, 42.14562143597766]}, "type": "Feature", "id": 227, "properties": {"ENC_PC": "01013", "PA_FIPS": "13660", "NTLINK_ID": "778461338", "STATE": "MA", "COUNTY": "ALEUTIANS EAST", "CTYFIPS": "013", "PA_NAME": "CHICOPEE", "PC_NAME": "CHICOPEE", "POSTALCODE": "01014", "STFIPS": "25", "PC_TYPE": "PO BOX", "ACCURACY": "S"}},{"geometry": {"type": "Point", "coordinates": [-72.613819068383691, 42.146261436014434]}, "type": "Feature", "id": 228, "properties": {"ENC_PC": "01013", "PA_FIPS": "82000", "NTLINK_ID": "22322281", "STATE": "MA", "COUNTY": "GRAYS HARBOR", "CTYFIPS": "027", "PA_NAME": "WORCESTER", "PC_NAME": "WORCESTER", "POSTALCODE": "01614", "STFIPS": "25", "PC_TYPE": "PO BOX", "ACCURACY": "S"}},{"geometry": {"type": "Point", "coordinates": [-71.989249272023415, 42.146401416107565]}, "type": "Feature", "id": 229, "properties": {"ENC_PC": "01507", "PA_FIPS": "12820", "NTLINK_ID": "39989556", "STATE": "MA", "COUNTY": "GRAYS HARBOR", "CTYFIPS": "027", "PA_NAME": "CHARLTON CITY", "PC_NAME": "CHARLTON CITY", "POSTALCODE": "01508", "STFIPS": "25", "PC_TYPE": "PO BOX", "ACCURACY": "S"}},{"geometry": {"type": "Point", "coordinates": [-72.604459070762616, 42.146642516996693]}, "type": "Feature", "id": 230, "properties": {"ENC_PC": "01013", "PA_FIPS": "13660", "NTLINK_ID": "22293385", "STATE": "MA", "COUNTY": "ALEUTIANS EAST", "CTYFIPS": "013", "PA_NAME": "CHICOPEE", "PC_NAME": "CHICOPEE", "POSTALCODE": "01013", "STFIPS": "25", "PC_TYPE": "NON UNIQUE", "ACCURACY": "PC"}},{"geometry": {"type": "Point", "coordinates": [-71.250679514721185, 42.146771392716772]}, "type": "Feature", "id": 231, "properties": {"ENC_PC": "02081", "PA_FIPS": "72460", "NTLINK_ID": "24897755", "STATE": "MA", "COUNTY": "FRANKLIN", "CTYFIPS": "021", "PA_NAME": "WALPOLE", "PC_NAME": "WALPOLE", "POSTALCODE": "02081", "STFIPS": "25", "PC_TYPE": "NON UNIQUE", "ACCURACY": "PC"}},{"geometry": {"type": "Point", "coordinates": [-71.65532938110394, 42.147121405651696]}, "type": "Feature", "id": 232, "properties": {"ENC_PC": "01534", "PA_FIPS": "46890", "NTLINK_ID": "39989771", "STATE": "MA", "COUNTY": "GRAYS HARBOR", "CTYFIPS": "027", "PA_NAME": "NORTHBRIDGE", "PC_NAME": "NORTHBRIDGE", "POSTALCODE": "01534", "STFIPS": "25", "PC_TYPE": "NON UNIQUE", "ACCURACY": "PC"}},{"geometry": {"type": "Point", "coordinates": [-71.009729592880532, 42.147141386080584]}, "type": "Feature", "id": 233, "properties": {"ENC_PC": "02343", "PA_FIPS": "30420", "NTLINK_ID": "21962384", "STATE": "MA", "COUNTY": "FRANKLIN", "CTYFIPS": "021", "PA_NAME": "HOLBROOK", "PC_NAME": "HOLBROOK", "POSTALCODE": "02343", "STFIPS": "25", "PC_TYPE": "NON UNIQUE", "ACCURACY": "PC"}},{"geometry": {"type": "Point", "coordinates": [-70.73357968469341, 42.149291377167522]}, "type": "Feature", "id": 234, "properties": {"ENC_PC": "02050", "PA_FIPS": "38960", "NTLINK_ID": "31064176", "STATE": "MA", "COUNTY": "GARFIELD", "CTYFIPS": "023", "PA_NAME": "MARSHFIELD HILLS", "PC_NAME": "MARSHFIELD HILLS", "POSTALCODE": "02051", "STFIPS": "25", "PC_TYPE": "PO BOX", "ACCURACY": "S"}},{"geometry": {"type": "Point", "coordinates": [-72.535659092134054, 42.15000143270013]}, "type": "Feature", "id": 235, "properties": {"ENC_PC": "01104", "PA_FIPS": "63445", "NTLINK_ID": "22293131", "STATE": "MA", "COUNTY": "GARFIELD", "CTYFIPS": "023", "PA_NAME": "SOUTH CARVER", "PC_NAME": "SOUTH CARVER", "POSTALCODE": "02366", "STFIPS": "25", "PC_TYPE": "PO BOX", "ACCURACY": "S"}},{"geometry": {"type": "Point", "coordinates": [-71.524209424502558, 42.150601400502048]}, "type": "Feature", "id": 236, "properties": {"ENC_PC": "01757", "PA_FIPS": "41200", "NTLINK_ID": "39989462", "STATE": "MA", "COUNTY": "GRAYS HARBOR", "CTYFIPS": "027", "PA_NAME": "MILFORD", "PC_NAME": "MILFORD", "POSTALCODE": "01757", "STFIPS": "25", "PC_TYPE": "NON UNIQUE", "ACCURACY": "PC"}},{"geometry": {"type": "Point", "coordinates": [-71.420989457731466, 42.150651397390241]}, "type": "Feature", "id": 237, "properties": {"ENC_PC": "02053", "PA_FIPS": "39940", "NTLINK_ID": "22031955", "STATE": "MA", "COUNTY": "FRANKLIN", "CTYFIPS": "021", "PA_NAME": "MEDWAY", "PC_NAME": "MEDWAY", "POSTALCODE": "02053", "STFIPS": "25", "PC_TYPE": "NON UNIQUE", "ACCURACY": "PC"}},{"geometry": {"type": "Point", "coordinates": [-72.502969103667084, 42.153651431089408]}, "type": "Feature", "id": 238, "properties": {"ENC_PC": "01151", "PA_FIPS": "32100", "NTLINK_ID": "22292946", "STATE": "MA", "COUNTY": "ALEUTIANS EAST", "CTYFIPS": "013", "PA_NAME": "INDIAN ORCHARD", "PC_NAME": "INDIAN ORCHARD", "POSTALCODE": "01151", "STFIPS": "25", "PC_TYPE": "NON UNIQUE", "ACCURACY": "PC"}},{"geometry": {"type": "Point", "coordinates": [-72.515131599259817, 42.15442283317519]}, "type": "Feature", "id": 239, "properties": {"ENC_PC": "01152", "PA_FIPS": "67000", "NTLINK_ID": "747009348", "STATE": "MA", "COUNTY": "ALEUTIANS EAST", "CTYFIPS": "013", "PA_NAME": "SPRINGFIELD", "PC_NAME": "SPRINGFIELD", "POSTALCODE": "01152", "STFIPS": "25", "PC_TYPE": "NON UNIQUE", "ACCURACY": "PC"}},{"geometry": {"type": "Point", "coordinates": [-71.216019525708134, 42.155891391074327]}, "type": "Feature", "id": 240, "properties": {"ENC_PC": "02032", "PA_FIPS": "20730", "NTLINK_ID": "818222355", "STATE": "MA", "COUNTY": "FRANKLIN", "CTYFIPS": "021", "PA_NAME": "EAST WALPOLE", "PC_NAME": "EAST WALPOLE", "POSTALCODE": "02032", "STFIPS": "25", "PC_TYPE": "NON UNIQUE", "ACCURACY": "PC"}},{"geometry": {"type": "Point", "coordinates": [-72.585519075670547, 42.158451432345522]}, "type": "Feature", "id": 241, "properties": {"ENC_PC": "01020", "PA_FIPS": "13660", "NTLINK_ID": "22306311", "STATE": "MA", "COUNTY": "ALEUTIANS EAST", "CTYFIPS": "013", "PA_NAME": "CHICOPEE", "PC_NAME": "CHICOPEE", "POSTALCODE": "01021", "STFIPS": "25", "PC_TYPE": "PO BOX", "ACCURACY": "S"}},{"geometry": {"type": "Point", "coordinates": [-70.827759653312754, 42.160381378037499]}, "type": "Feature", "id": 242, "properties": {"ENC_PC": "02061", "PA_FIPS": "50110", "NTLINK_ID": "31038473", "STATE": "MA", "COUNTY": "GARFIELD", "CTYFIPS": "023", "PA_NAME": "NORWELL", "PC_NAME": "NORWELL", "POSTALCODE": "02061", "STFIPS": "25", "PC_TYPE": "NON UNIQUE", "ACCURACY": "PC"}},{"geometry": {"type": "Point", "coordinates": [-72.577639077657395, 42.163171430896305]}, "type": "Feature", "id": 243, "properties": {"ENC_PC": "01020", "PA_FIPS": "31715", "NTLINK_ID": "22292388", "STATE": "MA", "COUNTY": "GARFIELD", "CTYFIPS": "023", "PA_NAME": "HUMAROCK", "PC_NAME": "HUMAROCK", "POSTALCODE": "02047", "STFIPS": "25", "PC_TYPE": "PO BOX", "ACCURACY": "S"}},{"geometry": {"type": "Point", "coordinates": [-71.132229552260412, 42.163921386281615]}, "type": "Feature", "id": 244, "properties": {"ENC_PC": "02021", "PA_FIPS": "11350", "NTLINK_ID": "21965164", "STATE": "MA", "COUNTY": "FRANKLIN", "CTYFIPS": "021", "PA_NAME": "CANTON", "PC_NAME": "CANTON", "POSTALCODE": "02021", "STFIPS": "25", "PC_TYPE": "NON UNIQUE", "ACCURACY": "PC"}},{"geometry": {"type": "Point", "coordinates": [-72.858328986692001, 42.16649143948365]}, "type": "Feature", "id": 245, "properties": {"ENC_PC": "01071", "PA_FIPS": "58615", "NTLINK_ID": "89683168", "STATE": "MA", "COUNTY": "ALEUTIANS EAST", "CTYFIPS": "013", "PA_NAME": "RUSSELL", "PC_NAME": "RUSSELL", "POSTALCODE": "01071", "STFIPS": "25", "PC_TYPE": "NON UNIQUE", "ACCURACY": "PC"}},{"geometry": {"type": "Point", "coordinates": [-71.358909477883458, 42.166891392653007]}, "type": "Feature", "id": 246, "properties": {"ENC_PC": "02054", "PA_FIPS": "41480", "NTLINK_ID": "22346246", "STATE": "MA", "COUNTY": "FRANKLIN", "CTYFIPS": "021", "PA_NAME": "MILLIS", "PC_NAME": "MILLIS", "POSTALCODE": "02054", "STFIPS": "25", "PC_TYPE": "NON UNIQUE", "ACCURACY": "PC"}},{"geometry": {"type": "Point", "coordinates": [-72.324339161495104, 42.167901422490928]}, "type": "Feature", "id": 247, "properties": {"ENC_PC": "01069", "PA_FIPS": "52070", "NTLINK_ID": "89671561", "STATE": "MA", "COUNTY": "ALEUTIANS EAST", "CTYFIPS": "013", "PA_NAME": "PALMER", "PC_NAME": "PALMER", "POSTALCODE": "01069", "STFIPS": "25", "PC_TYPE": "NON UNIQUE", "ACCURACY": "PC"}},{"geometry": {"type": "Point", "coordinates": [-71.892339301871132, 42.169431408156896]}, "type": "Feature", "id": 248, "properties": {"ENC_PC": "01537", "PA_FIPS": "48675", "NTLINK_ID": "39988968", "STATE": "MA", "COUNTY": "GRAYS HARBOR", "CTYFIPS": "027", "PA_NAME": "NORTH OXFORD", "PC_NAME": "NORTH OXFORD", "POSTALCODE": "01537", "STFIPS": "25", "PC_TYPE": "NON UNIQUE", "ACCURACY": "PC"}},{"geometry": {"type": "Point", "coordinates": [-70.949229612498385, 42.17150137952536]}, "type": "Feature", "id": 249, "properties": {"ENC_PC": "02190", "PA_FIPS": "65720", "NTLINK_ID": "21955433", "STATE": "MA", "COUNTY": "FRANKLIN", "CTYFIPS": "021", "PA_NAME": "SOUTH WEYMOUTH", "PC_NAME": "SOUTH WEYMOUTH", "POSTALCODE": "02190", "STFIPS": "25", "PC_TYPE": "NON UNIQUE", "ACCURACY": "PC"}},{"geometry": {"type": "Point", "coordinates": [-71.607459394570455, 42.172461398293436]}, "type": "Feature", "id": 250, "properties": {"ENC_PC": "01568", "PA_FIPS": "71445", "NTLINK_ID": "39988858", "STATE": "MA", "COUNTY": "GRAYS HARBOR", "CTYFIPS": "027", "PA_NAME": "UPTON", "PC_NAME": "UPTON", "POSTALCODE": "01568", "STFIPS": "25", "PC_TYPE": "NON UNIQUE", "ACCURACY": "PC"}},{"geometry": {"type": "Point", "coordinates": [-72.471989112141358, 42.173461425924003]}, "type": "Feature", "id": 251, "properties": {"ENC_PC": "01056", "PA_FIPS": "37210", "NTLINK_ID": "22286479", "STATE": "MA", "COUNTY": "ALEUTIANS EAST", "CTYFIPS": "013", "PA_NAME": "LUDLOW", "PC_NAME": "LUDLOW", "POSTALCODE": "01056", "STFIPS": "25", "PC_TYPE": "NON UNIQUE", "ACCURACY": "PC"}},{"geometry": {"type": "Point", "coordinates": [-71.051039579520648, 42.174091381525947]}, "type": "Feature", "id": 252, "properties": {"ENC_PC": "02368", "PA_FIPS": "55990", "NTLINK_ID": "21961926", "STATE": "MA", "COUNTY": "FRANKLIN", "CTYFIPS": "021", "PA_NAME": "RANDOLPH", "PC_NAME": "RANDOLPH", "POSTALCODE": "02368", "STFIPS": "25", "PC_TYPE": "NON UNIQUE", "ACCURACY": "PC"}},{"geometry": {"type": "Point", "coordinates": [-71.685359369816595, 42.175131401126805]}, "type": "Feature", "id": 253, "properties": {"ENC_PC": "01560", "PC_TYPE": "NON UNIQUE", "NTLINK_ID": "40009419", "STATE": "MA", "COUNTY": "GRAYS HARBOR", "CTYFIPS": "027", "PA_NAME": "SOUTH GRAFTON", "PC_NAME": "SOUTH GRAFTON", "POSTALCODE": "01560", "STFIPS": "25", "ACCURACY": "PC"}},{"geometry": {"type": "Point", "coordinates": [-70.88749963314207, 42.175291377304497]}, "type": "Feature", "id": 254, "properties": {"ENC_PC": "02043", "PA_FIPS": "00240", "NTLINK_ID": "22212613", "STATE": "MA", "COUNTY": "GARFIELD", "CTYFIPS": "023", "PA_NAME": "ACCORD", "PC_NAME": "ACCORD", "POSTALCODE": "02018", "STFIPS": "25", "PC_TYPE": "PO BOX", "ACCURACY": "S"}},{"geometry": {"type": "Point", "coordinates": [-72.575319078714713, 42.176291428968156]}, "type": "Feature", "id": 255, "properties": {"ENC_PC": "01020", "PA_FIPS": "13660", "NTLINK_ID": "22291807", "STATE": "MA", "COUNTY": "ALEUTIANS EAST", "CTYFIPS": "013", "PA_NAME": "CHICOPEE", "PC_NAME": "CHICOPEE", "POSTALCODE": "01020", "STFIPS": "25", "PC_TYPE": "NON UNIQUE", "ACCURACY": "PC"}},{"geometry": {"type": "Point", "coordinates": [-73.040288925578977, 42.176491444139835]}, "type": "Feature", "id": 256, "properties": {"ENC_PC": "01008", "PA_FIPS": "20240", "NTLINK_ID": "89685783", "STATE": "MA", "COUNTY": "ASOTIN", "CTYFIPS": "003", "PA_NAME": "EAST OTIS", "PC_NAME": "EAST OTIS", "POSTALCODE": "01029", "STFIPS": "25", "PC_TYPE": "PO BOX", "ACCURACY": "S"}},{"geometry": {"type": "Point", "coordinates": [-70.747329678437694, 42.177821372300158]}, "type": "Feature", "id": 257, "properties": {"ENC_PC": "02066", "PA_FIPS": "26955", "NTLINK_ID": "31064072", "STATE": "MA", "COUNTY": "GARFIELD", "CTYFIPS": "023", "PA_NAME": "GREENBUSH", "PC_NAME": "GREENBUSH", "POSTALCODE": "02040", "STFIPS": "25", "PC_TYPE": "PO BOX", "ACCURACY": "S"}},{"geometry": {"type": "Point", "coordinates": [-72.362779147271624, 42.181241421302651]}, "type": "Feature", "id": 258, "properties": {"ENC_PC": "01080", "PA_FIPS": "69730", "NTLINK_ID": "89655167", "STATE": "MA", "COUNTY": "ALEUTIANS EAST", "CTYFIPS": "013", "PA_NAME": "THREE RIVERS", "PC_NAME": "THREE RIVERS", "POSTALCODE": "01080", "STFIPS": "25", "PC_TYPE": "NON UNIQUE", "ACCURACY": "PC"}},{"geometry": {"type": "Point", "coordinates": [-73.210348869671535, 42.181491448533457]}, "type": "Feature", "id": 259, "properties": {"ENC_PC": "01245", "PA_FIPS": "42425", "NTLINK_ID": "818662786", "STATE": "MA", "COUNTY": "ASOTIN", "CTYFIPS": "003", "PA_NAME": "MONTEREY", "PC_NAME": "MONTEREY", "POSTALCODE": "01245", "STFIPS": "25", "PC_TYPE": "NON UNIQUE", "ACCURACY": "PC"}},{"geometry": {"type": "Point", "coordinates": [-72.958498953529983, 42.184691439582359]},